nama_tempat,rating_tempat,user_ratings_total,latitude,longitude,alamat_tempat,place_id,distance
wahyoo warteg barokah,4.5,2,-6.1907272,106.8163628,"rr58+pg5, rt.4/rw.6, kebon kacang, central jakarta city",ChIJ____v532aS4Rw7jGNRR4xdI,0
wahyoo warteg sederhana srijaya,0,0,-6.190074,106.812076,"no. 111 tanah abang jalan jembatan tinggi raya, rt.16/rw.9, kebon kacang, central jakarta city",ChIJg0zKtwH3aS4Rzw8GJxFe-jE,0
warteg ibu yus,4.8,6,-6.1933322,106.8154457,"jalan kebon kacang depan pull taxi thamrin city kelurahan kecamatan tanah abang, rt.2/rw.8, kb. kacang, dki jakarta",ChIJMZ45YJ72aS4RcCvPqRDsEgI,0
warteg dewi sri,4.1,26,-6.190155600000001,106.8129445,"jalan jati bunder raya samping pos polisi kelurahan tanah abang, jl. kb. kacang 1, rt.12/rw.9, kb. kacang, dki jakarta",ChIJ811NeJz2aS4RCGUvZNke190,0
warteg bon.cank sebels,4.3,27,-6.188962699999999,106.821315,"kebon kacang, central jakarta city",ChIJmYUsUSb0aS4RHF-HhVc5JFA,0
warteg mulya,4.9,10,-6.22113,106.846073,"jl. dr. saharjo, rt.4/rw.5, menteng atas, kota jakarta selatan",ChIJ1w_j8ovzaS4RWFhXncsmwEs,0
warteg bahari.in,5,2,-6.220841099999999,106.8498442,"jl albarkah no 30 rt 06/rw 03 kel, rt.6/rw.3, manggarai sel., kota jakarta selatan",ChIJS3btx1DzaS4RgweaHWbNokg,0
warteg putri,3.3,3,-6.2191892,106.852938,"jl. bukit duri selatan no.5, rt.9/rw.3, bukit duri, kota jakarta selatan",ChIJRXpbgYjzaS4RV1hv9D-ZtxA,0
warteg duaputri,0,0,-6.2245725,106.8519245,"jl. abdullah syafei, rt.1/rw.1, manggarai sel., kota jakarta selatan",ChIJY2H5mI_zaS4RcXExGXimRuw,0
warteg maun jaya,4.8,6,-6.2185941,106.8452144,"jalan dokter saharjo, rt.1/rw.4, manggarai sel., kota jakarta selatan",ChIJY7fqT4rzaS4RpXeI2d90cpo,0
warteg bahari pakde sukram,4.9,30,-6.220428,106.8482647,"jl albarkah no 18a rt 13/rw 04 kel, rt.13/rw.4, manggarai sel., kota jakarta selatan",ChIJF8RTXUPzaS4ROzbGmkZix7s,0
warteg ertiga bahari,4.9,9,-6.21843,106.853403,"jl bukitduri barat rt4/rw1, kel bukitduri, kectebet, rt.4/rw.1, bukit duri, kota jakarta selatan",ChIJJTNd14fzaS4RdyaxXlCpFWo,0
warteg berkah,4.1,13,-6.222289099999999,106.8446667,"jl. menteng pulo 1 no.14, rt.15/rw.5, menteng dalam, kota jakarta selatan",ChIJHQAA84zzaS4RdP7KBSg8FSc,0
warteg kharisma bahari tebet,4.5,55,-6.2239209,106.849495,"qrgx+cqq, rt.1/rw.2, south manggarai, south jakarta city",ChIJUQuh8jLzaS4RZAk-mlj0CWc,0
warteg mang piton,4.8,9,-6.217835099999999,106.8538121,"qvj3+vg7, rt.9/rw.3, bukit duri, south jakarta city",ChIJGd_8hojzaS4RAR2_AVc7wA8,0
warteg febri,4.1,9,-6.2229266,106.8449343,"jl. pendawa, rt.14/rw.5, menteng dalam, kota jakarta selatan",ChIJcwt1Z4zzaS4Ra-Zsp1fdunY,0
warteg 21,4.8,19,-6.2211618,106.8448696,"jl. pendawa no.2, rt.3/rw.5, menteng dalam, kota jakarta selatan",ChIJN8xhrefzaS4ReYI0FQkdFi0,0
warteg nissaa bahari,0,0,-6.218228499999999,106.8450123,"jl. dr. saharjo no no.115c, rt.2/rw.7, manggarai sel., kota jakarta selatan",ChIJUQmhja_zaS4RogY9XwxtoIA,0
warteg ana rizqi,5,1,-6.224344599999999,106.8461397,"jl. pal batu raya no.17, rt.17/rw.5, menteng dalam, kota jakarta selatan",ChIJd3OG_S_zaS4R4uJj9RTiHrQ,0
warteg hijau,4.7,12,-6.225036299999999,106.8523414,"jl. tebet utara i no.51c, rt.2/rw.10, tebet tim., kota jakarta selatan",ChIJ4wsuko_zaS4R2xf52fb8Jws,0
warteg siang malam,4.6,51,-6.2147085,106.8436209,"jl. minangkabau barat no.75, rt.7/rw.8, ps. manggis, kota jakarta selatan",ChIJPzcUHHX0aS4RoVB7xpFPE0Y,0
warteg biru putaran mba fatma,5,5,-6.2238954,106.8470511,"jl. raya casablanca no.1a, rt.17/rw.5, menteng dalam, kota jakarta selatan",ChIJ-Sq2LozzaS4R2N2og7eUfAw,0
warteg kharisma bahari cb.saharjo,3.9,43,-6.215278,106.843964,"qrmv+vhp, rt.8/rw.10, south manggarai, south jakarta city",ChIJzcToiGP1aS4RoVKibqNQcOA,0
warteg mama novi,5,11,-6.2238912,106.8522792,"jl. lap. ros ii no.1 no.13a, rt.11/rw.5, bukit duri, kota jakarta selatan",ChIJvWiUWELzaS4RbHY26cGAnF0,0
warteg asa bahari,4.1,16,-6.21911,106.85188,"jl. masjid al-barkah, rt.7/rw.6, manggarai sel., kota jakarta selatan",ChIJaSwci4jzaS4R9IZA8g0U9z8,0
warteg kembang,4.1,148,-6.2269406,106.8218963,"jl. guru mughni jl. sd no.21, rt.5/rw.1, kuningan, kuningan tim., kota jakarta selatan",ChIJfeXGxPzzaS4Ra8mJIOI6C5w,0
warteg bahari,4,1,-6.2208801,106.8200318,"jl. karet sawah, rt.3/rw.3, karet semanggi, kota jakarta selatan",ChIJd2e5RP7zaS4RMoTbprhaktI,0
warteg net bahari,4.4,53,-6.227582600000001,106.8215623,"jl. guru mughni, rt.2/rw.5, rt.4/rw.1, kuningan, kuningan tim., kota jakarta selatan",ChIJRcEfaj7zaS4RO2XyTjNbAUs,0
warteg bu ani,3.8,4,-6.218558199999999,106.8226617,"gg. tiong ujung kecamatan no.20.rt 04/01, rt.7/rw.4, kuningan, karet kuningan, kota jakarta selatan",ChIJPcROR__zaS4R44eusKgsCck,0
warteg kuning,0,0,-6.222511799999999,106.8210536,"jl. guru mughni no.170, rt.17/rw.4, kuningan, kota jakarta selatan",ChIJm7SIm9rzaS4RD6J-kdEZLE4,0
warteg biru,4.4,19,-6.222900999999999,106.8209295,"jl. guru mughni blok no.8, rt.1/rw.3, karet semanggi, kota jakarta selatan",ChIJN66F9_zzaS4RSmv_R9fk6Cw,0
warteg mekarjaya,4.4,53,-6.221789999999999,106.825715,"jl. pedurenan masjid iii no.4, rt.3/rw.6, kuningan, kota jakarta selatan",ChIJ0ZdzeYjzaS4RgKW6JmNNDHQ,0
warteg berkah,4.3,3,-6.222456999999999,106.820594,"jl. guru mughni no.147, rt.1/rw.3, karet semanggi, kota jakarta selatan",ChIJmRFo5qrzaS4RJLZsBv2W5Vg,0
warteg putri,4.5,17,-6.219725299999999,106.8244858,"jl. h. sidik no.30, rt.6/rw.6, kuningan, karet kuningan, kota jakarta selatan",ChIJObivLHDzaS4Rrutp4VQq0M8,0
warteg angga,4.5,6,-6.218191999999999,106.825028,"jl. anggrek ii no.1, rt.6/rw.2, kuningan, karet kuningan, kota jakarta selatan",ChIJNzvBuQ_zaS4RI1wu09h_5LA,0
warteg bu hj. muniroh,4.8,11,-6.2255495,106.8215251,"jl. bates no.rt.8, rt.8/rw.1, kuningan, kuningan tim., kota jakarta selatan",ChIJz_p58PzzaS4RH5XrXgbw-V4,0
warteg mekar jaya,4.4,18,-6.2217954,106.8257664,"jl. karet pedurenan no.52 4, rt.4/rw.7, kuningan, karet kuningan, kota jakarta selatan",ChIJ3-tla_nzaS4R7BfOt7mwEEY,0
warteg jaya,0,0,-6.2263385,106.821039,"jl. guru mughni no.8, rt.5/rw.1, kuningan, kota jakarta selatan",ChIJfcVGNlrzaS4RnQWn3fG0qIk,0
warteg dj,4.6,18,-6.22937,106.821576,"jl. guru mughni no.9, rt.2/rw.5, kuningan, kuningan tim., kota jakarta selatan",ChIJ-zMdEOPzaS4RsP1D_W1cffk,0
warteg 100%,4.4,42,-6.216796599999999,106.8222188,"jalan bek kh rohyani i no. 9, rt.6/rw.1, karet kuningan, kecamatan setiabudi, rt.6/rw.1, kuningan, karet kuningan, kota jakarta selatan",ChIJuZARmAD0aS4R7dIOEU0CIg4,0
warteg ahai jaya,4.7,43,-6.217871,106.82706,"jl anggrek 5 rt 14/rw 07 kel, 7 no.16, rt.16/rw.7, kuningan, karet kuningan, kota jakarta selatan",ChIJpRu8ZPjzaS4RZOc8Q7r-8KU,0
warteg barokah,4.6,5,-6.216711999999999,106.827459,"jl. karet belakang barat no.3 no 20, rt.19/rw.2, kuningan, karet kuningan, kota jakarta selatan",ChIJf7Ge7R71aS4RXUK_OuZXQK4,0
warteg nojo jaya 99,5,3,-6.2168497,106.822256,"jl. k.h. royani i no.9, rt.6/rw.1, kuningan, karet kuningan, kota jakarta selatan",ChIJ9ZizEkL1aS4R7y0LfOjA-40,0
warteg pandan wangi,2.5,2,-6.219761,106.826687,"jl. peduranan masjid 2 kelurahan karet kuningan kecamatan setiabudi, dki jakarta",ChIJFwAAAPnzaS4Rf6j2RPhx2BI,0
warteg putri,4.5,17,-6.219725299999999,106.8244858,"jl. h. sidik no.30, rt.6/rw.6, kuningan, karet kuningan, kota jakarta selatan",ChIJObivLHDzaS4Rrutp4VQq0M8,0
warteg kembang,4.1,148,-6.2269406,106.8218963,"jl. guru mughni jl. sd no.21, rt.5/rw.1, kuningan, kuningan tim., kota jakarta selatan",ChIJfeXGxPzzaS4Ra8mJIOI6C5w,0
warteg bahari,4,1,-6.2208801,106.8200318,"jl. karet sawah, rt.3/rw.3, karet semanggi, kota jakarta selatan",ChIJd2e5RP7zaS4RMoTbprhaktI,0
warteg bu ani,3.8,4,-6.218558199999999,106.8226617,"gg. tiong ujung kecamatan no.20.rt 04/01, rt.7/rw.4, kuningan, karet kuningan, kota jakarta selatan",ChIJPcROR__zaS4R44eusKgsCck,0
warteg kuning,0,0,-6.222511799999999,106.8210536,"jl. guru mughni no.170, rt.17/rw.4, kuningan, kota jakarta selatan",ChIJm7SIm9rzaS4RD6J-kdEZLE4,0
warteg biru,4.4,19,-6.222900999999999,106.8209295,"jl. guru mughni blok no.8, rt.1/rw.3, karet semanggi, kota jakarta selatan",ChIJN66F9_zzaS4RSmv_R9fk6Cw,0
warteg angga,4.5,6,-6.218191999999999,106.825028,"jl. anggrek ii no.1, rt.6/rw.2, kuningan, karet kuningan, kota jakarta selatan",ChIJNzvBuQ_zaS4RI1wu09h_5LA,0
warteg jaya,0,0,-6.2263385,106.821039,"jl. guru mughni no.8, rt.5/rw.1, kuningan, kota jakarta selatan",ChIJfcVGNlrzaS4RnQWn3fG0qIk,0
warteg berkah,4.3,3,-6.222456999999999,106.820594,"jl. guru mughni no.147, rt.1/rw.3, karet semanggi, kota jakarta selatan",ChIJmRFo5qrzaS4RJLZsBv2W5Vg,0
warteg ibu putri,4.9,9,-6.2205251,106.825301,"jl. karet pedurenan no.3, rt.3/rw.4, kuningan, karet kuningan, kota jakarta selatan",ChIJIc9nSPnzaS4RXfpEBvUpS5g,0
warteg bu hj. muniroh,4.8,11,-6.2255495,106.8215251,"jl. bates no.rt.8, rt.8/rw.1, kuningan, kuningan tim., kota jakarta selatan",ChIJz_p58PzzaS4RH5XrXgbw-V4,0
warteg mekarjaya,4.4,53,-6.221789999999999,106.825715,"jl. pedurenan masjid iii no.4, rt.3/rw.6, kuningan, kota jakarta selatan",ChIJ0ZdzeYjzaS4RgKW6JmNNDHQ,0
warteg nojo jaya,4.5,111,-6.215811599999999,106.8220707,"jl. bek murad no 18 rt 08/rw 01 kel, rt.8/rw.3, kuningan, karet kuningan, kota jakarta selatan",ChIJX1fv6wD0aS4RyuRA7AzPMdU,0
warteg net bahari,4.4,53,-6.227582600000001,106.8215623,"jl. guru mughni, rt.2/rw.5, rt.4/rw.1, kuningan, kuningan tim., kota jakarta selatan",ChIJRcEfaj7zaS4RO2XyTjNbAUs,0
warteg 100%,4.4,42,-6.216796599999999,106.8222188,"jalan bek kh rohyani i no. 9, rt.6/rw.1, karet kuningan, kecamatan setiabudi, rt.6/rw.1, kuningan, karet kuningan, kota jakarta selatan",ChIJuZARmAD0aS4R7dIOEU0CIg4,0
warteg mekar jaya,4.4,18,-6.2217954,106.8257664,"jl. karet pedurenan no.52 4, rt.4/rw.7, kuningan, karet kuningan, kota jakarta selatan",ChIJ3-tla_nzaS4R7BfOt7mwEEY,0
warteg rakyat,4.3,16,-6.2168126,106.8224824,"jalan k jl. kh royani iii no.10, rt.6/rw.1, kuningan, karet kuningan, kota jakarta selatan",ChIJ138lowD0aS4RX6Odqe9XqQ0,0
warteg nojo jaya 99,5,3,-6.2168497,106.822256,"jl. k.h. royani i no.9, rt.6/rw.1, kuningan, karet kuningan, kota jakarta selatan",ChIJ9ZizEkL1aS4R7y0LfOjA-40,0
warteg 234,4.5,4,-6.2163563,106.8235772,"jl. karet belakang no.28, rt.1/rw.2, kuningan, karet kuningan, kota jakarta selatan",ChIJm8UVtAD0aS4ROBJkm-OsbwA,0
warteg ahai jaya,4.7,43,-6.217871,106.82706,"jl anggrek 5 rt 14/rw 07 kel, 7 no.16, rt.16/rw.7, kuningan, karet kuningan, kota jakarta selatan",ChIJpRu8ZPjzaS4RZOc8Q7r-8KU,0
warteg gaspoll 2.0,4.5,4,-6.2225658,106.8212412,"jl. prof. dr. satrio no.8, rt.17/rw.6, kuningan, karet kuningan, kota jakarta selatan",ChIJne7qKfzzaS4RpnpEbCwVUYA,0
warteg pandan wangi,2.5,2,-6.219761,106.826687,"jl. peduranan masjid 2 kelurahan karet kuningan kecamatan setiabudi, dki jakarta",ChIJFwAAAPnzaS4Rf6j2RPhx2BI,0
warteg biru,0,0,-6.217992,106.820167,"gedung ciputra world 1 di besment 1, jl. prof. dr. satrio, rt.2/rw.1, kuningan, karet kuningan, kota jakarta selatan",ChIJFwAAAPnzaS4RhbTUPjLJLuA,0
warteg kharisma bahari wkb satrio,0,0,-6.2168508,106.8192152,"jl. prof. dr. satrio, rt.3/rw.4, kuningan, karet semanggi, kota jakarta selatan",ChIJgaAiGMD1aS4RVt0O5pU5W-4,0
warteg maju jaya,0,0,-6.2166324,106.8233622,"jalan anggrek1 no 21rt 06 rw 01, rt.10/rw.1, kuningan, karet kuningan, kota jakarta selatan",ChIJKfwGGK71aS4RcAbP_35Ijbo,0
warteg jawa,0,0,-6.2185752,106.8226446,"jl. tiong no.23, rt.7/rw.6, kuningan, rt.7/rw.6, kuningan, karet kuningan, kota jakarta selatan",ChIJUe40nbbzaS4Rt7J24pAdy1s,0
warteg endang pojok,0,0,-6.2227286,106.8258831,"jakarta, mal ambassador, jl. prof. dr. satrio no.05, rt.11/rw.4, kuningan, karet kuningan, kota jakarta selatan",ChIJpSfgRRnzaS4RlIze3u6xY18,0
