nama_tempat,rating_tempat,user_ratings_total,latitude,longitude,alamat_tempat,place_id,distance
warteg putra bahari 113,5,1,-6.2106204,106.8468557,"jl. padang panjang no.5b, rt.4/rw.8, ps. manggis, kota jakarta selatan",ChIJhcdPdPv1aS4RTFUcafcs5QA,0
warteg bahari mas bambang,5,2,-6.2131298,106.844983,"jl. padang panjang no.8, rt.5/rw.8, ps. manggis, kota jakarta selatan",ChIJC52MDHX0aS4RkWm1iqLJzhE,0
warteg siang malam,4.6,51,-6.2147085,106.8436209,"jl. minangkabau barat no.75, rt.7/rw.8, ps. manggis, kota jakarta selatan",ChIJPzcUHHX0aS4RoVB7xpFPE0Y,0
warteg murni,4.5,2,-6.208837399999999,106.8421317,"jl. menteng wadas timur, rt.9/rw.2, ps. manggis, kota jakarta selatan",ChIJCf792XL0aS4RZMOSt7Da3DI,0
warteg sumber rejeki,4.3,33,-6.210910999999999,106.843766,"jalan sawah lunto no.20 rt 4 rw 01, kelurahan pasar manggis, kecamatan setiabudi, rt.14/rw.1, ps. manggis, kota jakarta selatan",ChIJZ7iqc3P0aS4RxJ0_RQDhe7U,0
warteg kharisma bahari cb.saharjo,3.9,43,-6.215278,106.843964,"qrmv+vhp, rt.8/rw.10, south manggarai, south jakarta city",ChIJzcToiGP1aS4RoVKibqNQcOA,0
warteg karlina bahari,4.2,92,-6.2114988,106.846447,"jl. dr. saharjo no.35, rt.11/rw.5, manggarai, kota jakarta selatan",ChIJWeG3K4H1aS4RXqsJQXK9zaY,0
warteg citaayu,0,0,-6.2171727,106.8404217,"jl. menteng atas dalam, rt.14/rw.6, menteng atas, kota jakarta selatan",ChIJ4Y-VW_XzaS4R66zBHx0QdTM,0
warteg baru,5,2,-6.2111319,106.8400303,"jl. menteng bata, rt.15/rw.7, ps. manggis, kota jakarta selatan",ChIJmWORogz0aS4R5_U6TpLzv8E,0
warteg subsidi bahari,4.3,35,-6.2137514,106.8429523,"jl. payakumbuh no.79-83, rt.2/rw.9, ps. manggis, kota jakarta selatan",ChIJYaSM1Kv1aS4Rexn6l9onvwY,0
warteg murah rizqi,4.3,3,-6.2144411,106.8429165,"jl. payakumbuh no.14, rt.4/rw.6, menteng atas, kota jakarta selatan",ChIJB85Pumf1aS4RIIrT013awrA,0
warteg ayu,0,0,-6.2090111,106.8418541,"jl. menteng wadas timur, rt.13/rw.2, ps. manggis, kota jakarta selatan",ChIJuaka1nL0aS4RETLwT0xq-ZI,0
wahyoo warteg bahari,4.6,9,-6.2094722,106.8503081,"jl. manggarai utara 2 no.17, rt.15/rw.4, manggarai, kota jakarta selatan",ChIJKxIy4nD0aS4R6b7QncHtuA4,0
wahyoo warteg sinta bahari,4,2,-6.2150709,106.840792,"9, jl. menteng atas no.6, rt.9/rw.6, menteng atas, kota jakarta selatan",ChIJjUg5GBH1aS4R6eEb7z3yB5s,0
warteg maun jaya,4.8,6,-6.2185941,106.8452144,"jalan dokter saharjo, rt.1/rw.4, manggarai sel., kota jakarta selatan",ChIJY7fqT4rzaS4RpXeI2d90cpo,0
warteg nissaa bahari,0,0,-6.218228499999999,106.8450123,"jl. dr. saharjo no no.115c, rt.2/rw.7, manggarai sel., kota jakarta selatan",ChIJUQmhja_zaS4RogY9XwxtoIA,0
wahyoo warteg ortega sumber rezeki,0,0,-6.2108307,106.8435578,"jl. menteng wadas iv no.4, rt.14/rw.1, ps. manggis, kota jakarta selatan",ChIJnQGQNE31aS4RZcl7RH1Eslg,0
warteg 88,5,1,-6.211130300000001,106.8400312,"15, jl. menteng bata no.16, rw.7, ps. manggis, kota jakarta selatan",ChIJYzRfMtr1aS4REmA0q5_vGbo,0
warteg,0,0,-6.215370399999999,106.8439837,"jl. dr. saharjo no.87a, rt.1/rw.10, manggarai sel., kota jakarta selatan",ChIJU6NLcaT1aS4RWLdWE10H-to,0
warteg bahari pasar rumput,0,0,-6.2076568,106.8418593,"jl. sultan agung no.25, rt.5/rw.2, ps. manggis, kota jakarta selatan",ChIJX3UKt3z1aS4RgFZ2UMEJFGA,0
warteg karunia rahayu,4.2,18,-6.219502400000001,106.8427692,"jl. subur dalam no.8, rt.4/rw.8, menteng atas, kota jakarta selatan",ChIJfWmaIYvzaS4RURpv4xrH_Nw,0
warteg barokaj,0,0,-6.2110565,106.8484116,"jl. balimatraman no.rt.9/12, rt.4/rw.6, manggarai, kota jakarta selatan",ChIJmW3V8gD1aS4RLu-Ncek1s5c,0
warteg nurlita jaya,0,0,-6.2095441,106.8512098,"qvr2+5fp, rt.4/rw.4, manggarai, south jakarta city",ChIJhTbjdbj1aS4RgVEl_iHv9nk,0
warteg mj,0,0,-6.2139276,106.8384442,"jl. menteng atas no.32, rt.12/rw.12, menteng atas, kota jakarta selatan",ChIJP_IaZIf1aS4RzHnIjVB2Xp4,0
warteg pak kumis,4.4,38,-6.2189988,106.8411374,"jl. subur ujung no.4, rt.14/rw.15, menteng atas, kota jakarta selatan",ChIJmX3xK_XzaS4R1lNPl3trJj4,0
warteg jaya makmur,4.1,13,-6.247274,106.842307,"jl. raya psr minggu, rt.1/rw.4, pancoran, kota jakarta selatan",ChIJ9coSHbjzaS4R2kA_O_yILi8,0
warteg cipta bahari,0,0,-6.249954799999999,106.8412415,"jl. pancoran bar. raya no.1, rt.1/rw.6, pancoran, kota jakarta selatan",ChIJB25ZaBzzaS4R65ov0uZYffo,0
warteg pojok,4.5,4,-6.242638299999999,106.8367715,"jl. pancoran barat xi no.19, rt.1/rw.3, pancoran, kota jakarta selatan",ChIJ97NFtMbzaS4R11zCKNnQMXo,0
warteg rejo,4.3,85,-6.2500474,106.8365005,"jl. pancoran barat vii, rt.3/rw.6, pancoran, kota jakarta selatan",ChIJwzmO2MjzaS4RhQ3lUJ_iSZo,0
wahyoo warteg prima jaya,5,3,-6.247241000000001,106.842891,"jl. raya pasar minggu no.rt. 6, rt.7/rw.2, pancoran, kota jakarta selatan",ChIJKy13Ai3zaS4RVuf_amVkFoo,0
warteg bu haji,0,0,-6.2533106,106.8481756,"jl. kh.mahmud,buntu no.7, rt.5/rw.4, duren tiga, kota jakarta selatan",ChIJs0Hks73zaS4R7qyhiRJX9jk,0
warteg dewi,3.8,4,-6.2534892,106.840767,"jl. duren tiga raya, rt.1/rw.1, pancoran, kota jakarta selatan",ChIJ624TDsrzaS4RtcJpUsWQ24E,0
warteg kharisma bahari,3.8,21,-6.253233,106.8373344,"jl. duren tiga raya no.41, rt.5/rw.6, duren tiga, kota jakarta selatan",ChIJYwBuaqbzaS4Rc_bfFtZiX4c,0
warteg suka niki sedia soto ayam,5,1,-6.2496661,106.8384468,"jl. pancoran barat vi no.48, rt.7/rw.7, pancoran, kota jakarta selatan",ChIJI96k-MjzaS4RbIJuHkgM5XE,0
warteg pesona bahari,4.5,6,-6.2532369,106.8426154,"jl. raya pasar minggu no.46, rt.3/rw.7, duren tiga, kota jakarta selatan",ChIJtb4l6bXzaS4RroOmPgeOchY,0
warteg dapuk,4.1,113,-6.253419900000001,106.8384314,"jl. duren tiga selatan, rt.3/rw.6, duren tiga, kota jakarta selatan",ChIJpbbHNhfzaS4RXx6_ORxH6x8,0
warteg jaya makmur,5,4,-6.2411759,106.8446499,"jl. prof. dr. soepomo no.7, rt.4/rw.1, menteng dalam, kota jakarta selatan",ChIJYwXw0eXzaS4R2BJWYmrH6xs,0
warteg putri kirana,5,1,-6.2500979,106.8364075,"jl. pancoran barat vii no.10 a, rt.9/rw.6, pancoran, kota jakarta selatan",ChIJm97M1IHzaS4RflCSpTxdSv4,0
warteg inyong,4.4,8,-6.253276899999999,106.8363791,"jl. gg. duren tiga no.47, rt.8/rw.6, duren tiga, kota jakarta selatan",ChIJ-6HO78vzaS4RDsLza33oBZ0,0
warteg kharisma bahari,4.6,33,-6.2502258,106.8366561,"9, jl. pancoran barat vii no.18, rt.13/rw.6, pancoran, kota jakarta selatan",ChIJDQIwcj3zaS4RmL1vc1EPsvk,0
warteg bumi jawa,5,3,-6.2517891,106.8481873,"jl. pengadegan selatan viii no.3, rt.10/rw.5, pengadegan, kota jakarta selatan",ChIJT2lFByLzaS4Rno9QeXcTa6Q,0
warteg buncit ii,4.4,29,-6.2517461,106.8358954,"jl. mampang prapatan xiv, rt.8/rw.6, pancoran, kota jakarta selatan",ChIJBasWTMnzaS4RVCSjieL-2Kw,0
warteg saleh jaya,4.6,21,-6.244921,106.810186,"jalan petogogan ii no.30p, pulo, rt.9/rw.5, petogogan, kota jakarta selatan",ChIJeVL2pHTxaS4RiuAtQ7S6Qkg,0
warteg bahari,4.3,8,-6.243084899999999,106.8036004,"rt.5/rw.2, melawai, kota jakarta selatan",ChIJnR10wNHxaS4RW1jJIolVFBg,0
warteg bu isah,5,5,-6.2494852,106.8126353,"qr27+632, rt.8/rw.7, pela mampang, south jakarta city",ChIJ4yuXZwXxaS4RLlaHvd1i6qk,0
warteg sari rasa bahari,4.8,4,-6.241202700000001,106.8086271,"15, rt.15/rw.6, petogogan, kota jakarta selatan",ChIJfcQt7GfxaS4RQPODRu1FWH8,0
warteg xii - kemang,4.1,35,-6.2489796,106.8145839,"8, jl. bangka raya no.28, rt.8/rw.11, pela mampang, kota jakarta selatan",ChIJD30qgOHxaS4R4K_8470O7U8,0
warteg bazaar,4.6,66,-6.246372,106.8154781,"jl. bangka raya no36b.rt.14, rt.14/rw.3, pela mampang, kota jakarta selatan",ChIJY5OIUGLxaS4RnR318NF3PAM,0
warteg xii mutiara bahari,4.8,6,-6.2456644,106.8155586,"rt.1/rw.11, pela mampang, kota jakarta selatan",ChIJ-1nXV2LxaS4RZv5LRU6mKHY,0
warteg indah jaya,5,2,-6.241308699999999,106.8084911,"jl. cililin no.12a, rt.15/rw.6, petogogan, kota jakarta selatan",ChIJOQgwUWbxaS4RlO0bjH5s4kA,0
warteg rasa mala,5,1,-6.2455679,106.8154712,"jl. bangka raya, rt.13/rw.5, pela mampang, kota jakarta selatan",ChIJ87qxV2LxaS4Rrl32hHhEEiw,0
warteg sajny,0,0,-6.241383,106.805117,"rt3, jl. tirtayasa v no.5, rt.3/rw.2, melawai, kota jakarta selatan",ChIJezPy70LxaS4RpgoJ3loY8JY,0
warteg gaspoll,4.6,37,-6.23992,106.811888,"santa modern market, lantai 2 no. 171-172, rt.5/rw.4, petogogan, kota jakarta selatan",ChIJox4BmHnxaS4R391rlmpggsA,0
warteg ortega,4.7,34,-6.241776,106.8144211,"jl. wijaya timur vi no.rt.10, rt.12/rw.2, petogogan, kota jakarta selatan",ChIJp2DKaGHxaS4R5EuRKWHcAKc,0
warteg kharisma,4.2,18,-6.239914,106.84741,"jl. tebet barat dalam vii no.5 a, rt.9/rw.6, tebet bar., kota jakarta selatan",ChIJ677FKbzzaS4RXgH8C4vnh9k,0
warteg ridho ibu,4.6,15,-6.240116,106.8452333,"jl. prof. dr. soepomo no.31, rt.4/rw.1, menteng dalam, kota jakarta selatan",ChIJY5BMw77zaS4RcRklqw5XtMI,0
warteg jaya makmur,5,4,-6.2411759,106.8446499,"jl. prof. dr. soepomo no.7, rt.4/rw.1, menteng dalam, kota jakarta selatan",ChIJYwXw0eXzaS4R2BJWYmrH6xs,0
warteg bahari,4.5,12,-6.2355784,106.842835,"jl. masjid an nur no.24a, rt.4/rw.2, menteng dalam, kota jakarta selatan",ChIJlXALPpXzaS4RrjkhZxIhv9I,0
warteg subsidi bahari,5,2,-6.2405221,106.8476167,"jl. tebet barat dalam raya no.15, rt.2/rw.5, tebet bar., kota jakarta selatan",ChIJ3dw24YfzaS4RPpj8ziIGwYo,0
warteg rasamala,4,104,-6.2361868,106.8402147,"jl. rasamala raya no.24, rt.9/rw.2, menteng dalam, kota jakarta selatan",ChIJ802RvurzaS4Rx2pin99rm7A,0
warteg kharisma soepomo,5,1,-6.2408294,106.8448647,"jl. prof. dr. soepomo no.7-15, rt.4/rw.1, menteng dalam, kota jakarta selatan",ChIJi6jvv2HzaS4REhX6XkeKCYE,0
warteg jaya makmur,4.1,13,-6.247274,106.842307,"jl. raya psr minggu, rt.1/rw.4, pancoran, kota jakarta selatan",ChIJ9coSHbjzaS4R2kA_O_yILi8,0
warteg cahaya baru,4.9,7,-6.235236,106.844091,"jalan prof. dr. soepomo no. 145b rrt. 07/01, menteng dalam, tebet, rt.7/rw.1, menteng dalam, kota jakarta selatan",ChIJhUGeCJXzaS4RQDxlB2kfUOw,0
warteg berkah jaya,0,0,-6.2347538,106.8402984,"jl. rasamala 1 no.2a, rt.4/rw.2, menteng dalam, kota jakarta selatan",ChIJYeUz2erzaS4RoDId64f4Zzw,0
wahyoo warteg prima jaya,5,3,-6.247241000000001,106.842891,"jl. raya pasar minggu no.rt. 6, rt.7/rw.2, pancoran, kota jakarta selatan",ChIJKy13Ai3zaS4RVuf_amVkFoo,0
