nama_tempat,rating_tempat,user_ratings_total,latitude,longitude,alamat_tempat,place_id,distance
warteg sri,4.1,16,-6.233523000000001,106.8651764,"jl. f bawah no 35 rt/rw. 008/008 12830, rt.8/rw.8, kb. baru, kota jakarta selatan",ChIJqYbNgHXzaS4R-cNXpaQAU9M,0
warteg bude bahari,4.2,36,-6.2345077,106.8652751,"jl. j no.3, rt.8/rw.8, kb. baru, kota jakarta selatan",ChIJvSw_Y3XzaS4RxEE6eX7ExHg,0
warteg subur jaya,3.5,2,-6.2386555,106.8604565,"jl. asem baris raya no.115, rt.3/rw.11, kb. baru, kota jakarta selatan",ChIJrYJSlqHzaS4RqVK2H3B34Vo,0
warteg nojo jaya,4.6,8,-6.2350157,106.8600161,"jl. asem baris raya no.36a, rt.4/rw.6, kb. baru, kota jakarta selatan",ChIJtUT4Op_zaS4R5XX7ufYQ850,0
warteg jaya bahari,4.3,71,-6.229081799999999,106.8589533,"qvc5+9h8, rt.4/rw.5, kebon baru, south jakarta city",ChIJv7OqgZvzaS4RReSkChFTU5c,0
warteg fariska,4.4,44,-6.233581,106.8626669,"jl. kb. baru utara - d no.18, rt.14/rw.7, kb. baru, kota jakarta selatan",ChIJc86GUZ7zaS4RUXJ39wMSm1I,0
warteg bahari,4.2,16,-6.2651463,106.8340135,"jl. wr. jati timur raya no.20, rt.4/rw.9, kalibata, kota jakarta selatan",ChIJrzhpIjHyaS4RSQsSV-ltA_k,0
warteg hidayah,5,1,-6.2718263,106.8276766,"5, jl. kamboja no.43, rw.8, pejaten bar.",ChIJeSROtLjzaS4RolubxfAMtik,0
warteg lestari,4,1,-6.273784999999999,106.831858,"jl. amil no.mor 82, rt.12/rw.5, kalibata, kota jakarta selatan",ChIJv-QyhTzyaS4RpaVm0DGelts,0
warteg nusantara multisukma,4.9,7,-6.272241999999999,106.8308732,"jl. warung buncit raya no.448, rt.3/rw.5, kalibata, kota jakarta selatan",ChIJr7nBP9vzaS4RYhYly09xFB8,0
warteg putri,5,3,-6.269626499999999,106.8306391,"jl. warung buncit raya no.36, rt.9/rw.5, kalibata, kota jakarta selatan",ChIJT1AnxzryaS4R7DHv3FSdifk,0
warteg jaya bahari - 24 jam,5,1,-6.2739129,106.8315947,"jl. amil jl. warung buncit raya no.74, rt.12/rw.5, kalibata, kota jakarta selatan",ChIJ2dPk42_zaS4R0S43y6lJrTo,0
warteg nusantara milenia,4.6,192,-6.2722447,106.8307662,"jl. warung buncit raya, rt.10/rw.5, kalibata, kota jakarta selatan",ChIJRSdrIgfzaS4RluxBS9gsOhI,0
warteg sari maidah lilis,5,1,-6.267929899999999,106.833121,"jl. pejaten indah no.1, rt.7/rw.5, kalibata, kota jakarta selatan",ChIJz23gTwvzaS4RsuSAcGBL7OM,0
warteg bahari,0,0,-6.2755442,106.8303481,"jl. amil no.75, rt.12/rw.5, kalibata, kota jakarta selatan",ChIJe16ZcBPtaS4RW-hMZ2nPRU0,0
warteg bahari,5,1,-6.265148,106.8239236,"jl. kemang timur no.43, rt.9/rw.3, bangka, kota jakarta selatan",ChIJqyITzS7yaS4RBLkOO45wYq8,0
wahyoo warteg putri jaya,5,2,-6.263434699999999,106.8294758,"jl. warung jati barat i no.42, rt.6/rw.3, kalibata, kota jakarta selatan",ChIJ-bUkHS7yaS4Rerw3pjsJnso,0
warteg rizki,4.1,65,-6.2660974,106.8373555,"jl. h. samali no.85a, rt.19/rw.1, pejaten bar., kota jakarta selatan",ChIJfSI6FzfyaS4RV5A5eTBt33M,0
warteg slawi ayu,0,0,-6.2709874,106.8357871,"jl. siaga swadaya no.8, rt.6/rw.4, pejaten bar., kota jakarta selatan",ChIJRaCLpqzzaS4R7cQ_uhZbY24,0
warung nasi warteg,3.6,7,-6.2653512,106.8303522,"jl. warung buncit raya no.10, rt.11/rw.9, kalibata, kota jakarta selatan",ChIJaXYG0jHyaS4R3vAywpcWJu0,0
wahyoo warteg bahari,5,1,-6.2632667,106.8310505,"jalan warung jati timur raya nomor 9b buncit kalibata, jakarta selatan rt.1.010 9, rt.1/rw.9, kalibata, kota jakarta selatan",ChIJP8Vv2uDzaS4RcSz03_MY984,0
wahyoo warteg anugrah,5,1,-6.2672571,106.8374,"jl. siaga raya no.9, rt.14/rw.4, pejaten bar., kota jakarta selatan",ChIJzUyWbjfyaS4R0FBhXmuLbwo,0
warteg ibu tari,4.9,7,-6.2719473,106.8294171,"jl. warung buncit raya no.12, rt.10/rw.5, kalibata, south jakarta city",ChIJ5-Y1yiTyaS4RKsbHab11PME,0
warteg kharisma bahari,5,3,-6.2759284,106.8295911,"jl. warung buncit raya no.22, rt.2/rw.7, pejaten bar., kota jakarta selatan",ChIJr34CQ3TzaS4RNFQjP7nfZlQ,0
warteg,4.2,10,-6.238093900000001,106.8271921,"jl. gatot subroto no.23, rt.2/rw.2, kuningan bar., kota jakarta selatan",ChIJkX-lW93zaS4R14XAXTz3ayU,0
warteg bahari,4.4,5,-6.2436783,106.8259957,"jl. mampang prapatan ii, rt.1/rw.5, mampang prpt., kota jakarta selatan",ChIJgeVMl9vzaS4RYj_nLr2mHlI,0
warteg jaya bahari,3.8,71,-6.2429118,106.8324035,"jl. tegal parang utara no.8, rw.4, mampang prapatan, south jakarta city",ChIJLxmzydXzaS4RwXUdsDypiro,0
warteg bahari kharisma,4.4,41,-6.243481099999999,106.8290251,"jl. mampang prapatan ii no.74, rt.11/rw.5, mampang prpt., kota jakarta selatan",ChIJf6QHT9vzaS4RCFGlBe2Zi_M,0
warteg kharisma bahari,4.2,99,-6.2403191,106.8292345,"jl. mp. prapatan gg. iv, rt.2/rw.2, tegal parang, kota jakarta selatan",ChIJJ5S9HgLzaS4RHz4FCQd7O2s,0
warteg alfar,0,0,-6.2422301,106.8322901,"jl. tegal parang sel., rt.2/rw.4, mampang prpt., kota jakarta selatan",ChIJQ1BJecPzaS4R0CFExOnZawU,0
warteg bu yanti,4.8,12,-6.245361,106.8274283,"jl. mampang prapatan iv, rt.5/rw.5, mampang prpt., kota jakarta selatan",ChIJnUe14trzaS4RXKiE7Rit_eo,0
warteg mini,5,5,-6.2443728,106.8323338,"jl. tegal parang utara no.37b, rt.7/rw.4, mampang prpt., kota jakarta selatan",ChIJlaMX98TzaS4R6jRYgeneZuc,0
wahyoo warteg bahari tegal,4.2,33,-6.245285,106.832002,"jl. mampang prpt. raya no.50, rt.6/rw.2, tegal parang, jakarta",ChIJYRJm8HDzaS4R2dbsP7HAQQY,0
warteg,0,0,-6.246746099999999,106.8275095,"jl. mampang prapatan vi no.17, rt.1/rw.2, tegal parang, kota jakarta selatan",ChIJVaD0kdrzaS4RP4rsT6OP0_g,0
warteg barokah,4,1,-6.2434052,106.835417,"jl. pancoran barat xic, rt.5/rw.3, pancoran, kota jakarta selatan",ChIJM-bbHcTzaS4Rd_xzhiQUmbw,0
warteg latifah,3.9,61,-6.245214499999999,106.8308268,"jl. mampang prapatan iv, rt.15/rw.4, mampang prpt., kota jakarta selatan",ChIJTXvhJ8XzaS4RHQma6XlEioI,0
warteg putri barokah,5,3,-6.2466874,106.8289468,"jl. mampang prapatan vi, rt.8/rw.2, tegal parang, kota jakarta selatan",ChIJSalwt9rzaS4Rebe67f7j1XE,0
warteg mini,0,0,-6.2434274,106.824083,"gg. h. mujimi no.60, rt.7/rw.6, mampang prpt., kota jakarta selatan",ChIJbxGTLxLzaS4RrhRkakxv8SE,0
warteg nusantara milenia cab mampang,4.6,9,-6.2417576,106.8254539,"jl. mampang prpt. raya no.42-10, rt.6/rw.1, mampang prpt., kota jakarta selatan",ChIJIWWHcYPzaS4Ryt8jshzJn5c,0
warteg yana,5,2,-6.2466969,106.8259189,"jl. mampang prpt. raya no.70 d, rt.9/rw.3, tegal parang, kota jakarta selatan",ChIJiTxjb9rzaS4REM1n7VAkszE,0
warteg sri rejeki,4.5,45,-6.246705,106.829133,"jl. mampang prpt. raya no.17, rt.8/rw.2, tegal parang, kota jakarta selatan",ChIJ8_93t9rzaS4RG7EsXgnOoYc,0
warteg latifah,0,0,-6.2451993,106.8306441,"jl. bank raya ii no.4 no. 63, rt.7/rw.007, tegal parang, kota jakarta selatan",ChIJ-aZRIYfxaS4R1wkywsKq54M,0
warteg ibu ayu,5,1,-6.246930499999999,106.8266109,"jl. mampang prapatan iv, rt.1/rw.2, tegal parang, kota jakarta selatan",ChIJgTMZYtrzaS4RpvpzQQO7z0g,0
warteg bahari h. abdul ghani,4.7,3,-6.2465945,106.823206,"6, jl. kh. marzuki ishaq no.7, rt.6/rw.3, tegal parang, kota jakarta selatan",ChIJNyjub13zaS4RphNs0TCmKW8,0
warteg sederhana ayu,5,1,-6.2470232,106.8263803,"81,, jl. mampang prapatan v no.6, rt.2/rw.2, tegal parang, kota jakarta selatan",ChIJ7RORY9rzaS4RGhNui566lJs,0
"warteg bu nani, gang jati bawah.",2.5,2,-6.2418962,106.8228196,"gg. jati no.10, rt.11/rw.1, mampang prpt., kota jakarta selatan",ChIJSQNofAXzaS4R1p_FsjsamKs,0
warteg bumus,0,0,-6.2455877,106.8252816,"9, jl. mampang prapatan v no.30a, rt.9/rw.6, mampang prpt., kuningan",ChIJm9ktxWjzaS4RVhQ1gjPMZ6Y,0
warteg mamoka,0,0,-6.245688599999999,106.8250272,"jl. mampang prapatan v no.9, rt.9/rw.3, tegal parang, kuningan",ChIJi8d6J9rzaS4RznC9omTiSAE,0
warteg nojo jaya,4.6,8,-6.2350157,106.8600161,"jl. asem baris raya no.36a, rt.4/rw.6, kb. baru, kota jakarta selatan",ChIJtUT4Op_zaS4R5XX7ufYQ850,0
warteg bahari berkah,0,0,-6.233874399999999,106.8568334,"jl. tebet timur dalam raya no.rt.004, rt.4/rw.5, tebet tim., kota jakarta selatan",ChIJo64jEZXzaS4RvUg2XuXUamc,0
warteg subur jaya,3.5,2,-6.2386555,106.8604565,"jl. asem baris raya no.115, rt.3/rw.11, kb. baru, kota jakarta selatan",ChIJrYJSlqHzaS4RqVK2H3B34Vo,0
warteg ridho ibu,3,1,-6.2355081,106.8570736,"jl. tebet timur dalam raya no.2, rw.6, tebet tim., kota jakarta selatan",ChIJX1PskpjzaS4RgD_4nr4402o,0
warteg pal b,4.4,20,-6.2342895,106.8566383,"jl. tebet timur dalam v b no.rt 4, rt.4/rw.5, tebet tim., kota jakarta selatan",ChIJy1CO_pjzaS4R90O1VoaBuWg,0
warteg tiga dara,4.6,9,-6.2379662,106.8564952,"jl. tebet timur iii no.42, rt.1/rw.8, tebet tim., kota jakarta selatan",ChIJr4-po5DzaS4Ri-ubaDQHEXg,0
warteg sri,4.1,16,-6.233523000000001,106.8651764,"jl. f bawah no 35 rt/rw. 008/008 12830, rt.8/rw.8, kb. baru, kota jakarta selatan",ChIJqYbNgHXzaS4R-cNXpaQAU9M,0
warteg jaya bahari,4.3,71,-6.229081799999999,106.8589533,"qvc5+9h8, rt.4/rw.5, kebon baru, south jakarta city",ChIJv7OqgZvzaS4RReSkChFTU5c,0
warteg gaul,4.5,6,-6.229657899999999,106.8582529,"jl. tebet timur dalam ii, rt.6/rw.3, tebet tim., kota jakarta selatan",ChIJYYaxmpvzaS4Riyrd5B0_j3M,0
warteg bude bahari,4.2,36,-6.2345077,106.8652751,"jl. j no.3, rt.8/rw.8, kb. baru, kota jakarta selatan",ChIJvSw_Y3XzaS4RxEE6eX7ExHg,0
warteg bahari,5,3,-6.230770199999999,106.8592638,"gg 8 jl. asem baris selatan ii no.7, rt.7/rw.5, kb. baru, kota jakarta selatan",ChIJGyxpCJzzaS4R0G-L5JU4Dko,0
warteg fariska,4.4,44,-6.233581,106.8626669,"jl. kb. baru utara - d no.18, rt.14/rw.7, kb. baru, kota jakarta selatan",ChIJc86GUZ7zaS4RUXJ39wMSm1I,0
