nama_tempat,rating_tempat,user_ratings_total,latitude,longitude,alamat_tempat,place_id,distance
warteg aji,3.9,14,-6.2590796,106.8436271,"jl. kalibata timur i gg. rukun no.2, rt.1/rw.8, kalibata, kota jakarta selatan",ChIJJ6716EryaS4RanjpCv2gLg8,0
warteg berkah,4.6,15,-6.260322299999999,106.8433643,"jl. raya pasar minggu no.4, rt.5/rw.8, kalibata, kota jakarta selatan",ChIJHzBDQ0ryaS4RnbkZLtNcKPg,0
warteg pancoran,4.2,67,-6.262366099999999,106.8458853,"jl. kalibata timur no.49, rt.9/rw.8, kalibata, kota jakarta selatan",ChIJBf9O3kvyaS4RfEJORj-sS-w,0
warteg kowantara jakarta selatan,0,0,-6.2608279,106.8433146,"jl. raya pasar minggu no.4, rt.5/rw.8, kalibata, kota jakarta selatan",ChIJ-_NRWUryaS4RkR4zsF4Gt6U,0
warteg sederhana ibu siti,5,8,-6.263507,106.84302,"blok kalibata selatan 2g jalan kalibata selatan ii b blok kalibata selatan 2g no.16a, rt.1/rw.4, kalibata, kota jakarta selatan",ChIJ0xHK7EnyaS4R_78youc08X0,0
warteg doa ibu,4,2,-6.262507100000001,106.8473491,"jl. kalibata timur no.66, rt.14/rw.1, pejaten tim., kota jakarta selatan",ChIJV98AAEzyaS4RXTNYZZrC51s,0
wahyoo warteg pada rukun 2,5,1,-6.2602198,106.8403418,"jl. kalibata utara ii no.62, rt.5/rw.2, kalibata, kota jakarta selatan",ChIJ_ZYjot_zaS4Rj4j_DDqr_hU,0
warteg latifah,4.3,21,-6.266245,106.8422818,"jalan warung jati timur, rt.10, pejaten bar., kota jakarta selatan",ChIJF3u8PEjyaS4RppTLQD3jtGY,0
warteg zakaria,0,0,-6.258705600000001,106.8377832,"jl. duren tiga selatan no.67, rt.8/rw.3, duren tiga, kota jakarta selatan",ChIJEdU31onzaS4R3-9pMWJZO68,0
warteg jaya makmur,0,0,-6.2658181,106.8442605,"jl. raya pasar minggu, rt.13/rw.1, pejaten tim., kota jakarta selatan",ChIJHdODV0jyaS4RZvtForGZfpo,0
warteg arisba,4,1,-6.2624065,106.8462673,"jl. kalibata timur no.31, rt.9/rw.8, pejaten tim., kota jakarta selatan",ChIJB9UqbXvzaS4R78pKGmp2q2g,0
warteg subsidi,4.7,10,-6.2586967,106.8417007,"jl. duren tiga selatan no.37, rt.1/rw.2, kalibata, kota jakarta selatan",ChIJp7MTo4XzaS4R9aub3jE0gd4,0
warteg rizki,4.1,65,-6.2660974,106.8373555,"jl. h. samali no.85a, rt.19/rw.1, pejaten bar., kota jakarta selatan",ChIJfSI6FzfyaS4RV5A5eTBt33M,0
dapur warteg putra jaya,3.8,10,-6.2586857,106.8368179,"jl. gajah mungkur, rt.11/rw.3, duren tiga, jakarta",ChIJMak7vzTyaS4RL7jm4GLN5ho,0
warteg pesona,4.5,12,-6.266267099999999,106.8409779,"jl. h. samali no.3, rt.13/rw.1, pejaten bar., kota jakarta selatan",ChIJ-akM3DfyaS4R0B-mxTXBUCM,0
warteg narti,4.6,18,-6.26649,106.8445837,"jl. raya pasar minggu no.km. 18, rt.13/rw.1, pejaten bar., kota jakarta selatan",ChIJIS0mi0jyaS4RcS_Vt4iQEx4,0
warteg aji,3.9,14,-6.2590796,106.8436271,"jl. kalibata timur i gg. rukun no.2, rt.1/rw.8, kalibata, kota jakarta selatan",ChIJJ6716EryaS4RanjpCv2gLg8,0
warteg berkah,4.6,15,-6.260322299999999,106.8433643,"jl. raya pasar minggu no.4, rt.5/rw.8, kalibata, kota jakarta selatan",ChIJHzBDQ0ryaS4RnbkZLtNcKPg,0
warteg pancoran,4.2,67,-6.262366099999999,106.8458853,"jl. kalibata timur no.49, rt.9/rw.8, kalibata, kota jakarta selatan",ChIJBf9O3kvyaS4RfEJORj-sS-w,0
warteg kowantara jakarta selatan,0,0,-6.2608279,106.8433146,"jl. raya pasar minggu no.4, rt.5/rw.8, kalibata, kota jakarta selatan",ChIJ-_NRWUryaS4RkR4zsF4Gt6U,0
warteg sederhana ibu siti,5,8,-6.263507,106.84302,"blok kalibata selatan 2g jalan kalibata selatan ii b blok kalibata selatan 2g no.16a, rt.1/rw.4, kalibata, kota jakarta selatan",ChIJ0xHK7EnyaS4R_78youc08X0,0
warteg doa ibu,4,2,-6.262507100000001,106.8473491,"jl. kalibata timur no.66, rt.14/rw.1, pejaten tim., kota jakarta selatan",ChIJV98AAEzyaS4RXTNYZZrC51s,0
warteg bu haji,0,0,-6.2533106,106.8481756,"jl. kh.mahmud,buntu no.7, rt.5/rw.4, duren tiga, kota jakarta selatan",ChIJs0Hks73zaS4R7qyhiRJX9jk,0
wahyoo warteg pada rukun 2,5,1,-6.2602198,106.8403418,"jl. kalibata utara ii no.62, rt.5/rw.2, kalibata, kota jakarta selatan",ChIJ_ZYjot_zaS4Rj4j_DDqr_hU,0
warteg dewi,3.8,4,-6.2534892,106.840767,"jl. duren tiga raya, rt.1/rw.1, pancoran, kota jakarta selatan",ChIJ624TDsrzaS4RtcJpUsWQ24E,0
warteg zakaria,0,0,-6.258705600000001,106.8377832,"jl. duren tiga selatan no.67, rt.8/rw.3, duren tiga, kota jakarta selatan",ChIJEdU31onzaS4R3-9pMWJZO68,0
warteg subsidi,4.7,10,-6.2586967,106.8417007,"jl. duren tiga selatan no.37, rt.1/rw.2, kalibata, kota jakarta selatan",ChIJp7MTo4XzaS4R9aub3jE0gd4,0
warteg dapuk,4.1,113,-6.253419900000001,106.8384314,"jl. duren tiga selatan, rt.3/rw.6, duren tiga, kota jakarta selatan",ChIJpbbHNhfzaS4RXx6_ORxH6x8,0
warteg pesona bahari,4.5,6,-6.2532369,106.8426154,"jl. raya pasar minggu no.46, rt.3/rw.7, duren tiga, kota jakarta selatan",ChIJtb4l6bXzaS4RroOmPgeOchY,0
warteg jaya makmur,0,0,-6.2658181,106.8442605,"jl. raya pasar minggu, rt.13/rw.1, pejaten tim., kota jakarta selatan",ChIJHdODV0jyaS4RZvtForGZfpo,0
warteg kharisma bahari,3.8,21,-6.253233,106.8373344,"jl. duren tiga raya no.41, rt.5/rw.6, duren tiga, kota jakarta selatan",ChIJYwBuaqbzaS4Rc_bfFtZiX4c,0
wahyoo warteg,4.1,13,-6.2623674,106.845885,"jl. empang 3/kalibata tim., rt.9/rw.8, kalibata, kota jakarta selatan",ChIJ46Cc4EvyaS4Rmd4oJ7rsdLg,0
warteg tigaputri,0,0,-6.2601806,106.8433285,"jl. raya pasar minggu, rt.5/rw.8, kalibata, kota jakarta selatan",ChIJE_zHWEryaS4REwrLNKTzu8Q,0
warteg latifah,4.6,42,-6.2571283,106.8169117,"prv8+4qv, rt.5/rw.1, bangka, south jakarta city",ChIJc-5_wn_xaS4RRhfzbFQQ6B8,0
warteg bejo,4.5,114,-6.258194599999999,106.8134351,"jl. kemang i no.12, rt.10/rw.1, bangka, kota jakarta selatan",ChIJZVTwuK_xaS4RHEFvuzuSxyw,0
warteg kharisma bahari,4.4,134,-6.2641376,106.8090111,"jl. khm. naim iii no.11, rt.5/rw.9, cipete utara, kota jakarta selatan",ChIJ32eNfYTxaS4RPMzLYLN43zk,0
warteg kharisma bahari,4.3,3,-6.2571621,106.8184548,"jl. kemang barat no.16, rt.6/rw.5, bangka, kota jakarta selatan",ChIJOxi72bzzaS4RlvjFPBNt4kc,0
warteg mojo,3.9,15,-6.2517871,106.8170368,"jl. bangka ix no.100, rt.3/rw.12, pela mampang, kota jakarta selatan",ChIJNdOYjH3xaS4Rk1oL3l1tnB0,0
wahyoo warteg tegal bahari,0,0,-6.2637201,106.807913,"012, jl. h. sa'aba no.8a, rt.3/rw.11, cipete utara, kota jakarta selatan",ChIJ96k_jIHxaS4RaRUgenP3ZDU,0
warteg jippo,4.5,6,-6.257980799999999,106.8071943,"jl. anggur v, rt.3/rw.3, cipete utara, kota jakarta selatan",ChIJOSU7EnjxaS4R_IVdjn8r26A,0
simpang raya rm warteg kecil,4.6,14,-6.2572807,106.816164,"jl. kemang utara, rt.4/rw.1, bangka, kota jakarta selatan",ChIJ6ZkBlX_xaS4RHQ5_31o7o94,0
warteg sederhana,4.4,48,-6.264538000000001,106.8089784,"jl. khm. naim iii b no.11, rt.7/rw.9, cipete utara, kota jakarta selatan",ChIJMWiYWoTxaS4R7M_b64dog7Y,0
warteg ibu lilis,4.9,7,-6.259754099999999,106.8071358,"jl. putih melati no.11, rt.11/rw.3, cipete utara, kota jakarta selatan",ChIJrXQb3znxaS4RqKDZxl-bFoc,0
warteg abil jaya,4.3,36,-6.251912799999999,106.8179044,"jl. bangka ix, rt.3/rw.12, pela mampang, kota jakarta selatan",ChIJbWYTINbzaS4R30dW265Wz7s,0
warteg bahari,4.5,12,-6.2355784,106.842835,"jl. masjid an nur no.24a, rt.4/rw.2, menteng dalam, kota jakarta selatan",ChIJlXALPpXzaS4RrjkhZxIhv9I,0
warteg rasamala,4,104,-6.2361868,106.8402147,"jl. rasamala raya no.24, rt.9/rw.2, menteng dalam, kota jakarta selatan",ChIJ802RvurzaS4Rx2pin99rm7A,0
warteg podomoro 3,5,1,-6.2321442,106.8441351,"jalan merpati 3 no.26, rt.1/rw.3, menteng dalam, kota jakarta selatan",ChIJBzn-f5PzaS4R17_-nsHYGso,0
warteg berkah jaya,0,0,-6.2347538,106.8402984,"jl. rasamala 1 no.2a, rt.4/rw.2, menteng dalam, kota jakarta selatan",ChIJYeUz2erzaS4RoDId64f4Zzw,0
warteg safari kh. ramli,4.4,95,-6.2322685,106.8447206,"jl. k.h. ramli no.10, rt.1, menteng dalam, kota jakarta selatan",ChIJUxS1fpTzaS4RRYf5AS84-xU,0
warteg satria,4.5,101,-6.234213599999999,106.84669,"jl. tebet barat dalam raya no.9, rt.8/rw.2, tebet bar., kota jakarta selatan",ChIJD1kzWe3zaS4Rav1WOP5rHZk,0
warteg pink,4.7,123,-6.227774999999999,106.8460789,"jl. pal batu 1 no.20a, rt.4/rw.4, menteng dalam, kota jakarta selatan",ChIJG8nNjGfzaS4R9LYQ37Iqt2c,0
warteg salsabilla,4.2,31,-6.2347018,106.8378487,"2, jl. rasamala iii no.3, rt.2/rw.13, menteng dalam, kota jakarta selatan",ChIJq93OrevzaS4R8Q3x2ynNcyI,0
warteg podomoro,4.3,3,-6.2317885,106.8442469,"jl. k.h. ramli no.8b, rt.2/rw.3, menteng dalam, kota jakarta selatan",ChIJCePlUpPzaS4RXx0zXNYM_TM,0
warteg ridho ibu,3,3,-6.2341824,106.8439636,"jl. masjid an nur, rt.1/rw.2, menteng dalam, kota jakarta selatan",ChIJjzqq_pTzaS4RjZoeQHdfudg,0
warteg kharisma,4.9,9,-6.238396799999999,106.8473758,"jl. tebet barat dalam iv, rt.15/rw.6, tebet bar., kota jakarta selatan",ChIJt8or7tDzaS4R-H8EdwDC7z8,0
