nama_tempat,rating_tempat,user_ratings_total,latitude,longitude,alamat_tempat,place_id,distance
warteg wagetun,4.3,14,-6.271634400000001,106.815337,"jl. kemang raya no.95 e, rt.1/rw.2, bangka, kota jakarta selatan",ChIJh867ronxaS4Rc0hjpvuWHW8,0.012258199999997109
warteg kar1mah bahari,4.7,3,-6.2604862999999975,106.8232763,"jl. kemang timur no.21, rt.5/rw.4, bangka, kota jakarta selatan",ChIJ-SQ7eSvyaS4RTa4L3WszsgE,0.0
warteg jayabahari,4.4,104,-6.257952599999999,106.8233462,"jl. kemang utara no.55, rt.2/rw.4, bangka, kota jakarta selatan",ChIJp9qMq9TzaS4R3a846-2OsiY,0.0
warteg 234,4.2,10,-6.2583754,106.82053,"warteg 234 no. 234, jalan. bungur dalam kemang utara, rt.1/rw.5, bangka, kota jakarta selatan",ChIJGRbq1CryaS4RLMvYTWYF13Q,0.0
warteg mojo,0.0,0,-6.2532745,106.8221282,"jl. bangka ix c, rt.10/rw.10, pela mampang, kota jakarta selatan",ChIJwZtNINTzaS4R29tJ4u1-P3U,0.0
dapur warteg,5.0,1,-6.257915799999999,106.82218290000002,"jl. kemang sel. no.49a, rt.2/rw.4, bangka, kota jakarta selatan",ChIJEw8bjjjzaS4RoYkGbq5jlZk,0.0
warteg darmo,5.0,2,-6.2519234999999975,106.8212596,"jl. bangka, rt.10/rw.10, pela mampang, kota jakarta selatan",ChIJBQWMmNbzaS4RcczX4-mhAxo,0.0
warteg moro seneng,5.0,2,-6.253339599999999,106.822051,"jl. bangka ix c no.37, rt.12/rw.10, pela mampang, kota jakarta selatan",ChIJp4WW9drzaS4RXMgnBLXXcyw,0.0
warteg slawi ayu,4.1,12,-6.2515243000000025,106.8236075,"jl. bangka ix no.49, rt.8/rw.10, pela mampang, kota jakarta selatan",ChIJEfkqNdHzaS4R34pjpXPkJo0,0.0
warteg b9,4.5,44,-6.251925099999999,106.8212432,"jl. bangka ix, rt.7/rw.10, pela mampang, kota jakarta selatan",ChIJx2e4jNbzaS4RYh1aTTtZG2U,0.0
warteg rezkq,5.0,2,-6.258972,106.7896343,"jl. h. zainuddin no.27-7, rt.5/rw.14, gandaria utara, kota jakarta selatan",ChIJE_-oVybxaS4R2kNkeOhgJiU,0.0
warteg garasi,0.0,0,-6.2635533,106.7892187,"jl. h. nawi raya no.18, rt.7/rw.10, gandaria utara, kota jakarta selatan",ChIJ133lTqHxaS4RUECgmlCD1h8,0.0
warteg minah,4.2,20,-6.284747299999999,106.8190653,"jl. ampera raya no.4a, rt.1/rw.6, ragunan, kota jakarta selatan",ChIJkYmc6x3yaS4RqZV67z9_CEM,0.0
warteg bahari,0.0,0,-6.2876967000000015,106.8234272,"jl. hankam no.rt.5, rt.8/rw.11, ragunan, kota jakarta selatan",ChIJzb7lNIjzaS4RN5d-ACBV1BQ,0.0
warteg b 464 s,5.0,1,-6.2854468999999975,106.8186179,"jalan ampera raya no.10, rt.8/rw.2, cilandak timur, pasar minggu, rt.8/rw.2, cilandak tim., kota jakarta selatan",ChIJ73ANkh3yaS4RbT5kf2OMn1M,0.0
warteg ellya,4.5,112,-6.279879999999999,106.818121,"jl. madrasah no.7, rt.5/rw.6, cilandak tim., kota jakarta selatan",ChIJEd0jgMvvaS4R_0_i9wEeWik,0.0
warteg podoworo,3.0,1,-6.2881446,106.8248379,"jalan taman rt 001 rw 006 ragunan, jl. margasatwa bar., rt.6/rw.1, ragunan, dki jakarta",ChIJfyE8aRvyaS4R6c6Jt_g30VU,0.0
warteg danny,4.0,5,-6.281784399999999,106.824179,"jl. pekayon, rt.2/rw.3, ragunan, kota jakarta selatan",ChIJ0-wZLhnyaS4R1bOnEU9msWk,0.0
makmur restaurant,4.4,51,-6.2871118999999975,106.825406,"jl. taman margasatwa raya no.16, rt.4/rw.11, ragunan, kota jakarta selatan",ChIJ45sNFRvyaS4ROMnssJC0o4w,0.0
warteg kharisma elegant cab warung jati,4.5,328,-6.2899692000000025,106.8240129,"jl. marga satwa raya no no.16, rt.5/rw.1, ragunan, kota jakarta selatan",ChIJd9d3xQnvaS4RatGPrzFuWSo,0.0
warteg kharisma bahari elegant cabang warung jati,4.6,9,-6.2900239,106.8239837,"jl. taman margasatwa raya no.16, rt.5/rw.1, ragunan, kota jakarta selatan",ChIJ4bLuWNDzaS4R_g-TIrV3VHc,0.0
wahyoo.warteg alif bahari,4.6,44,-6.2816467000000005,106.823119,"jl. pekayon no.2, rt.9/rw.3, ragunan, kota jakarta selatan",ChIJ9Swrth7yaS4Rec3AeV4nKck,0.0
warteg bagas,5.0,1,-6.2854185,106.81866940000002,"jl. ampera raya no.8, rt.8/rw.2, cilandak tim., kota jakarta selatan",ChIJbW6H-pXzaS4Rp5tD4DxCJ8M,0.0
warteg mulya bahari,4.3,301,-6.2637941,106.7908567,"jl. h. nawi raya no.73, rt.6, gandaria utara, kota jakarta selatan",ChIJVZgWeqHxaS4RaoBtJDqp_zY,0.011672599999990927
warteg bu turah,4.4,31,-6.2613799000000006,106.802347,"jakarta selatan, rt.6/rw.2, cipete utara, kota jakarta selatan",ChIJIwFTrZ3xaS4R8yZkk2Jr6pU,0.015859899999999705
warteg mandiri,4.1,10,-6.266043,106.808127,"jl. duren tiga raya no.48, rt.4/rw.1, duren tiga, kota jakarta selatan",ChIJyyDNSszzaS4RNwTh3ojM5zc,0.016976800000001013
warteg mamoka,4.5,191,-6.2719347,106.7965176,"pqhw+6jc, rt.1/rw.4, south gandaria, south jakarta city",ChIJQ-4iYQ3xaS4ROc90Y7wg3QQ,0.002128900000004208
warteg selaras bahari,4.7,3,-6.264349999999999,106.797745,"jl. nangka, rt.2/rw.5, cipete utara, kota jakarta selatan",ChIJ41bAP_jxaS4Rf50QI4ZoMsA,0.008287800000008616
warteg barokah,3.8,15,-6.258563,106.802274,"no 18, jalan kirai, rt.10/rw.4, cipete utara, kota jakarta selatan",ChIJK_7-mZ3xaS4RG3fPlGRAtKc,0.018603799999999282
warteg selera,4.0,1,-6.2610981,106.7910983,"jl. hidup baru no.30, rt.12/rw.3, gandaria utara, kota jakarta selatan",ChIJ1ZlaW6DxaS4Ro0zW8V-AUa0,0.014126999999995782
warteg jaya bahari,4.5,49,-6.2666981,106.8037732,"jl. abdul majid raya, rt.11/rw.7, cipete utara, kota jakarta selatan",ChIJPc4q_ZrxaS4Rnb65HJWKVAM,0.011967899999996591
warteg anda,5.0,2,-6.2724509999999984,106.803327,"jl. asem dua no.14, rt.1/rw.6, cipete sel., kota jakarta selatan",ChIJ5zKjrDvxaS4RUyfQwcS7jZc,0.00945459999999798
warteg citrajaya bahari,4.1,12,-6.259934500000001,106.7962051,"jl. gotong royong i no.1, rt.4/rw.6, gandaria utara, kota jakarta selatan",ChIJ9fn8wp_xaS4Rnr_xEDKeXI0,0.011163399999995605
warteg selera,4.6,13,-6.2604029999999975,106.7970268,"jl. rs. fatmawati raya no.1, rt.2/rw.1, cipete utara, kota jakarta selatan",ChIJzRY0eXXxaS4RDvXmGhnQD4Y,0.01151660000000021
warteg mamoka bahari,4.4,72,-6.266299699999999,106.7898497,"jl. madrasah no.5, rt.6/rw.1, gandaria sel., kota jakarta selatan",ChIJPxS216vxaS4RWxXpeHm7L1A,0.010173999999993022
warteg zahra,4.2,17,-6.2524679,106.7945975,"jl. petogogan i no.20a, rt.1/rw.11, gandaria utara, kota jakarta selatan",ChIJkTt21XLxaS4RJPViggvKqAg,0.01925800000000244
warteg 46,5.0,2,-6.2642370000000005,106.7935285,"jl. h. nawi raya no.46a, rt.6/rw.2, gandaria sel., kota jakarta selatan",ChIJBYMb-KHxaS4RKc7vu-v5SVg,0.008557900000004004
warteg rahayu,0.0,0,-6.2600656999999975,106.800691,"jl. damai raya no.20, rt.1/rw.2, cipete utara, kota jakarta selatan",ChIJv4vg6J3xaS4RatIsR5-Eu4w,0.015518100000003088
warteg kharisma bahari 16,4.5,16,-6.260229799999999,106.7909705,"cilandak, jl. h. salim 1 no.3, rt.8/rw.10, gandaria utara, dki jakarta",ChIJDdcAxKDxaS4R_DT2xRvkiFk,0.015123099999997612
warteg restu ibu,5.0,1,-6.270690699999999,106.7972883,"jl. rs. fatmawati raya no.234, rt.1/rw.4, gandaria sel., kota jakarta selatan",ChIJMe6GgpfxaS4RiahGZqvF6BA,0.0016556000000074178
warteg rohmadi,0.0,0,-6.2671835,106.7942559,"jl. komp. depag no.19, rt.7/rw.3, gandaria sel., kota jakarta selatan",ChIJFemleJjxaS4RUI3pXCOhVdM,0.004884000000001443
warteg mekar jaya (wmj),3.0,2,-6.270124,106.79727,"jl. rs. fatmawati raya no.8-1, rt.1/rw.4, gandaria sel., kota jakarta selatan",ChIJv83Pi4fxaS4R5cjVT7Qyq0U,0.002038799999999341
warteg kharisma bahari,4.4,179,-6.260070100000001,106.8057715,"jl. h. jian no.32, rt.7/rw.3, cipete utara, kota jakarta selatan",ChIJx8p0Sp3xaS4R-_IldqY_PHc,0.020594200000006783
warteg annisa,3.5,2,-6.2705804,106.7962488,"jalan mangga nomor 8d, rt.4/rw.4, gandaria sel., kota jakarta selatan",ChIJ0TDKwGEfai4RQBj94PZtAUw,0.000561200000002593
warteg 168,4.0,2,-6.263635499999999,106.79454040000002,"jl. h. nawi raya, rt.2/rw.7, gandaria utara, kota jakarta selatan",ChIJBW6EWZ_xaS4Roq_1K9LQ7ps,0.0081474999999962
warteg kharisma bahari,5.0,8,-6.2677365,106.7967421,"jl. madrasah no.1a, rt.3/rw.3, gandaria sel., kota jakarta selatan",ChIJQ4JQ1Q_xaS4R_aKPjG7C_sQ,0.0038984000000050756
warteg ben jaya,3.5,6,-6.2671015,106.7941082,"jl. madrasah no.4, rt.7/rw.3, gandaria sel., kota jakarta selatan",ChIJ8T2QgaLxaS4Rh4tD2TBG0Us,0.005113700000000776
warteg kharisma,4.2,30,-6.2706079999999975,106.795715,"samping philips, jl. mangga no.5, rt.5/rw.3, gandaria sel., kota jakarta selatan",ChIJo6qq6pfxaS4Rn4QKuHY7PCU,3.999999966808332e-07
warteg niki 4,4.7,18,-6.274515,106.79789,"jl. rs. fatmawati raya, rt.14/rw.4, cipete sel., kota jakarta selatan",ChIJ3498KJTxaS4RcG5SKCjpSEk,0.006081599999998133
warteg kharisma bahari,4.4,206,-6.2582684,106.7932268,"jl. karya utama no.6, gandaria utara, kota jakarta selatan",ChIJx1eskX_xaS4R07OKpVGmurM,0.014828199999997516
warteg cita rasa 3,4.0,9,-6.2638568,106.794299,"no. 051, jl. h. nawi raya, rt.7/rw.7, gandaria utara, kota jakarta selatan",ChIJLaE9Vp_xaS4RXEZZp3K0has,0.00816760000000194
warteg putra bahari,4.7,6,-6.254445599999999,106.7951869,"jl. petogogan ii no.30a, rt.9/rw.5, pulo, kota jakarta selatan",ChIJe2cWC9bxaS4RVkwIlFDegZI,0.01669089999999418
warteg kharisma bahari,0.0,0,-6.264571,106.799726,"jl. abdul majid raya, rt.13/rw.2, cipete utara, kota jakarta selatan",ChIJNyMYqAPxaS4R7gNXNMCSNY4,0.0100478000000086
warteg murah meriah,4.0,5,-6.2668583,106.8019914,"jl. abdul majid raya no.30, rt.11/rw.2, cipete sel., kota jakarta selatan",ChIJYxvXSJrxaS4R-Sgik59q2Nk,0.010025900000007582
wahyoo warteg sebelah gg haji miad,4.8,10,-6.2667242,106.80409009999998,"jl. abdul majid raya no.3, rt.11/rw.7, cipete sel., kota jakarta selatan",ChIJuU9W4prxaS4Ry-10NNDr1Hk,0.012258699999998512
warteg kharisma bahari 24,4.6,57,-6.260949399999999,106.796151,"jl. hidup baru, rt.9/rw.6, gandaria utara, kota jakarta selatan",ChIJuQHgkZ_xaS4RhJK7eLjYLoE,0.010094399999997172
warteg latifah,4.6,42,-6.2571283,106.8169117,"prv8+4qv, rt.5/rw.1, bangka, south jakarta city",ChIJc-5_wn_xaS4RRhfzbFQQ6B8,0.0
warteg bejo,4.5,114,-6.258194599999999,106.8134351,"jl. kemang i no.12, rt.10/rw.1, bangka, kota jakarta selatan",ChIJZVTwuK_xaS4RHEFvuzuSxyw,0.0
warteg kharisma bahari,4.4,134,-6.2641376,106.8090111,"jl. khm. naim iii no.11, rt.5/rw.9, cipete utara, kota jakarta selatan",ChIJ32eNfYTxaS4RPMzLYLN43zk,0.0
warteg kharisma bahari,4.3,3,-6.2571621,106.8184548,"jl. kemang barat no.16, rt.6/rw.5, bangka, kota jakarta selatan",ChIJOxi72bzzaS4RlvjFPBNt4kc,0.0
warteg mojo,3.9,15,-6.2517871,106.8170368,"jl. bangka ix no.100, rt.3/rw.12, pela mampang, kota jakarta selatan",ChIJNdOYjH3xaS4Rk1oL3l1tnB0,0.0
warteg jippo,4.5,6,-6.257980799999999,106.8071943,"jl. anggur v, rt.3/rw.3, cipete utara, kota jakarta selatan",ChIJOSU7EnjxaS4R_IVdjn8r26A,0.0
simpang raya rm warteg kecil,4.6,14,-6.2572807,106.816164,"jl. kemang utara, rt.4/rw.1, bangka, kota jakarta selatan",ChIJ6ZkBlX_xaS4RHQ5_31o7o94,0.0
warteg sederhana,4.4,48,-6.264538000000001,106.8089784,"jl. khm. naim iii b no.11, rt.7/rw.9, cipete utara, kota jakarta selatan",ChIJMWiYWoTxaS4R7M_b64dog7Y,0.0
warteg abil jaya,4.3,36,-6.251912799999999,106.8179044,"jl. bangka ix, rt.3/rw.12, pela mampang, kota jakarta selatan",ChIJbWYTINbzaS4R30dW265Wz7s,0.0
warteg asih,4.6,55,-6.287616000000001,106.809292,"jl. nis no.32, rt.9/rw.3, cilandak tim., kota jakarta selatan",ChIJWQqmRYXxaS4R7CAIOdaA5Ag,0.0
warteg,0.0,0,-6.2893219,106.8066429,"jl. swadaya no.16a, rt.2/rw.1, cilandak bar., kota jakarta selatan",ChIJeYO0IDrxaS4RzjAiFuMYOtg,0.0
wahyoo warteg bmj,5.0,1,-6.2891726,106.8030902,"pr63+86p, rt.7/rw.1, west cilandak, south jakarta city",ChIJ_3Z-_XjxaS4RT3bKsAq4fAY,0.0
warteg idola,4.5,86,-6.249302200000002,106.7837738,"jl. bungur ii, rt.4/rw.2, kby. lama sel., dki jakarta",ChIJ75L4HhDxaS4RgYOwHHC9nog,0.0
wahyoo warteg hidayah,0.0,0,-6.2491955999999975,106.7826033,"jl. bungur ii no.57, rt.2/rw.2, kby. lama sel., kota jakarta selatan",ChIJ-X5OABDxaS4RtSLrS7TkDtw,0.0
warteg barokah,4.8,4,-6.247303899999999,106.7797712,"jl. bungur, rt.4/rw.1, kby. lama utara, kota jakarta selatan",ChIJwahg_BrxaS4RNRojSe6S7EQ,0.0
warteg ana,5.0,3,-6.248831099999999,106.7843621,"jalan bungur ii rw003, rt.4/rw.12, kby. lama sel., kec. kby. lama, kota jakarta selatan, dki jakarta12240, rt.5/rw.2, kby. lama sel., kota jakarta selatan",ChIJLdK__YTxaS4RnAEzfcP6EOg,0.0
warteg mubarok,4.3,11,-6.2499981,106.7900569,"jl. antena ii no.17, rt.3/rw.8, kramat pela, kota jakarta selatan",ChIJMRQqlw3xaS4RAbC3wsz1ewQ,0.0
warteg (wahyoo) enno,5.0,4,-6.2498542,106.7915148,"jl. radio dalam raya no.2, rt.14/rw.2, gandaria utara, kota jakarta selatan",ChIJn2kcbrrxaS4RrbmUrkJi46s,0.0
warteg kharisma,4.3,13,-6.2467650999999975,106.7882461,"jl. jatayu no.rt.7, rt.8/rw.3, south kebayoran lama, south jakarta city",ChIJwTFnhBHxaS4RUnkcZqdgsTI,0.0
wahyoo warteg berkah bahari,5.0,1,-6.2532236,106.7842465,"jl. praja no.dalam, rt.5/rw.5, south kebayoran lama, south jakarta city",ChIJydRgLtzxaS4RhDc26tp6fU0,0.0
wahyoo warteg sederhana,4.4,16,-6.2579637,106.7897662,"jl. minang kramat no.1b, rt.2/rw.14, gandaria utara, kota jakarta selatan",ChIJzzW9PwrxaS4RdKXd702mxKs,0.0
warteg waluyo,4.2,11,-6.2599342,106.7845167,"jl. kopro banjir, rt.7/rw.11, kby. lama sel., kota jakarta selatan",ChIJ1Z8Ij6fxaS4Rw9PgmuWtJbs,0.0
warteg raji,4.3,4,-6.2583739000000005,106.78248290000002,"jl. tanah kusir ii no.9, rt.3/rw11/rw.9, kby. lama sel., kota jakarta selatan",ChIJUT0qYJfxaS4RWNnA0Jb0FOI,0.0
warteg tono,3.9,32,-6.260771099999999,106.7853106,"jl. tanah kusir no.09, rt.10/rw.11, kby. lama sel., kota jakarta selatan",ChIJCcdCn6fxaS4RYkFXDuUBQXU,0.0
warteg munawar,4.5,17,-6.2598405,106.7852074,"jl. dwijaya iv, rt.7/rw.11, kby. lama sel., kota jakarta selatan",ChIJ48rKg6fxaS4RdVX2uuxZPIQ,0.0
warteg selasih,5.0,2,-6.2568402,106.7857907,"jl. taman radio dalam vii, rt.13/rw.11, gandaria utara, kota jakarta selatan",ChIJT0T3qQnxaS4RHNgaUwtW9r8,0.0
warteg kharisma bahari - kostrad,4.5,19,-6.2533197,106.7852406,"jl. darma putra raya jl. swadaya no.51, rt.9/rw.5, kby. lama sel., kota jakarta selatan",ChIJ78_ZKA_xaS4RjhU79awBWnI,0.0
warteg citra bahari,3.6,10,-6.253381,106.77607,"jalan bintaro raya tanah kusir, rt.2/rw.10, kebayoran lama selatan, kebayoran lama, rt.11/rw.10, kby. lama sel., kota jakarta selatan",ChIJo7yAjAPxaS4Rj1TMzLIGzlE,0.0
warteg dewi,4.6,17,-6.259367,106.7829055,"jl. tanah kusir ii no.9 rt009/rw009, rt.11/rw.9, kby. lama sel., kota jakarta selatan",ChIJ24TL8y7xaS4Rwwv4UwE3Hok,0.0
warteg m j,4.4,15,-6.2608802999999975,106.7888184,"jl. radio dalam raya no.88, rt.3/rw.11, gandaria utara, kota jakarta selatan",ChIJHQ3F06DxaS4R5gBp0MQxEnw,0.0
warteg ainun jaya 1 - tanah kusir,4.3,17,-6.2549179000000015,106.77765990000002,"jl. ciputat raya jl. tanah kusir no.47, rt.13/rw.1, kby. lama sel., kota jakarta selatan",ChIJFdYstSrxaS4RDR2FalWmrFE,0.0
warteg slawi ayu,4.6,60,-6.2553325,106.7760395,"jl. johari no.1, rt.10/rw.10, kby. lama sel., kota jakarta selatan",ChIJdUouTgHxaS4RkjXb5A6rWb4,0.0
wahyoo warteg mekarsari,4.5,79,-6.2522474,106.7833053,"dalam k nomor, jl. praja no.40, rt.7/rw.5, kby. lama sel., kota jakarta selatan",ChIJNS1Wdg_xaS4RQUMIMTYVufw,0.0
warteg irma,0.0,0,-6.253249299999999,106.7778802,"jl. ciputat raya no.2, rt.11/rw.11, kby. lama utara, kota jakarta selatan",ChIJTe_1agTxaS4RTRdADsChwg4,0.0
warteg dewi,5.0,3,-6.262671399999999,106.7855896,"jl. margaguna raya a no.9, rt.4/rw.15, gandaria utara, kota jakarta selatan",ChIJxyiN96bxaS4R-q2adJP7T-8,0.0
warteg portugal,4.2,17,-6.2580774,106.7773531,"jl. ciputat raya, rt.4/rw.10, kby. lama sel., kota jakarta selatan",ChIJ93oZOgfxaS4RPF6_rk3M1P4,0.0
warteg bahari,5.0,6,-6.278468699999999,106.7932845,"jl. bahari i no.62, rt.10/rw.7, gandaria sel., kota jakarta selatan",ChIJg3ksjvDxaS4R_qssV7JJYx4,0.017734300000003422
warteg pratama 03,4.5,8,-6.2798251,106.79534309999998,"jl. terogong raya no.15, rt.11/rw.7, gandaria sel., kota jakarta selatan",ChIJOxnknzbxaS4R2bQU7UbrqHk,0.014319300000003919
warteg kharisma bahari / tasripin,4.4,118,-6.2780903,106.8049547,"jl. cipete raya no.1a, rt.8/rw.4, cipete sel., kota jakarta selatan",ChIJ92bavZLxaS4RuyRU7t5bjv4,0.021971899999996047
warteg poncol,0.0,0,-6.275475900000001,106.7930573,"pqfv+r63, rt.3/rw.7, south gandaria, south jakarta city",ChIJ9XsywdPxaS4RH1wimCW4GR4,0.020954299999999648
warteg sarapada 4 ibu,4.2,69,-6.278181399999999,106.8079133,"jl. cipete raya no.61, rt.9/rw.4, cipete sel., kota jakarta selatan",ChIJiZAGPI3xaS4RhKCoGnkNB9E,0.024839399999995848
warteg hidayah,4.4,19,-6.288495999999999,106.8070396,"jl. pangeran antasari gg. swadaya iii, rt.1/rw.1, cilandak bar., kota jakarta selatan",ChIJo4IhF_DxaS4R6ClUf1MaOcY,0.013651099999996141
warteg mpr,4.4,54,-6.284384999999999,106.8066329,"jl. m.p.r iii no.dalam, rt.12/rw.13, cilandak bar., kota jakarta selatan",ChIJcbdCnQ_xaS4RmrM1BqjXTjs,0.017355399999996912
warteg family xii,3.4,5,-6.2797983,106.7953642,"jl. terogong raya, rt.11/rw.6, gandaria sel., dki jakarta",ChIJJU0fyurxaS4RLeWPtnbBhFo,0.014325000000005694
warteg dua putri,4.8,5,-6.2762854999999975,106.7915426,"jl. poncol no.14, rt.3/rw.7, gandaria sel., kota jakarta selatan",ChIJH0gbjmTxaS4RlFGzY_SiaPY,0.02165940000000166
warteg romlah,4.9,7,-6.2795252,106.7931048,"pqcv+56q, rt.9/rw.7, south gandaria, south jakarta city",ChIJic_sobDxaS4RjDi_vEIOkDg,0.016857500000005743
warteg aw,5.0,2,-6.2849900000000005,106.8065595,"jln mpr 3 dalam no34, jl. m.p.r iii dalam no.dalam, rt.2/rw.13, cilandak bar., kota jakarta selatan",ChIJhbqPfJnxaS4RpwayWTz8Ba4,0.016677000000005826
warteg brambang salam,4.5,4,-6.2892606,106.8030518,"jl. cilandak tengah ii no.10, rt.3/rw.1, cilandak bar., kota jakarta selatan",ChIJKwtXf-_xaS4RMB6kW-c9w-s,0.008898700000004922
warteg hafis,4.4,16,-6.2797992,106.7938948,"jl. terogong i no.32, rt.8/rw.10, cilandak bar., kota jakarta selatan",ChIJJzISAcDxaS4R0ZaAMqbxYgc,0.015793499999996463
warteg aw,3.7,3,-6.2843750000000025,106.8064783,"12, jl. m.p.r. iii dalam no.dalam, rt.2/rw.13, cilandak bar., kota jakarta selatan",ChIJp3vHnFHxaS4RYYWNIi15R6Q,0.017210799999993753
warteg,4.4,175,-6.2730144,106.8148675,"jl. kemang sel., rt.5/rw.6, cipete sel., kota jakarta selatan",ChIJwTeEN4bxaS4RuMOTs5rkpNI,0.0
warteg pusri,4.3,74,-6.2685656,106.8185455,"jl. kemang dalam x, rt.5/rw.2, bangka, kota jakarta selatan",ChIJB2v5ByjyaS4ROSpxhg8l-Gg,0.0
warteg rizal bahari sedia soto ayam,5.0,2,-6.271609099999999,106.8102877,"jl. jaya no.71, rt.1/rw.7, cipete sel., kota jakarta selatan",ChIJf9Li4I7xaS4R7lu2AE0Lquk,0.0
warteg yayu,4.4,8,-6.272869399999999,106.809681,"jl. puri sakti i no.26a, rt.2/rw.7, cipete sel., kota jakarta selatan",ChIJCbKCjY7xaS4Rq_MXqOSXik8,0.0
warteg rofiq,4.9,9,-6.2779121,106.8157755,"jl. benda dalam no.16c, rt.6/rw.4, cilandak tim., kota jakarta selatan",ChIJbwekxIrxaS4RxnyZ7wN_crA,0.0
warteg citra bahari,3.3,3,-6.267001899999999,106.8115929,"jalan haji abdul majid, rt.6/rw.7, cipete sel., kota jakarta selatan",ChIJ6yqP2YXxaS4R8AJUoEswT1U,0.0
warteg kholifah,5.0,1,-6.2701660000000015,106.808964,"jl. manunggal juang no.1, rt.2/rw.3, cipete sel., kota jakarta selatan",ChIJTW4uAObxaS4RztgSpLTVsBs,0.0
warteg dedi,5.0,2,-6.267091400000001,106.8132925,"prm7+587, rt.7/rw.2, bangka, south jakarta city",ChIJpX9E6XLxaS4Rn-JzgszYZB0,0.0
warteg baru,4.2,52,-6.306978,106.816714,"jl. saco ragunan no.96, rt.10/rw.8, ragunan, kota jakarta selatan",ChIJE5KA-4bvaS4RX085812pVWg,0.0
warteg imam,5.0,2,-6.3105538,106.815925,"jl. raya cilandak kko no.28, rt.14/rw.8, ragunan, kota jakarta selatan",ChIJlVbUbgjuaS4RBAVy3n3vuKI,0.0
warteg pemalang,4.6,14,-6.3112659,106.8088413,"jl. margasatwa no.49, rt.1/rw.7, pd. labu, kota jakarta selatan",ChIJwb2SAMbvaS4RYdRGroSlcd0,0.0
wahyoo warteg jaya,5.0,4,-6.3158223,106.7826123,"jl. karang tengah raya no.60 a, lb. bulus, kota jakarta selatan",ChIJZWOB_znuaS4RzYR4RVEdMUc,0.0
warteg srikandi sedia soto ayam,0.0,0,-6.3083,106.781285,"jl. pertanian raya, rt.2/rw.4, lb. bulus, kota jakarta selatan",ChIJQdt9bC_uaS4R-5ZBEwGyj24,0.0
wahyoo warteg rizqy,4.8,4,-6.304796800000001,106.781845,"rt.4/rw.4, lebak bulus, south jakarta city",ChIJZZ_DP9bxaS4R_NShEgveXHk,0.0
warteg mamoka bahari,4.0,4,-6.3052965,106.7817319,"jl. karang tengah raya no.35, rt.6/rw.4, lb. bulus, kota jakarta selatan",ChIJMZV4stTvaS4RiIvrQMCLZhA,0.0
warteg karisma bahari,0.0,0,-6.3102111,106.7856488,"jl. h. irin no.67, rt.2/rw.8, lb. bulus, kota jakarta selatan",ChIJjb2U1iTuaS4Rgty7TvkR5IM,0.01325410000000371
warteg bunda bahari,4.0,1,-6.300484099999999,106.7769246,"lebak bulus indah no.134, rt.3/rw.4, lb. bulus, kota jakarta selatan",ChIJ14rbbLDxaS4RwVlTRaMmy3s,0.005197100000000178
warteg bdn,4.5,4,-6.280281,106.7995857,"pq9x+vrp, rt.10/rw.11, west cilandak, south jakarta city",ChIJWUq0u0_xaS4RiyQ-DFBvI7Y,0.0
warteg kharisma,5.0,2,-6.287435599999999,106.7947086,"jl. bni raya no.8, rt.3/rw.8, cilandak bar., kota jakarta selatan",ChIJrXBCLOjxaS4RGu2DYgciRXE,0.0
warung soto (warteg setia),0.0,0,-6.2869052000000005,106.7957146,"no., jl. rumah sakit fatmawati no.205, rw.3, bar., cilandak, rt.1/rw.3, cilandak bar., kota jakarta selatan",ChIJcUR-PerxaS4R9JgfT4TI_9A,0.0
warteg mitra,4.3,24,-6.284200900000001,106.7960637,"jl. rs. fatmawati raya no.42, rt.5/rw.3, cilandak bar., kota jakarta selatan",ChIJqfacI-rxaS4Rvo6xe2dB7rc,0.0
warteg putri,3.8,8,-6.2824088,106.7929264,"jl. terogong raya no.11, rt.6/rw.10, cilandak bar., kota jakarta selatan",ChIJe364HMDxaS4RNNuG2xHYqSU,0.0
warteg makmur jaya,4.7,19,-6.2874843,106.7926104,"jl. kh muhasyim i no.3b, rt.4/rw.6, cilandak bar., kota jakarta selatan",ChIJ3VME9cLxaS4R_PPBee3UESI,0.0
warteg barokah,0.0,0,-6.2814209000000005,106.7916717,"jl.terogong iii no.75, rt.10/rw.10, cilandak bar., kota jakarta selatan",ChIJhYS0UcDxaS4RZ1YUQNOsLmE,0.0
warteg putra jaya,0.0,0,-6.2838807,106.7961355,"rt.5/rw.3, cilandak bar., kota jakarta selatan",ChIJoRntWVvxaS4RpHA8tSTOAb4,0.0
warteg subsidi bahari,5.0,1,-6.288671,106.795258,"2, jl. rs. fatmawati raya no.46, rt.3/rw.5, cilandak bar., kota jakarta selatan",ChIJyXVMvbHxaS4RKZYR0GRSpRw,0.0
warteg kharisma 24 jam,0.0,0,-6.289103099999998,106.7908216,"jl. kh muhasim raya blok m, jl. buntu no.8, rt.9/rw.6, cilandak bar., kota jakarta selatan",ChIJVYT-EYHxaS4RhFtiRNTjrZU,0.0
warteg kharisma bahari,3.7,3,-6.2847235,106.7882284,"jl. terogong raya, rt.3/rw.6, cilandak bar., kota jakarta selatan",ChIJF_MZq8bxaS4RqeiKJGsMGmA,0.0
warteg kharisma,4.3,6,-6.2810843,106.7918122,"jl.terogong iii no.5, rt.10/rw.10, cilandak bar., kota jakarta selatan",ChIJUY7AXcDxaS4RG-PJJgclL8I,0.0
warteg wisma bahari,4.5,2,-6.2839109,106.7904247,"3, jl. h. batong raya no.2a, rt.3/rw.6, west cilandak, south jakarta city",ChIJXzYyLdLxaS4RDmaDQmq1ICk,0.0
warteg barokah,5.0,1,-6.2901203,106.7954531,"jl. rs. fatmawati raya no.14, rt.7/rw.5, cilandak bar., kota jakarta selatan",ChIJZ3j1nAjxaS4RDiFlX2ckp74,0.0
warteg bu sri,0.0,0,-6.289569999999999,106.7926448,"jl. kh muhasim iv, rt.11/rw.5, cilandak bar., kota jakarta selatan",ChIJGyMIk_TxaS4RM8vXx4sGRaw,0.0
warteg sarapada i,5.0,1,-6.2870623,106.7712987,"jalan ciputat raya # 7, rt.6/rw.7, pondok pinang, kebayoran lama, rt.6/rw.7, pd. pinang, kota jakarta selatan",ChIJmUh0xszxaS4RG-50-lg2fX4,0.0
warteg kharisma bahari,4.5,214,-6.2847653,106.7683648,"jl. h. saikin no.25, rt.15/rw.8, pd. pinang, kota jakarta selatan",ChIJXQGIkDTwaS4RZbf3UL9O0C4,0.0
warteg adinda,2.0,1,-6.288476999999999,106.771174,"jalan ciputat raya pasar jumat rt 09 rw 07, pondok pinang, kebayoran lama, rt.9/rw.7, pd. pinang, kota jakarta selatan",ChIJk6UVMc3xaS4RkkyPBnAINNE,0.0
warteg ikhlas,4.4,5,-6.290242999999999,106.767519,"rt 008 rw 02, jl. ciputat raya, pd. pinang, kota jakarta selatan",ChIJw-aqfTLwaS4RON8UGf0Fbyo,0.0
warteg mulya bahari,5.0,1,-6.2903324000000005,106.7707445,"jl. batan jl. adiaksa raya no.1, rt.1/rw.2, lb. bulus, kota jakarta selatan",ChIJWci8VM3xaS4Rd9MuqfXmo3s,0.0
warteg kharisma bahari,4.4,157,-6.2790653,106.77233909999998,"jl. ciputat raya no.4, rt.1/rw.7, pd. pinang, kota jakarta selatan",ChIJ0YFq87rxaS4R8vKxvM3wWZo,0.0
warteg mustika bahari.,5.0,4,-6.2813887999999976,106.7616944,"jl. rempoa raya no.5, rt.1/rw.5, bintaro, kota jakarta selatan",ChIJxyBrzTfwaS4RqGJgS54UGiw,0.0
warteg ridho ibu,4.8,6,-6.290593599999999,106.7706668,"jl. lebak bulus raya no.1, rt.10/rw.9, lb. bulus, kota jakarta selatan",ChIJaySBTc3xaS4R_nLOHSxV02c,0.0
warteg omber tegal bahari,4.6,34,-6.2783164000000005,106.7622121,"jl. rempoa raya, rempoa, kota jakarta selatan",ChIJv_llqUnwaS4R4sDCqjjVWhI,0.0
warteg bahari,0.0,0,-6.2830008999999984,106.77031,"jl. pupan no.5, rt.9/rw.8, pd. pinang, kota jakarta selatan",ChIJBUxuKDXwaS4R8eCUfyKirVk,0.0
warteg andini,0.0,0,-6.311359599999999,106.7917283,"jl. h. ipin, rt.2/rw.1, pd. labu, kota jakarta selatan",ChIJj5_2Iz3uaS4RbvcGth9kyt8,0.0
warteg indra jaya bahar,5.0,2,-6.3092514,106.7920674,"jl. h. muslim, rt.6/rw.10, pd. labu, kota jakarta selatan",ChIJg8PXwiLuaS4RyEUpFP6gxuI,0.0
warteg joko,4.0,2,-6.3090989,106.79433459999998,"jl. pinang raya no.68-69, rt.2/rw.1, pd. labu, kota jakarta selatan",ChIJcx9VbHHvaS4R7ha_aiOVVUs,0.0
warteg laksana,4.6,14,-6.311044799999999,106.7850028,"jl. karang tengah i no.34, rt.1/rw.8, lb. bulus, kota jakarta selatan",ChIJTzXO1jruaS4RM4izdp0-M5s,0.015585499999998476
warteg ibu,4.7,16,-6.296596699999999,106.7918274,"jl. lb. bulus i, rt.4/rw.4, cilandak bar., kota jakarta selatan",ChIJ2fjtR97xaS4REdq2Ou6rVeU,0.016412399999998332
warteg bahari,0.0,0,-6.3118785000000015,106.79451170000002,"jl. margasatwa no.27-10, rt.4/rw.1, pd. labu, kota jakarta selatan",ChIJUbX9mu7vaS4RHtT4wU-6okA,0.006910299999999482
warteg jaya bahari,4.1,21,-6.310669499999999,106.7809988,"jl. karang tengah raya no.83, rt.1/rw.3, lb. bulus, kota jakarta selatan",ChIJJ_ZbFjDuaS4RqDArDnb6e_w,0.019214199999993298
warteg bahari,4.5,2,-6.303939499999999,106.7817121,"no.10,, daerah khusus ibukota jkt ,indonesia, jl. karang tengah raya, rt.6/rw.4, lb. bulus, kota jakarta selatan",ChIJ-Vz9kCjuaS4REwLyGfI7rIo,0.019184900000007943
warteg indahbahari,5.0,1,-6.3102725999999985,106.7868177,"jl. h. gandun no.58, rt.4/rw.8, lb. bulus, kota jakarta selatan",ChIJXTncSTvuaS4R2jP09neRqdQ,0.012998400000000744
wahyoo warteg bahari,0.0,0,-6.296751599999999,106.7866842,"jl. lb. bulus i no.rt.6, rt.15/rw.4, cilandak bar., kota jakarta selatan",ChIJ0a203j7xaS4RNtTQ6w2uQVM,0.021400700000005383
warteg bu nur,4.3,7,-6.3054728,106.79591409999998,"jalan pondok labu raya no.1 4 10 pondok labu kecamatan cilandak kota jakarta selatan daerah khusus ibukota jakarta, rt.1/rw.1, pd. labu, kota jakarta selatan",ChIJi6JjDCLuaS4RCt9FCSfn1Jc,0.003449599999995279
warteg iffa,4.6,18,-6.3118728,106.8130198,"jl. moh. kahfi 1 no.6, rt.2/rw.6, jagakarsa, kota jakarta selatan",ChIJjV7t2wjuaS4R3vakJG9toeE,0.020056100000005902
warteg barokah,5.0,1,-6.3111909000000015,106.7929614,"jl. h. ipin no.10, rt.7/rw.1, pd. labu, kota jakarta selatan",ChIJEbZIOz3uaS4RVxx1kwzXDB0,0.007773000000004694
warteg jaya,0.0,0,-6.3031662000000015,106.7813295,"jl. karang tengah, rt.6/rw.4, lb. bulus, kota jakarta selatan",ChIJsQ-MkCjuaS4RZ8oj9pBOIYc,0.020340800000002268
warteg sari,2.7,6,-6.311108,106.781066,"jl. karang tengah raya no.97, rt.1/rw.3, lb. bulus, kota jakarta selatan",ChIJ_XisGDDuaS4Rz-o_ldh05YA,0.01958550000000514
warteg qy,4.4,55,-6.313162999999999,106.801517,"jl. margasatwa no.75, rt.1/rw.2, pd. labu, kota jakarta selatan",ChIJo997IhHuaS4RfzkuUR6EPYw,0.009843500000003223
wahyoo warteg nurul,4.1,7,-6.3128227999999975,106.78152959999998,"jl. karang tengah raya, rt.4/rw.3, lb. bulus, kota jakarta selatan",ChIJ8c_4ZDDuaS4RftHPt7V3nQw,0.02083670000000115
warteg kharisma bahari,4.2,19,-6.313083499999999,106.8002643,"jl. margasatwa no.42, rt.10/rw.2, pd. labu, kota jakarta selatan",ChIJWS7Vd57vaS4RRfJEMM5_XSM,0.008511299999994115
warteg helmi jaya,4.1,16,-6.3169,106.811675,"# jagakarsa, jl. moh. kahfi 1 no.7, rt.1/rw.6, jagakarsa, kota jakarta selatan",ChIJYyyZeQzuaS4RMuuYfzI4nhE,0.023738499999994108
warteg family,4.9,7,-6.310898,106.7855493,"jl. karang tengah i no.24, rt.3/rw.8, lb. bulus, kota jakarta selatan",ChIJ3UUzyTruaS4Rzg-hdaClrXk,0.01489220000000113
warteg pratama 05,3.0,2,-6.313163299999999,106.7967608,"jl. pangkalan jani blok a no.3, rt.2/rw.5, pd. labu, kota jakarta selatan",ChIJNa4TqxfuaS4RbklhhFsWgQY,0.005945999999998897
warteg ojo lali cilandak,4.6,68,-6.310656400000001,106.8134351,"jl. margasatwa, rt.1/rw.6, jagakarsa, kota jakarta selatan",ChIJ73z5lQjuaS4Re-XgIblPmRM,0.01925500000000735
warteg mbak armalah,5.0,3,-6.310268499999999,106.79714140000002,"jalan i 002 no 49, gg. rw. no.1, rt.3/rw.2, pd. pinang, kota jakarta selatan",ChIJGYtjmRfuaS4RNMB6kBulHGo,0.002670599999999191
warteg mitra,4.8,5,-6.291395,106.802194,"jalan cilandak tengah iv no. 14c rt.003/001, rt.3/rw.1, cilandak bar., kota jakarta selatan",ChIJvx31k13xaS4Rm_CEsaEukh8,0.02125549999999965
warteg berkah jaya,4.0,6,-6.3048464000000015,106.7816945,"jl. karang tengah raya no.6, rt.6/rw.4, lb. bulus, kota jakarta selatan",ChIJQSoFpSjuaS4R3uPOqYmdk4c,0.018295600000000082
warteg kharisma bahari,4.3,31,-6.313765000000001,106.781774,"jl. karang tengah raya no.59, rt.8/rw.6, lb. bulus, kota jakarta selatan",ChIJzUiQhDDuaS4RqDEd_dBs0lE,0.021534500000003117
warteg sakinah,5.0,1,-6.306642,106.8140197,"jl. raya cilandak kko, rt.14/rw.5, ragunan, kota jakarta selatan",ChIJXeOV8AbuaS4RiEBZOI5Epgc,0.017834200000002017
warteg kharisma bahari,4.3,3,-6.3109718999999975,106.8134758,"jl. margasatwa bar. no.6, rt.6/rw.6, jagakarsa, kota jakarta selatan",ChIJKf6IDyjvaS4R29bnWOziC44,0.01961120000000527
warteg joko,0.0,0,-6.311706,106.7946934,"jl. margasatwa no.10, rt.4/rw.1, pd. labu, kota jakarta selatan",ChIJ67JSYT3uaS4RURp2G8LKVSo,0.006556100000000953
warteg ayu,4.5,35,-6.3108314000000005,106.7937468,"jl. rs. fatmawati raya no.41, rt.3/rw.1, pd. labu, kota jakarta selatan",ChIJFaK6UD3uaS4RbcMIiQ-DwKI,0.006628100000006576
warteg mulia murah meriah,5.0,2,-6.3116086,106.7900746,"jl. h. ipin no.23, rt.2/rw.8, pd. labu, kota jakarta selatan",ChIJ19YlwDzuaS4R659ACvbp9O4,0.011077500000003404
warteg nur,4.6,23,-6.304261599999999,106.8031542,"jl. pinang kalijati, rt.11/rw.9, pd. labu, kota jakarta selatan",ChIJZzPihxzuaS4RCJEAkDLbPR0,0.009349099999994335
warteg sami asih,4.2,6,-6.2965582,106.78866,"jl. lb. bulus i no.57, rt.6/rw.4, cilandak bar., kota jakarta selatan",ChIJyTk0yt7xaS4RiY0drl8OjpM,0.019618300000007416
warteg kharisma bahari,4.1,43,-6.3095972,106.7900097,"jl. h. ipin, rt.13/rw.1, pd. labu, kota jakarta selatan",ChIJv9zuNCPuaS4Re742xuYK1DQ,0.009131000000001777
warteg sinar bahari,0.0,0,-6.310129799999999,106.7871107,"jl. h. gandun jl. karang tengah raya no.23, rt.4/rw.8, lb. bulus, kota jakarta selatan",ChIJqUDQYr_vaS4RafqSst68A5I,0.012562599999999868
warteg resa,4.2,5,-6.307239,106.8139324,"jl. raya cilandak kko, rt.2/rw.7, ragunan, kota jakarta selatan",ChIJjWD8WAbuaS4RtyfwcnikgPM,0.017149899999997942
warteg ben wareg,3.9,7,-6.324368,106.8113475,"jl. moh. kahfi 1 no.59b, rt.1/rw.4, jagakarsa, kota jakarta selatan",ChIJ09sDP7HvaS4RTfwloMTKAy4,0.030878999999996107
warteg kharisma bahari sedia soto ayam,3.9,14,-6.3053629,106.798582,"jl. swakarya bawah no.13, rt.3/rw.9, pd. labu, kota jakarta selatan",ChIJvd_lNRnuaS4RluCLdhdhu00,0.0036755999999948936
warteg nur hikmah,5.0,1,-6.30181,106.795029,"jl. wijaya kusuma, rt.8/rw.06, pd. labu, kota jakarta selatan",ChIJ7XJbbFXvaS4R52Yy4cveS6s,0.00799750000000099
warteg citra sari,4.3,153,-6.2973101,106.8034148,"jl. cilandak permai raya, rt.6/rw.2, cilandak bar., kota jakarta selatan",ChIJm_Bx_uLxaS4RHQkTq7aFOVA,0.016561199999998166
warteg jaya abadi,5.0,1,-6.3110678,106.78659009999998,"jl. karang tengah i no.8, rt.3/rw.8, lb. bulus, kota jakarta selatan",ChIJ3X6B5RrvaS4REeHIe8OG4og,0.014021200000002844
warteg teteh,0.0,0,-6.3061573,106.8021652,"jl. pinang kalijati no.12, rt.8/rw.9, pd. labu, kota jakarta selatan",ChIJe3RDjiXvaS4RF0tOsqwu10k,0.0064644000000040345
warteg kharisma bahari,0.0,0,-6.3053762,106.7986362,"jl. swakarya bawah no.c no.13, rt.3/rw.9, pd. labu, kota jakarta selatan",ChIJX_PQ0UfvaS4R04cdglh6B7o,0.0037165000000030095
warteg timbul jaya,4.3,7,-6.296675899999999,106.8154811,"jl. raya cilandak kko, rt.1/rw.5, ragunan, kota jakarta selatan",ChIJuWquB__xaS4RYDo6gb4GQAk,0.02926169999999928
warteg bae,4.4,25,-6.3158330000000005,106.816268,"4, jl. kav. polri no.82, rt.4/rw.6, jagakarsa, kota jakarta selatan",ChIJkamVPwruaS4RzYcWLWi1RZY,0.02726449999999314
warteg kharisma bahari pd labu,1.0,1,-6.3011485,106.7946462,"jl. rs. fatmawati raya no.66, rt.8/rw.1, pd. labu, kota jakarta selatan",ChIJVSngG0LvaS4RYxv34Vtor34,0.009041799999997656
warteg langgeng,4.1,21,-6.3031215,106.7848034,"jl. gn. balong, rt.8, lb. bulus, kota jakarta selatan",ChIJAaVeUibuaS4Rde2y9g13_z8,0.01691159999999936
warteg mitra,5.0,1,-6.289324,106.80192,"jl. cilandak tengah raya, rt.2/rw.1, cilandak bar., kota jakarta selatan",ChIJpeh2ueXxaS4RcRkr1GzS7ZI,0.023052499999995042
warteg putra bahari,4.0,1,-6.2866480000000005,106.7761066,"rt.11/rw.10, pd. pinang, kota jakarta selatan",ChIJr2IRIszxaS4R9MxYT5oXRLk,0.0
warteg,4.0,6,-6.2903417999999975,106.7789122,"jl. h. ilyas no.8, rt.9/rw.7, lb. bulus, kota jakarta selatan",ChIJN51qKM7xaS4Ru9z8lvw-Tus,0.0
warteg kharisma,5.0,1,-6.294282599999999,106.7823221,"jl. h. baun no.32, rt.3/rw.1, lb. bulus, kota jakarta selatan",ChIJExeV30HxaS4R3sckrKZ1O9Q,0.0
warteg langka-langka,5.0,1,-6.2928652000000005,106.7822506,"pq4j+vw2, rt.5/rw.1, lebak bulus, south jakarta city",ChIJ-2TiF3nxaS4RXenRCufpo8c,0.0
warteg mulya bahari,0.0,0,-6.289397999999999,106.7778279,"jl. adiaksa raya no.32, rt.7/rw.7, lb. bulus, kota jakarta selatan",ChIJXYC4VEbxaS4R2QJdZPryuus,0.0
warteg kharisma,0.0,0,-6.3234607,106.8151781,"jl. durian, rt.8/rw.4, jagakarsa, kota jakarta selatan",ChIJeThsjQ3vaS4RnDZURKKg1bs,0.0
warteg bu emi,0.0,0,-6.3252728,106.8057393,"jl. manggis no.8a, rt.1/rw.1, ciganjur, kota jakarta selatan",ChIJx8kFFfXvaS4RSMSvpW_eriI,0.0
warteg bdn bahari,0.0,0,-6.3250474,106.8109797,"jl. moh. kahfi 1 blok manggis no.4g, rt.1/rw.4, jagakarsa, kota jakarta selatan",ChIJQWdI5tvvaS4RR3cMEIy4yxs,0.0
warteg putra,0.0,0,-6.324612000000001,106.81145,"gang # 2 jalan muhamad kafi 1 jagakarsa, ceremai blok cermai no.7, rt.1/rw.4, jagakarsa, dki jakarta",ChIJafA0-nPuaS4Rqv1ixxwhKwU,0.0
warteg kharisma,5.0,1,-6.3226055,106.8112879,"jl. moh. kahfi 1 no.94, rt.8/rw.4, jagakarsa, kota jakarta selatan",ChIJWci_gnPuaS4RKiG5boiFGPs,0.0
warteg rizky,5.0,3,-6.3290326,106.80546470000002,"jl. benda ujung, rt.3/rw.1, ciganjur, kota jakarta selatan",ChIJb4QL3W_uaS4Rts1Cd3o0w_s,0.0
warteg cahaya,3.3,9,-6.3189065000000015,106.8108338,"jl. moh. kahfi 1, rt.3/rw.4, jagakarsa, kota jakarta selatan",ChIJa7mLvgzuaS4RL2NJfR9V6_s,0.0
warteg hikmah,0.0,0,-6.320214599999999,106.8107235,"jl. moh. kahfi 1, rt.3/rw.4, jagakarsa, kota jakarta selatan",ChIJPZm-S3PuaS4RxXp1GC-8yro,0.0
warteg mekar sari bahari,5.0,1,-6.324570099999999,106.8114807,"jl. muhamad kafi 1 blok manggis no.4, rt.1/rw.4, jagakarsa, kota jakarta selatan",ChIJzeg3-nPuaS4REvJpT0Y-unQ,0.0
wahyoo warteg kharisma bahari,0.0,0,-6.3225352999999975,106.8111556,"jl. moh. kahfi 1 no.28-94, rt.3/rw.4, jagakarsa, kota jakarta selatan",ChIJwWJw8OfvaS4R-UPNKEK3TjE,0.0
warteg citr sari,4.4,36,-6.2948572,106.8108821,"jl. jaha no.12, rt.4/rw.1, cilandak tim., kota jakarta selatan",ChIJa26PDvzxaS4RPcEvbwGIn2o,0.0
warteg utama,4.2,82,-6.295514499999999,106.8161689,"jl. raya cilandak kko, rt.1/rw.5, ragunan, kota jakarta selatan",ChIJ4U64F__xaS4R2ativ9F8Jy8,0.0
warteg nur hikmah,4.0,1,-6.3010496000000025,106.8146093,"jl. raya cilandak kko, rt.13/rw.5, ragunan, kota jakarta selatan",ChIJO9XpswHuaS4RjQrzMM0SY5Y,0.0
warteg subsidi,5.0,1,-6.292541,106.810897,"jl. pam lama no.48, rt.2/rw.1, cilandak tim., kota jakarta selatan",ChIJD5CtJL_xaS4RaxCzYI7-O6k,0.0
warteg asli,4.4,5,-6.3012311,106.8213962,"jl. harsono rm no.4, rt.4/rw.7, ragunan, kota jakarta selatan",ChIJNQYRBf_taS4RXOd3dpbTlgk,0.0
warteg kutilang,4.0,15,-6.3017788,106.8141985,"jl. raya cilandak kko no.42, rt.1/rw.8, ragunan, kota jakarta selatan",ChIJCyDeqQHuaS4RlkDAlsYsXY4,0.0
warteg bahtiar,5.0,1,-6.3029464000000015,106.8209253,"jl. harsono rm, rt.8/rw.4, ragunan, kota jakarta selatan",ChIJd14Kzf3taS4R-QUTJX4Ohe4,0.0
warteg kali restu,4.4,18,-6.300179,106.8212584,"jl. harsono rm no.4, rt.4/rw.7, ragunan, kota jakarta selatan",ChIJGazCc__taS4RMgJi_zm4ZH4,0.0
warteg sukasari ragunan,4.5,14,-6.3032897000000006,106.8209314,"jalan harsono rm samping, gg hj.noin no.8, rt.8/rw.4, ragunan, kota jakarta selatan",ChIJI2B4jP7taS4Rw_MtxpMnvWg,0.0
warteg danti,0.0,0,-6.302419599999999,106.8144034,"jl. raya cilandak kko no.5, rt.1/rw.5, ragunan, kota jakarta selatan",ChIJh_dbBAHuaS4RMyPMT22f9bI,0.0
warteg tegal arum,4.5,31,-6.3034449,106.8466454,"5, jl. nangka raya no.6, rt.6/rw.5, tj. bar., kota jakarta selatan",ChIJj3L4B4ztaS4R3YjJzdhwTA0,0.006091099999998129
warteg jembatan,0.0,0,-6.3062733,106.8372265,"jl. baung no.25 rt 03/01, rt.1/rw.1, lenteng agung, kota jakarta selatan",ChIJF75z3mntaS4RiXahXmyzO-Y,0.013441199999998156
warteg barokah,3.8,5,-6.300972199999999,106.8495184,"jl. poltangan raya no.25, rt.4/rw.5, tj. bar., kota jakarta selatan",ChIJN8FmqIntaS4RmhUOj2TnJSM,0.005690800000005325
warteg panorama bahari,4.0,5,-6.3022196,106.8591706,"mvx5+4m7, rt.6/rw.1, gedong, east jakarta city",ChIJ2yTRTIHtaS4RlG0cuV3Iiec,0.012556600000000806
warteg barokah,4.5,8,-6.2925175000000015,106.8401126,"komplek batan, jl. raya rawa bambu no.b7, rt07/rw03, pasar minggu, rt.6/rw.6, ps. minggu, kota jakarta selatan",ChIJlUGTkLUI7S0RZ-bGjVZZA50,0.023551300000000275
warteg jaya bahari,4.7,18,-6.3033274000000015,106.8492645,"jl. poltangan raya no.60, rt.6/rw.4, tj. bar., kota jakarta selatan",ChIJcZM_AAnzaS4RO6oIxlxsFIo,0.003589499999994139
warteg tiara,0.0,0,-6.3031190000000015,106.84791570000002,"jl. nangka raya, rt.6/rw.5, tj. bar., kota jakarta selatan",ChIJR6IuUontaS4RzMZoozSopso,0.005146699999996507
warteg berkah,0.0,0,-6.295611099999999,106.8455165,"east pejaten, south jakarta city",ChIJadWIS3TyaS4RQ8fNJdwz59A,0.015053799999996897
warteg cappucino cincau,3.0,1,-6.3229397,106.830514,"jl. joe klp. tiga no.33, rt.1/rw.3, lenteng agung, kota jakarta selatan",ChIJq2dS-DPtaS4RzdsscwOisk8,0.0
warteg bunda nugi,5.0,1,-6.314345299999999,106.8381401,"jl. raya tj. barat, rt.1/rw.2, lenteng agung, kota jakarta selatan",ChIJq7b2g-vtaS4Rd7zVTXZ99oE,0.0
warteg dm 45,4.4,25,-6.3208913,106.8358179,"jl. raya lenteng agung, rt.11/rw.1, lenteng agung, kota jakarta selatan",ChIJb4kiicHtaS4ReFbrxenjSV8,0.0
warteg lagun rayana,5.0,1,-6.3239804,106.8370068,"jl. buntu no.i, rt.9/rw.2, lenteng agung, kota jakarta selatan",ChIJdYr1NcHtaS4R3FpCRmx-XzM,0.0
warteg pak de,4.8,4,-6.2900315,106.8274773,"jl. nurul iman no.101, rt.6/rw.3, jati padang, kota jakarta selatan",ChIJufApkBLzaS4R_E25Ero3ni4,0.0
warteg barokah,4.2,6,-6.2864494,106.82604340000002,"kompleks bri, jl. warung jati barat no.20, rt.6/rw.5, jati padang, kota jakarta selatan",ChIJb8u_BxvyaS4RUqurz7FUx6Q,0.0
warteg kharisma bahari kebagusan,4.3,3,-6.2976372000000005,106.8264675,"jl. kebagusan raya no.7, rt.5/rw.1, kebagusan, kota jakarta selatan",ChIJEwvIjpTzaS4RTRi0oWSVX9Y,0.0
warteg subur jaya 2,4.0,3,-6.29927,106.8364749,"jl. tlk. mandar no.25, rt.3/rw.8, ps. minggu, kota jakarta selatan",ChIJHbzN8fXtaS4RRmPOEu2Fr8Y,0.0
warteg istiqomah,0.0,0,-6.3004589000000015,106.8258892,"jl. kebagusan raya no.42, rt.1/rw.7, kebagusan, kota jakarta selatan",ChIJSbn4-_jtaS4RErFfvlzZTRE,0.0
warteg gilar gilar,5.0,1,-6.2986051,106.8400518,"komplek tni al, no. c, kota jkt sel.,, jl. raya tengah no.12, rt.4/rw.8, ps. minggu, kota jakarta selatan",ChIJM9wZXhntaS4RJJvF0-kTGEM,0.0
warteg 3m,4.2,14,-6.300946400000001,106.8320896,"jl. kebagusan i no.1, rt.2/rw.1, kebagusan, kota jakarta selatan",ChIJLax7qfftaS4R6iJZiyg2Ok4,0.0
makmur restaurant,4.4,51,-6.2871118999999975,106.825406,"jl. taman margasatwa raya no.16, rt.4/rw.11, ragunan, kota jakarta selatan",ChIJ45sNFRvyaS4ROMnssJC0o4w,0.0
warteg tiga putri,5.0,1,-6.298569899999999,106.8400877,"jalan rawa bambu kompleks tni al no. 12, rt.4/rw.8, ps. minggu, kota jakarta selatan",ChIJwVkksVftaS4RJ38NU3ki9lc,0.0
warteg gabus raya,4.9,20,-6.2991106000000014,106.8361364,"jl. gabus raya no.5, rt.5/rw.9, ps. minggu, kota jakarta selatan",ChIJM4M--vXtaS4R0Fj_tkXBVJA,0.0
warteg khalimah baru,4.0,2,-6.285267299999999,106.8261658,"jl. warung jati barat no.7, rt.3/rw.11, ragunan, kota jakarta selatan",ChIJu4i9zRvyaS4R-1xT8Fi6L9Q,0.0
warteg moro tresno,4.6,12,-6.3007599,106.8305978,"jl. kebagusan i no.17, rt.6/rw.1, kebagusan, kota jakarta selatan",ChIJm3A8mvftaS4RdUo9AfG6Ktw,0.0
warteg ayu,0.0,0,-6.300854900000001,106.8409228,"jl. tj. bar. lama no.3, rt.3/rw.4, tj. bar., kota jakarta selatan",ChIJpeV8KfXtaS4RC0mPqms3368,0.0
warteg palapa,0.0,0,-6.290949700000001,106.8417544,"jl. palapa timur xi, rt.6/rw.5, ps. minggu, kota jakarta selatan",ChIJ_0KLtEPzaS4RnGrTMo0I2No,0.0
"warteg sabrina_enak,murah,ramah",4.0,1,-6.3007271,106.8321597,"no., jl. kebagusan i no.1, rt.2/rw.1, kebagusan, kota jakarta selatan",ChIJI5YpqfftaS4Rtpw35hnrRK8,0.0
warteg raos eco,4.7,3,-6.301341000000002,106.82634,"jl. kebagusan raya no.rt.8, rt.8/rw.7, ragunan, kota jakarta selatan",ChIJD3b3-_jtaS4RPyoD2caa1Ms,0.0
warteg bahari,4.2,6,-6.2852668,106.841635,"jl. raya ragunan, rt.1/rw.2, ps. minggu, kota jakarta selatan",ChIJOfz10mzyaS4RiCu-WVPEYlk,0.0
warteg husnimubarokah,5.0,5,-6.292646899999999,106.8424568,"jl. raya tj. barat no.21-18, rt.9/rw.7, pejaten tim., kota jakarta selatan",ChIJXf-_tdPzaS4RLA3G6DtLSR8,0.0
warteg berkah 354,4.5,15,-6.2857078,106.8403001,"jl. raya ragunan, rt.9/rw.4, ps. minggu, kota jakarta selatan",ChIJizyxIBPyaS4RqWqsZLgv_Sc,0.0
warteg pakde,4.5,4,-6.285798799999999,106.8326681,"jl. sebret no.5, rt.5/rw.7, jati padang, kota jakarta selatan",ChIJwX_mARHyaS4Ra-dlOKYby4k,0.0
warteg ibu saroh,4.5,36,-6.2929705,106.8335444,"pr4m+rc7, rt.11/rw.6, jati padang, south jakarta city",ChIJU_yaxQ7yaS4RCS3YHajblLY,0.0
warteg diyanah,4.1,48,-6.295422299999999,106.8414912,"jl. poltangan raya no.6, rt.1/rw.10, pejaten tim., kota jakarta selatan",ChIJdaDQ0nTyaS4Rn0FNmWAE7NE,0.0
warteg yanti bahari,5.0,5,-6.2945212,106.83828090000002,"gg. h. umaidi no.3, rt.2/rw.7, ps. minggu, kota jakarta selatan",ChIJ92-YfHzzaS4RtsID77MIxPg,0.0
warteg bahari,4.1,22,-6.290560999999999,106.836156,"jl aup raya no.19, rt.6/rw.10, ps. minggu, kota jakarta selatan",ChIJHblQxA3yaS4Rvybbh0_ayWo,0.0
wahyoo warteg sederhana ii,0.0,0,-6.286003399999999,106.8299939,"jl. raya ragunan no.15, rt.2/rw.7, ps. minggu, kota jakarta selatan",ChIJwRa-K4zzaS4RM1ikSMd2MkI,0.0
warteg umi halal tanpa buto ijo ( warteg utama disini di kontrakan),5.0,4,-6.2910033,106.8418023,"jl. palapa xi no.1, rt.6/rw.5, ps. minggu, kota jakarta selatan",ChIJ11fNvKLzaS4R9qg8dw9_pyU,0.0
warteg moncer loro,4.5,39,-6.295261900000002,106.8420232,"jl. poltangan raya no.1, rt.2/rw.10, pejaten tim., kota jakarta selatan",ChIJHTyN4XTyaS4R_zH1dHfYa0k,0.0
warteg nusantara bahari,4.7,9,-6.2858082,106.8298345,"jl. raya ragunan no.14 c, rt.2/rw.7, jati padang, kota jakarta selatan",ChIJGRTggBDyaS4RiJXSoWYWRag,0.0
warteg ben jaya,4.3,20,-6.297173799999999,106.8402318,"komplek batan, no. 18, jl. raya rw. bambu, rt.7/rw.7, ps. minggu, kota jakarta selatan",ChIJBYrpwAryaS4RvJgYfb-2lGQ,0.0
warteg jaya bahari,0.0,0,-6.2959948,106.8432616,"jl. poltangan raya no.1 a, rt.2/rw.10, pejaten tim., kota jakarta selatan",ChIJy_N0xnvzaS4RXmfV8zt6FW0,0.0
warteg blimbing,4.4,5,-6.2890766,106.82902140000002,"pr6h+9j6, rt.7/rw.3, jati padang, south jakarta city",ChIJu92WUQXyaS4RLrjfDCodW6E,0.0
warteg salihara jaya,0.0,0,-6.2836773,106.8379738,"jl. salihara no.4, rt.1/rw.1, jati padang, kota jakarta selatan",ChIJv-WeJvrzaS4RfXSsnFri7Ow,0.0
warteg,5.0,1,-6.292024700000002,106.82883909999998,"jl. raya jatipadang, rt.6/rw.9, jati padang, kota jakarta selatan",ChIJt-IwkAXyaS4RwooxjP6ylBg,0.0
warteg mase,0.0,0,-6.291836900000002,106.8364509,"jl. aup no.2, rt.4/rw.10, ps. minggu, kota jakarta selatan",ChIJtbnq-ejzaS4RZZrhzuiakdY,0.0
wahyoo warteg sinar tegal,5.0,3,-6.285326899999999,106.839262,"jl. raya ragunan no.54, rt.12/rw.3, ps. minggu, kota jakarta selatan",ChIJCxP0GhPyaS4Rp143ya9oUdY,0.0
warteg dias berkah,5.0,4,-6.2944957000000015,106.8279519,"jl. raya jatipadang no.17, rt.6/rw.4, jati padang, south jakarta city",ChIJu4VLunPzaS4RhNVyuGE4hao,0.0
warteg saro jame,5.0,1,-6.2833741,106.8380199,"jl. salihara no.11, rt.1/rw.3, ps. minggu, kota jakarta selatan",ChIJF_zcZhTyaS4RwB4acB3ajWg,0.0
warteg sumber rejeki,5.0,1,-6.2838271999999975,106.84410459999998,"terminal pasar minggu jalan raya pasar minggu no. 30 pasar minggu, rt.4/rw.1, ps. minggu, kota jakarta selatan",ChIJb9qSYCvzaS4RiqBMRxBOCtM,0.0
sudi mampir warteg,0.0,0,-6.2981846999999975,106.8404399,"rt.7/rw.7, west tanjung, south jakarta city",ChIJg8k8pAryaS4R3qDIBEVvOp4,0.0
warteg feri,5.0,1,-6.287764999999999,106.8433384,"jl. pertanian iii, rt.1/rw.5, ps. minggu, kota jakarta selatan",ChIJp3gwZG3yaS4RESV94eNhnZw,0.0
warteg kharisi,4.4,10,-6.283484,106.8442475,"jl. raya pasar minggu no.51, rt.2/rw.1, ps. minggu, kota jakarta selatan",ChIJ1Tygh2zyaS4Ryn9K-LsJmfw,0.0
warteg sari rasa,0.0,0,-6.296073000000002,106.84402079999998,"jl. poltangan raya no.27, rt.3/rw.10, pejaten tim., kota jakarta selatan",ChIJ1zkoA3XyaS4RKakzMcb_cG4,0.0
warteg kharunia bahari,0.0,0,-6.2821151,106.838424,"1, jl. salihara no.17, rt.1/rw.10, jati padang, south jakarta city",ChIJ2_HwBCDzaS4RFFXc-0LW78s,0.0
warteg syafaat,4.6,11,-6.2838223,106.83791809999998,"jl. salihara no.2, rt.1/rw.1, jati padang, kota jakarta selatan",ChIJs9n8LbjzaS4RgoVp2Cld8v8,0.0
warteg hj. sopia,0.0,0,-6.2972981999999975,106.8401314,"pr3r+33j, rt.7/rw.7, pasar minggu, south jakarta city",ChIJcdmDvwryaS4RSpiIAKS574Q,0.0
warteg,5.0,2,-6.308921,106.84731409999998,"jl. langgar, rt.1/rw.6, tj. bar., kota jakarta selatan",ChIJU-3U-43taS4RdEk-aE_u_wA,0.029786000000001426
warteg 53,5.0,1,-6.3089986,106.8270929,"jl. kebagusan raya, rt.1/rw.6, kebagusan, kota jakarta selatan",ChIJZ3iO0_rtaS4Rd6rPh0DKzL8,0.02352160000000669
warteg ibrajaya2,5.0,2,-6.3265585,106.8524712,"mvf2+9xh, rt.3/rw.9, baru, east jakarta city",ChIJEfPk2brtaS4RRvRkV8Bclw8,0.019416599999993345
warteg slawi,5.0,1,-6.310279799999999,106.8468417,"jl. h. nawi no.27, rt.2/rw.6, tj. bar., kota jakarta selatan",ChIJpXVFJJLtaS4R35BpKRybAH8,0.027954799999994503
warteg cahaya berkah,4.2,10,-6.3125426,106.846575,"mrpw+xjp, rt.7/rw.6, west tanjung, south jakarta city",ChIJEb_9wULtaS4ROQ_2IiQYmnM,0.02542529999999754
warteg elis,4.5,39,-6.3214726999999975,106.8366229,"jl. lenteng agung raya no.33b, rt.7/rw.2, lenteng agung, kota jakarta selatan",ChIJo-iW5L7taS4RBLcsK8ImS8Q,0.006543099999991142
warteg jaya,0.0,0,-6.306342,106.8208922,"jl. saco 1 no.12, rt.6/rw.7, ragunan, kota jakarta selatan",ChIJ44joUvztaS4RTnG_i6RBO3c,0.0
warteg asli,4.4,5,-6.3012311,106.8213962,"jl. harsono rm no.4, rt.4/rw.7, ragunan, kota jakarta selatan",ChIJNQYRBf_taS4RXOd3dpbTlgk,0.0
warteg memori,0.0,0,-6.3072284000000005,106.8167173,"jl. saco ragunan, rt.10/rw.8, ragunan, kota jakarta selatan",ChIJBfKengfuaS4R3YwTd76RQgU,0.0
warteg baru,4.2,52,-6.306978,106.816714,"jl. saco ragunan no.96, rt.10/rw.8, ragunan, kota jakarta selatan",ChIJE5KA-4bvaS4RX085812pVWg,0.0
warteg sakinah,5.0,1,-6.306642,106.8140197,"jl. raya cilandak kko, rt.14/rw.5, ragunan, kota jakarta selatan",ChIJXeOV8AbuaS4RiEBZOI5Epgc,0.0
warteg bahtiar,5.0,1,-6.3029464000000015,106.8209253,"jl. harsono rm, rt.8/rw.4, ragunan, kota jakarta selatan",ChIJd14Kzf3taS4R-QUTJX4Ohe4,0.0
warteg resa,4.2,5,-6.307239,106.8139324,"jl. raya cilandak kko, rt.2/rw.7, ragunan, kota jakarta selatan",ChIJjWD8WAbuaS4RtyfwcnikgPM,0.0
warteg kutilang,4.0,15,-6.3017788,106.8141985,"jl. raya cilandak kko no.42, rt.1/rw.8, ragunan, kota jakarta selatan",ChIJCyDeqQHuaS4RlkDAlsYsXY4,0.0
warteg sukasari ragunan,4.5,14,-6.3032897000000006,106.8209314,"jalan harsono rm samping, gg hj.noin no.8, rt.8/rw.4, ragunan, kota jakarta selatan",ChIJI2B4jP7taS4Rw_MtxpMnvWg,0.0
warteg kowantara jaksel,0.0,0,-6.305208500000001,106.8191955,"08, jl. saco no.13, rt.1/rw.4, ragunan, kota jakarta selatan",ChIJQSS66f3taS4RJH1N0j_kTXc,0.0
warteg gaul (randy),0.0,0,-6.305714399999999,106.8161386,"jl. saco, rt.8/rw.8, ragunan, kota jakarta selatan",ChIJGw0vPgfuaS4RwaYcc3i1POw,0.0
warteg nur hikmah,4.0,1,-6.3010496000000025,106.8146093,"jl. raya cilandak kko, rt.13/rw.5, ragunan, kota jakarta selatan",ChIJO9XpswHuaS4RjQrzMM0SY5Y,0.0
warteg mangga,0.0,0,-6.3047979000000005,106.8207808,"ragunan, south jakarta city",ChIJpxnV0v3taS4RMhcpCpXLTFo,0.0
warteg sarini,0.0,0,-6.303285,106.820884,"jl. harsono rm no.8, rt.8/rw.4, ragunan, kota jakarta selatan",ChIJ_xE-iv7taS4RQBliWeojPLg,0.0
warteg danti,0.0,0,-6.302419599999999,106.8144034,"jl. raya cilandak kko no.5, rt.1/rw.5, ragunan, kota jakarta selatan",ChIJh_dbBAHuaS4RMyPMT22f9bI,0.0
warteg sarini,4.8,4,-6.3055045,106.8205492,"jl. harsono rm, rt.2/rw.4, ragunan, kota jakarta selatan",ChIJrcdGyv3taS4RS5LOFKDSXuE,0.0
warteg kali restu,4.4,18,-6.300179,106.8212584,"jl. harsono rm no.4, rt.4/rw.7, ragunan, kota jakarta selatan",ChIJGazCc__taS4RMgJi_zm4ZH4,0.0
warteg mamoka bahari 66,4.3,9,-6.302408199999999,106.8143828,"jl. raya cilandak kko no.5, rt.1/rw.8, ragunan, kota jakarta selatan",ChIJu-dylUvvaS4RM_28fusffmo,0.0
warteg emak,0.0,0,-6.2990248,106.8212462,"jl. harsono rm no.5, rt.5/rw.7, ragunan, kota jakarta selatan",ChIJ1US9YxjzaS4R_8hiNv0ytK8,0.0
warteg bahari sedia soto ayam,0.0,0,-6.333563799999999,106.8280882,"jl. jeruk raya no.67, rt.12/rw.1, jagakarsa, kota jakarta selatan",ChIJ14lZldHtaS4R6NMDRXaVyvE,0.0
warteg putra,0.0,0,-6.324612000000001,106.81145,"gang # 2 jalan muhamad kafi 1 jagakarsa, ceremai blok cermai no.7, rt.1/rw.4, jagakarsa, dki jakarta",ChIJafA0-nPuaS4Rqv1ixxwhKwU,0.012062599999999256
warteg,2.0,2,-6.318125999999999,106.8344545,"jl. joe no.28, rt.7/rw.8, kebagusan, kota jakarta selatan",ChIJl4t07OntaS4Ruw0ty4y32js,0.02287810000001312
warteg iffa,4.6,18,-6.3118728,106.8130198,"jl. moh. kahfi 1 no.6, rt.2/rw.6, jagakarsa, kota jakarta selatan",ChIJjV7t2wjuaS4R3vakJG9toeE,0.02323199999998771
warteg imam,5.0,2,-6.3105538,106.815925,"jl. raya cilandak kko no.28, rt.14/rw.8, ragunan, kota jakarta selatan",ChIJlVbUbgjuaS4RBAVy3n3vuKI,0.021645800000000825
warteg helmi jaya,4.1,16,-6.3169,106.811675,"# jagakarsa, jl. moh. kahfi 1 no.7, rt.1/rw.6, jagakarsa, kota jakarta selatan",ChIJYyyZeQzuaS4RMuuYfzI4nhE,0.0195495999999995
warteg ojo lali cilandak,4.6,68,-6.310656400000001,106.8134351,"jl. margasatwa, rt.1/rw.6, jagakarsa, kota jakarta selatan",ChIJ73z5lQjuaS4Re-XgIblPmRM,0.024033099999986263
warteg hikmah,0.0,0,-6.320214599999999,106.8107235,"jl. moh. kahfi 1, rt.3/rw.4, jagakarsa, kota jakarta selatan",ChIJPZm-S3PuaS4RxXp1GC-8yro,0.017186499999999327
warteg kharisma bahari,4.3,3,-6.3109718999999975,106.8134758,"jl. margasatwa bar. no.6, rt.6/rw.6, jagakarsa, kota jakarta selatan",ChIJKf6IDyjvaS4R29bnWOziC44,0.023676899999988343
warteg kharisma,5.0,1,-6.3226055,106.8112879,"jl. moh. kahfi 1 no.94, rt.8/rw.4, jagakarsa, kota jakarta selatan",ChIJWci_gnPuaS4RKiG5boiFGPs,0.014231199999997557
warteg pemalang,4.6,14,-6.3112659,106.8088413,"jl. margasatwa no.49, rt.1/rw.7, pd. labu, kota jakarta selatan",ChIJwb2SAMbvaS4RYdRGroSlcd0,0.028017399999995973
warteg berkah jaya,0.0,0,-6.3488039,106.7958235,"jl. aselih raya, rt.10/rw.1, cipedak, kota jakarta selatan",ChIJMXIKH43uaS4RcExiMWQXLgU,0.0
warteg subsidi bahari (brigif),4.5,21,-6.34417,106.801725,"jl. brigif no.15, rw.1, cipedak, kota jakarta selatan",ChIJd9qZ6SvvaS4Rb5a45_mOGik,0.0
warteg kharisma bahari,5.0,1,-6.350861099999999,106.8016661,"jl. moh. kahfi 1 no.32, rt.6/rw.1, cipedak, kota jakarta selatan",ChIJ7zWYA97vaS4RdTPmuGMTOnw,0.0
warteg bahari soto ayam,0.0,0,-6.3516654,106.8002509,"jl. aselih, rt.7/rw.1, cipedak, kota jakarta selatan",ChIJiZ0j-JHuaS4Rb3QUIvC05xg,0.0
warteg etja kallan,0.0,0,-6.3483151,106.8019046,"jl. moh. kahfi 1 no.2a, rt.5/rw.1, cipedak, kota jakarta selatan",ChIJp9PS9Y7uaS4RH3Igt1DhpsQ,0.0
warteg bahari,4.2,46,-6.304880799999999,106.8400362,"jalan raya tanjung barat, rt.10/rw.4, tj. bar., kota jakarta selatan",ChIJ6b27QfPtaS4RC8dUftNkMY0,0.0
warteg berkah,4.6,42,-6.3048426,106.8336833,"jl. baung, rt.6/rw.2, kebagusan, kota jakarta selatan",ChIJS4H_O_HtaS4R9pQfTKgRCFI,0.0
warteg berkah,0.0,0,-6.3095057999999975,106.83598870000002,"gg. langgar no.4, rt.4/rw.3, kebagusan, kota jakarta selatan",ChIJ4QfPgfDtaS4R4lMm1yCNORs,0.0
warteg mustikasari,5.0,1,-6.306267900000001,106.8305933,"jl. kebagusan raya no.9, rt.1/rw.7, ragunan, kota jakarta selatan",ChIJ4c6BvGXtaS4RJ0S5Mxp1mRU,0.0
warteg sumber rezeky,4.6,21,-6.306295099999999,106.83726090000002,"jl. baung no.25, rt.1/rw.1, agung, jagakarsa, kota jakarta selatan",ChIJc4VzS_LtaS4Rr8NjkGQp_yU,0.0
berkah cafe 24h,4.6,43,-6.3066685,106.8385407,"jl. baung no.42, rt.3/rw.1, lenteng agung, kota jakarta selatan",ChIJg2iY-8ztaS4RurLjKN5mHQk,0.0
warteg putri,3.0,1,-6.3028901999999976,106.8415205,"no. 19 c, jl. tb simatupang, rt.10/rw.4, tj. bar., kota jakarta selatan",ChIJ3xrZUYvtaS4RhQu4uT-vTnQ,0.0
warteg,4.9,13,-6.3120734,106.8387784,"jl. tj. barat selatan gg. 100, rt.1/rw.2, tj. bar., kota jakarta selatan",ChIJqTxD9-ztaS4RSYz9rBTWghI,0.0
warteg barokah,0.0,0,-6.3143061,106.8365696,"jl. raya lenteng agung no.35, rt.5/rw.1, lenteng agung, kota jakarta selatan",ChIJt3HE8H7taS4R1LZMrj2XmE0,0.0
warteg restu ibu new,5.0,4,-6.305111599999999,106.8391281,"jl. lenteng agung raya, rt.6/rw.8, ps. minggu, kota jakarta selatan",ChIJRwPKxXvtaS4RY36uKI5C0bc,0.0
warteg lumintu nikmat berkhasia,0.0,0,-6.305610700000001,106.8396168,"jl. raya tj. barat no.172b, rt.10/rw.4, tj. bar., kota jakarta selatan",ChIJEcjQFfPtaS4RAzCGVezGuY8,0.0
warteg rizky amd,0.0,0,-6.305013900000001,106.838303,"jl. amd viii no.22a, rt.10/rw.1, lenteng agung, kota jakarta selatan",ChIJ0dDBrPDtaS4Rx46rv5WO4ew,0.0
warteg kharisma bahari,0.0,0,-6.3042798,106.8397581,"jl. tj. mas utama, rt.2/rw.1, tj. bar., kota jakarta selatan",ChIJc8_FkcftaS4RntcfGsAV5Bo,0.0
warteg ikhlas,3.0,2,-6.3079158,106.8318543,"kebagusan, south jakarta city",ChIJQzjVOfDtaS4RgkpT57X9td0,0.0
warteg caca,5.0,1,-6.309647099999999,106.8307612,"jl. siman enor no.14a, rt.2/rw.5, kebagusan, kota jakarta selatan",ChIJwYra5e_taS4RXSXz5jS9xWQ,0.0
warteg sida abadi,4.4,7,-6.305454699999999,106.83969840000002,"jl. raya tj. barat no.172, rt.10/rw.4, tj. bar., kota jakarta selatan",ChIJ32tvwf7taS4R7u97nqwm42A,0.0
warteg fajar jaya,5.0,2,-6.3066765,106.8386822,"jl. baung no.30a, rt.3/rw.1, lenteng agung, kota jakarta selatan",ChIJ38cl_r3taS4ROGHU2j5cL4k,0.0
warteg nj,3.7,3,-6.304458599999999,106.844214,"jl. nangka raya no.3, rt.8/rw.5, tj. bar., kota jakarta selatan",ChIJj8IzioztaS4RsOKFJaJJI58,0.0
warteg rizki,0.0,0,-6.3053658000000015,106.8441168,"jl. langgar, rt.12/rw.8, tj. bar., kota jakarta selatan",ChIJO7Ht-YztaS4RZcW-nlSyDEk,0.0
eza warteg,0.0,0,-6.302631099999998,106.8321731,"jl. assakinah i, rt.9/rw.2, kebagusan, kota jakarta selatan",ChIJ416vGPftaS4RowIXtqwyr1s,0.0
warteg fitri,4.4,18,-6.301984,106.8412179,"jl. tj. bar. lama no.137, rt.10/rw.4, tj. bar., kota jakarta selatan",ChIJ77JlzPTtaS4RXklqFs6il7Q,0.0
warteg kowantara jaksel,3.4,9,-6.303653,106.829348,"jl. kebagusan besar no.1, rt.10/rw.7, kebagusan, kota jakarta selatan",ChIJv_QW_PntaS4ROq71uGXpDTs,0.0
warteg kharisma bahari,0.0,0,-6.3145114,106.8444396,"jl. tj. barat selatan, rt.7/rw.1, tj. bar., kota jakarta selatan",ChIJDeT7J8_taS4RGqupW_H0uKk,0.0
warteg citra brebes,0.0,0,-6.3165999999999976,106.8372513,"jl. lenteng agung raya, rt.6/rw.1, lenteng agung, kota jakarta selatan",ChIJJ5A6S-rtaS4RQi7OJaQlvZY,0.0
warteg zahirah,0.0,0,-6.3069561,106.8276711,"jl. kebagusan raya no.9, rt.9/rw.7, kebagusan, kota jakarta selatan",ChIJ4wp88OTtaS4RcZA-oqTIObg,0.0
warteg elis,0.0,0,-6.301507599999999,106.8402525,"mrxr+94r, rt.3/rw.4, west tanjung, south jakarta city",ChIJCyYV3PTtaS4RbBU7iv2VkiU,0.0
warteg patung macan,4.8,12,-6.302519599999999,106.8372788,"lenteng agung barat, rt.9/rw.1, lenteng agung, kota jakarta selatan",ChIJZcnaAf3taS4R7_ISm8N3O-M,0.0
warteg khumesah,0.0,0,-6.352363,106.8161379,"jl. srengseng sawah no.18, rt.6/rw.7, srengseng sawah, kota jakarta selatan",ChIJj-RgEp3uaS4R2bhDR5Se3mI,0.02154690000000325
warteg citra bahari,4.6,5,-6.3478137000000014,106.8024005,"jl. moh. kahfi 1, rt.4/rw.4, cipedak, kota jakarta selatan",ChIJtZWn-o7uaS4RWlkefebI9QA,0.016436199999993132
warteg yuli,0.0,0,-6.3268871,106.8217501,"jl. raya jagakarsa, rt.2/rw.7, jagakarsa, kota jakarta selatan",ChIJ967mDtntaS4RxrJZrLkqIao,0.0
warteg kharisma bahari,4.0,1,-6.3127621,106.8255565,"jl. kebagusan raya, rt.10/rw.7, ragunan, kota jakarta selatan",ChIJLef7Q-TtaS4Rh-pBwSfJTos,0.0
warteg pak yanto,5.0,1,-6.3219828,106.831567,"jl. joe klp. tiga no.12, rt.1/rw.3, jagakarsa, kota jakarta selatan",ChIJPXXIHcPtaS4R_u_v2KlMK1Y,0.0
warteg berkah mulya,0.0,0,-6.324628700000001,106.8299584,"jl. joe klp. tiga, rt.5/rw.3, lenteng agung, kota jakarta selatan",ChIJK5kyqsTtaS4RgrPhY_LyJzs,0.0
warteg bahari,1.0,1,-6.3208183,106.8323699,"gg. lahab, rt.1/rw.6, lenteng agung, kota jakarta selatan",ChIJKS8x9MLtaS4Ri-PtIW8I-IA,0.0
warteg kemunink,0.0,0,-6.3133447,106.8256078,"mrpg+m69, rt.10/rw.7, ragunan, south jakarta city",ChIJ7YYik1ztaS4RsRXnN4jaq4Q,0.0
warteg dani,5.0,1,-6.3230673,106.8304697,"jl. joe klp. tiga no.33, rt.1/rw.3, lenteng agung, kota jakarta selatan",ChIJW4duL0XtaS4RG3awtH5cJfo,0.0
warteg slamet,5.0,1,-6.3133537,106.8256074,"jl. kebagusan raya no.2, rt.10/rw.7, kebagusan, kota jakarta selatan",ChIJ6ZxJOeTtaS4R_jgtdyyZ1Ng,0.0
warteg pak harso,4.0,2,-6.3291602,106.8249251,"jl. raya jagakarsa no.18, rt.9/rw.7, jagakarsa, kota jakarta selatan",ChIJ5X7tDdrtaS4Rj1iuheuK1NY,0.0
warteg,0.0,0,-6.3229453,106.8212563,"jl. maninjo no.1, rt.1/rw.5, jagakarsa, kota jakarta selatan",ChIJVZrs5N7taS4RQaK0-Nt1plg,0.0
warteg bahari,4.6,12,-6.3174566,106.8190233,"jl. pepaya raya no.1a, rt.7/rw.5, jagakarsa, kota jakarta selatan",ChIJkSYZNODtaS4R_MdLHjzN4Vk,0.0
warteg jaya,4.4,8,-6.3216214000000015,106.8254975,"jl. h.mursid no.99, rt.4/rw.3, jagakarsa, kota jakarta selatan",ChIJITDdtt3taS4RMlPKgRBYOnU,0.0
warteg indah,0.0,0,-6.3209838,106.8254478,"jl. wates, rt.11/rw.5, jagakarsa, kota jakarta selatan",ChIJS5nDvt3taS4RwSqZ6iAIzvk,0.0
warteg latanza,4.3,6,-6.3266287000000005,106.8198726,"jl. raya jagakarsa, rt.5/rw.2, jagakarsa, kota jakarta selatan",ChIJuZ6079jtaS4RQwWxzMNeLJE,0.0
wahyoo warteg redja,4.0,1,-6.318252999999999,106.81891740000002,"jl. pepaya raya no.46, rt.7/rw.5, jagakarsa, kota jakarta selatan",ChIJhycvPODtaS4RBqlNpkK5s8Y,0.0
wahyoo warteg barokah,3.7,7,-6.326772900000001,106.8218971,"jl. raya jagakarsa no.54, rt.2/rw.7, jagakarsa, kota jakarta selatan",ChIJ_6MbDtntaS4R9ijNfzhAmAY,0.0
warteg sukasari,4.1,7,-6.320983399999999,106.825448,"jl. kebagusan raya no.5, rt.4/rw.4, kebagusan, kota jakarta selatan",ChIJeZv7vt3taS4RpP1AVjRu1L0,0.0
warteg caca,4.0,1,-6.3228193,106.8270732,"jl. klp. 3 no.49, rt.3/rw.3, jagakarsa, kota jakarta selatan",ChIJJcWm5dztaS4RcQXs4_AUoFY,0.0
warteg linda,3.3,3,-6.327385,106.82390890000002,"jl. raya jagakarsa, rt.9/rw.7, jagakarsa, kota jakarta selatan",ChIJrQb_KtrtaS4RYSsgr1nXGNw,0.0
warteg bungkoos,0.0,0,-6.319567,106.8208398,"jl. pepaya raya no.110, rt.5/rw.5, jagakarsa, kota jakarta selatan",ChIJs1YxVmvtaS4RTWUh_h54iDE,0.0
warteg enak,0.0,0,-6.315056999999999,106.8153053,"mrm8+x4f, rt.4/rw.6, jagakarsa, south jakarta city",ChIJ74zNzPLvaS4R7R3p4pxrxPk,0.0
dian jaya warteg,0.0,0,-6.3234935,106.8193304,"jl. pepaya raya, rt.3/rw.5, jagakarsa, kota jakarta selatan",ChIJ6ThMFd_taS4RM9ZrlMpzQB4,0.0
wahyoo warteg jagakarsa,0.0,0,-6.326496700000001,106.82037549999998,"jl. raya jagakarsa no.21, rt.2/rw.2, jagakarsa, kota jakarta selatan",ChIJ0fhlR7ftaS4Rkj4g-amz0vQ,0.0
warteg pak de,4.3,4,-6.317421299999999,106.81607959999998,"depan puri paso jl. paso, rt.5/rw.4, jagakarsa, kota jakarta selatan",ChIJOfDfgB_vaS4R-LINdeAQD6U,0.0
warteg rizquna bahari,4.6,83,-6.3275545,106.8293795,"jl. joe klp. tiga no.3, rt.6/rw.3, lenteng agung, kota jakarta selatan",ChIJs2OpeobtaS4RsHDnqShY7r4,0.0
warteg kharisma,0.0,0,-6.3234607,106.8151781,"jl. durian, rt.8/rw.4, jagakarsa, kota jakarta selatan",ChIJeThsjQ3vaS4RnDZURKKg1bs,0.0
warteg bae,4.4,25,-6.3158330000000005,106.816268,"4, jl. kav. polri no.82, rt.4/rw.6, jagakarsa, kota jakarta selatan",ChIJkamVPwruaS4RzYcWLWi1RZY,0.0
warteg oho ayu,5.0,3,-6.3296142,106.823484,"jakarta selatan, rt.9/rw.7, jagakarsa, kota jakarta selatan",ChIJX6wUU__taS4REBBvDTnxZF8,0.0
warteg oho,5.0,3,-6.3295542000000005,106.8234021,"jl. kramat, rt09rw.07, rt.1/rw.7, jagakarsa, kota jakarta selatan",ChIJ5T0KEi_taS4RjAzs5WhQ0Fc,0.0
warteg caca,4.2,5,-6.316282999999999,106.8274452,"jl. kebagusan iv no.20, rt.5/rw.4, kebagusan, kota jakarta selatan",ChIJ8ZvjT-btaS4RGwlr22A8qto,0.0
warteg berkah,4.6,7,-6.3154002,106.8252704,"jl. kebagusan raya no.104a, rt.2/rw.4, kebagusan, kota jakarta selatan",ChIJbzgE6ubtaS4R2JXQt6ADxG0,0.0
warteg galih,5.0,3,-6.316114499999999,106.8286918,"rt.10/rw.4, kebagusan, south jakarta city",ChIJu-PkGfjtaS4Rhc-GBnfLK3M,0.0
warteg anugrah jaya,4.3,10,-6.3268575,106.828703,"jl. klp. hijau no.48a, rt.5/rw.3, jagakarsa, kota jakarta selatan",ChIJAdyQJ9vtaS4RjbTBwYirZ8Q,0.0
warteg danu,0.0,0,-6.345059,106.83215,"jalan srengseng sawah, srengseng sawah, jagakarsa, rt.5/rw.3, srengseng sawah, rt.5/rw.3, srengseng sawah, kota jakarta selatan",ChIJQeW28M7taS4RGrZWXnvO0QQ,0.0
warteg kharisma bahari,4.2,212,-6.341190999999999,106.8275371,"warteg kharisma bahari, jalan desa putra no 35a rt12/rw05, jl. desa putra no.35 a, rt.12/rw.5, srengseng sawah, kota jakarta selatan",ChIJ8X83PC3saS4RVe2yctRPCYY,0.007275899999998003
warteg iqbal,4.7,3,-6.3449008000000005,106.8288328,"jl. srengseng sawah, rt.5/rw.12, srengseng sawah, kota jakarta selatan",ChIJyzfH4i3saS4R1Zaf-jM62Ts,0.004861799999997807
warteg putra,0.0,0,-6.3377268,106.8291871,"jl. desa putra, rt.7/rw.5, srengseng sawah, kota jakarta selatan",ChIJgVZohNLtaS4RGhf3GbYuMRk,0.01239009999999485
warteg r,5.0,2,-6.3552478999999975,106.8348365,"jl. komjen.pol.m.jasin, rt.2/rw.1, srengseng sawah, kota jakarta selatan",ChIJ_3ojBjzsaS4RxguoQwVX3r8,0.015779999999990583
warteg yanti,0.0,0,-6.340872099999999,106.8275979,"jl. desa putra, rt.7/rw.5, srengseng sawah, kota jakarta selatan",ChIJIzWAPC3saS4RQ8BnOPx-gCU,0.0076555999999987625
warteg berkah,4.3,30,-6.3451949,106.8275808,"jl. srengseng sawah no.93, rt.14/rw.3, srengseng sawah, kota jakarta selatan",ChIJYXwYjjHsaS4Rhhf3v8dK0Hk,0.0033157000000034733
warteg julay,5.0,1,-6.3460160000000005,106.826898,"mr3g+hqr, rt.2/rw.15, srengseng sawah, south jakarta city",ChIJGcN9YS7saS4RqzX_69zLJ90,0.001811799999996921
warteg kharisma,4.0,7,-6.341099,106.827605,"jalan desa putra, jalan desa putra raya no 35a, rw.06 rt.12, jagakarsa, srengseng sawah, rt.7/rw.5, srengseng sawah, kota jakarta selatan",ChIJ2UczdIruaS4Rb5QyH0Rb19I,0.007435800000002323
warteg sidomulyo,5.0,5,-6.3354599999999985,106.828119,"jalan m kahfi ii rt 08 rw 01 jagakarsa, jakarta selatan, rt.8/rw.1, jagakarsa, kota jakarta selatan",ChIJu7hwPdLtaS4RUDDdzO3LO4s,0.013588799999997292
warteg,0.0,0,-6.3297444,106.8260916,"mrcg+4c4, rt.8/rw.3, jagakarsa, south jakarta city",ChIJFyd7njrtaS4RaHqA8QE9bqE,0.018468400000005047
warteg family@2,0.0,0,-6.3335589999999975,106.8280761,"jl. jeruk raya no.67, rt.12/rw.1, jagakarsa, kota jakarta selatan",ChIJfwBDldHtaS4RmPgWzmFJ0sU,0.015446900000001484
warteg pemalang,5.0,2,-6.3299938,106.8235556,"jl. raya jagakarsa no.3, rt.9/rw.7, jagakarsa, kota jakarta selatan",ChIJ0bCnb1_taS4RMpnFnvbIQ9M,0.02075499999999764
warteg novita,4.6,11,-6.3450656,106.8320528,"jl. srengseng sawah, rt.5/rw.3, srengseng sawah, kota jakarta selatan",ChIJoW75hjHsaS4R670CRheJZsU,0.0079169999999964
warteg prima rasa,4.2,19,-6.3364845,106.830584,"jalan desa putra rt 002 rw 017 srengseng sawah jagakarsa, rt.6/rw.5, srengseng sawah, kota jakarta selatan",ChIJpfLakc3taS4RHvhdBEFViuc,0.01502929999999836
warteg hidayah bahari,5.0,18,-6.345560400000001,106.8271068,"jl. srengseng sawah no.36 a, rt.5/rw.6, srengseng sawah, kota jakarta selatan",ChIJiXy9ABvtaS4RDVnxBTkAHZU,0.002476199999992268
warteg kowantara jaksel,2.5,4,-6.3417539000000005,106.8334198,"jl. lenteng agung raya, rt.1/rw.3, srengseng sawah, kota jakarta selatan",ChIJWU29DzPsaS4R5nILvYRJp-s,0.012595699999998544
wahyoo warteg auliya,0.0,0,-6.3441394,106.8330032,"jl. lenteng agung raya no.3, rt.1/rw.3, srengseng sawah, kota jakarta selatan",ChIJraHqSjPtaS4Ri_ZVFCy1qpA,0.009793599999989407
warteg bahari,0.0,0,-6.337078099999999,106.8345282,"jl. lenteng agung raya, rt.4/rw.3, srengseng sawah, kota jakarta selatan",ChIJzc4VYsztaS4RLs00c7w4Ojg,0.0
warteg bahari,5.0,1,-6.3311775,106.8393482,"jl. agung raya ii, rt.8/rw.7, lenteng agung, kota jakarta selatan",ChIJuW9kRcjtaS4RLkPHh5pM2hY,0.0
warteg mbak cantik,5.0,4,-6.335045,106.8349633,"jl. lenteng agung raya no.24a, rt.4/rw.4, srengseng sawah, kota jakarta selatan",ChIJM8v1bo3taS4RGqe6dbuRH0M,0.0
warteg putri jaya,5.0,2,-6.3315537000000015,106.8363487,"jl. agung raya ii, rt.1/rw.7, lenteng agung, kota jakarta selatan",ChIJx2sU2sjtaS4RR3KYHqbykeg,0.0
warteg nisa,3.5,11,-6.3287511,106.8334474,"jalan raya lenteng agung jagakarsa, rt.4/rw.5, lenteng agung, kota jakarta selatan",ChIJHzmIkMXtaS4R8eSFiuiUNXs,0.0
warteg berkah bahari,5.0,1,-6.3319271,106.8347245,"jl. moch. kahfi ii no.23, rt.1/rw.1, jagakarsa, kota jakarta selatan",ChIJN0xuou7taS4RC9sDwuihC3k,0.0
ojolali warteg abadi,4.4,14,-6.3328162999999975,106.8338219,"jalan moh kahfi 2, rt.1/rw.5, srengseng sawah, kota jakarta selatan",ChIJXS-F687taS4R7COhdUc0NIo,0.0
warteg dian jaya,5.0,1,-6.3375559,106.8359238,"jl. camat gabun, rt.3/rw.8, lenteng agung, kota jakarta selatan",ChIJmUF_e8vtaS4RoY3KjLfrRwo,0.0
warteg kowantara jaksel,4.5,2,-6.333342099999999,106.8338028,"jl. rm. mo khafi ii no.1, rt.1/rw.5, srengseng sawah, kota jakarta selatan",ChIJbeUZv87taS4R86hNZ70iVdc,0.0
warteg kharisma bahari,0.0,0,-6.330429899999999,106.8352798,"jl. raya lenteng agung no.25, rt.1/rw.4, lenteng agung, kota jakarta selatan",ChIJeQaTS8_taS4R1xWerLNKgE0,0.0
warteg manja,4.3,27,-6.325457599999999,106.83420490000002,"jl. raya lenteng agung, rt.3/rw.3, lenteng agung, kota jakarta selatan",ChIJ1b4CFcTtaS4RPvs-5jDG7Wg,0.0
warteg sami asih,4.2,56,-6.3235961,106.8353888,"jl. lenteng agung, rt.10/rw.2, lenteng agung, kota jakarta selatan",ChIJqX7b4sPtaS4R_Y9DGfEsf8Y,0.0
warteg bude 2,0.0,0,-6.3250085,106.838569,"jl. lontar, rt.10/rw.3, lenteng agung, kota jakarta selatan",ChIJ73Z8J8ftaS4Rgetez1IrSb4,0.0
warteg dinda,0.0,0,-6.3311885000000006,106.834549,"jagakarsa, south jakarta city",ChIJW9emO8_taS4RyVeJoL68oJ4,0.0
mini warteg,4.3,3,-6.323072,106.8372107,"jl. langga raya no.9, rt.9/rw.2, lenteng agung, kota jakarta selatan",ChIJlZpNPsHtaS4ROHt2_khtrUQ,0.0
warteg kompos,4.6,47,-6.3392513,106.8356531,"jl. raya lenteng agung jl. kompos no.#62, rt.11/rw.8, lenteng agung, dki jakarta",ChIJfQ3WqcztaS4RtcJBhTIEF10,0.0
warteg bahari asih,5.0,1,-6.3380287000000015,106.8348135,"jl. raya lenteng agung no.77, rt.11/rw.8, lenteng agung, kota jakarta selatan",ChIJw-Yh24ftaS4RCxi9bA6YNlA,0.0
dapur warteg masakan khas tegal,0.0,0,-6.3304183,106.8160371,"jl. gandaria raya, rt.10/rw.2, jagakarsa, kota jakarta selatan",ChIJ7xfwI3juaS4Rx1M2H9fvO8M,0.0
warteg rizky,5.0,3,-6.3290326,106.80546470000002,"jl. benda ujung, rt.3/rw.1, ciganjur, kota jakarta selatan",ChIJb4QL3W_uaS4Rts1Cd3o0w_s,0.0
warteg zubair,0.0,0,-6.3574629000000025,106.8101542,"jl. srengseng sawah no.22, rt.9/rw.9, srengseng sawah, kota jakarta selatan",ChIJ-YymFpnuaS4RNMy0EViqOHM,0.0
warteg ani jaya,0.0,0,-6.3551137,106.8102212,"jl. moch. kahfi ii, rt.5/rw.3, cipedak, kota jakarta selatan",ChIJGf4Ww5vuaS4Ra94xTpCfSQg,0.0
warteg kuning,5.0,2,-6.3557840999999975,106.8134912,"jl. srengseng sawah no.3, rt.10/rw.9, srengseng sawah, kota jakarta selatan",ChIJbdD2MGjvaS4Ry8Kry87CrRE,0.0
warteg parin jaya,5.0,1,-6.3520996,106.8110548,"jl. timbul no.28, rt.5/rw.3, cipedak, kota jakarta selatan",ChIJCVZPaJvuaS4RvQc8kA5ZIC4,0.0
warteg kuning (belakang kampus istn),5.0,8,-6.3556871,106.8134197,"jl. srengseng sawah no.3, rt.1/rw.9, srengseng sawah, kota jakarta selatan",ChIJt5gJLHbvaS4R2arFvq3TndA,0.0
warteg mas jenggot,4.5,6,-6.352056399999999,106.8109835,"jl. timbul no.28, rt.1/rw.3, cipedak, kota jakarta selatan",ChIJGb9WtpDvaS4RhMUDhgKmes4,0.0
warteg bahari,5.0,2,-6.354697499999999,106.8072112,"jl. timbul iv, rt.8/rw.6, cipedak, kota jakarta selatan",ChIJi8-wFJruaS4RIvu46uw6rNQ,0.008553900000003445
warteg jaya bahari,4.6,5,-6.3571087,106.8125558,"jl. srengseng sawah, rt.10/rw.6, srengseng sawah, kota jakarta selatan",ChIJHVw5yJ7uaS4R3ooxs9ywYoY,0.013345100000004884
warteg al kafi,4.0,1,-6.352709,106.801205,"m jagakarsa, jl. moh. kahfi 1, rt.7/rw.1, cipedak, dki jakarta",ChIJzTJq3F_uaS4RsBxNsp5y-Do,0.004536200000001322
warteg ayamul,5.0,3,-6.3597214000000015,106.8008061,"jalan mohammad kahfi 1, gg. jambu no.2, rt.3/rw.2, cipedak, dki jakarta",ChIJ10YjbpbuaS4RFnSLViHKdKY,0.004208100000009374
warteg barokah,4.0,1,-6.362977,106.801922,"jalan antariksa cipedak jagakarsa, rt.6/rw.2, cipedak, dki jakarta",ChIJtxdxub3uaS4RxFTOF9uluL0,0.00857960000001068
warteg family,4.5,2,-6.3532505,106.8151128,"jl. srengseng sawah, rt.11/rw.9, srengseng sawah, kota jakarta selatan",ChIJDzZQqp3uaS4RJ5qH5WrhAUs,0.017902499999999932
warteg slawi ayu,4.9,10,-6.356305499999999,106.8128188,"jl. srengseng sawah no.39, rt.2/rw.9, srengseng sawah, kota jakarta selatan",ChIJrbwTwzzvaS4RGZZRaxZ7mEc,0.012804900000007002
warteg aru,0.0,0,-6.352363,106.8161379,"jl. srengseng sawah no.18, rt.6/rw.7, srengseng sawah, kota jakarta selatan",ChIJGZinE53uaS4R-CfEcHFzPMU,0.01981510000000597
warteg siplah,4.5,27,-6.354629099999999,106.8142165,"jl. srengseng sawah no.90, rt.11/rw.9, srengseng sawah, kota jakarta selatan",ChIJk-FxN5zuaS4RMCXJR63ejDA,0.01562760000000729
warteg hidayah,0.0,0,-6.360634999999999,106.807505,"jl. moch. kahfi ii no.46b, rt.5/rw.9, srengseng sawah, kota jakarta selatan",ChIJEZLIEITvaS4R4hM5mnAbO-4,0.011820600000011616
warteg restu,0.0,0,-6.3513085,106.7978372,"jl. aselih no.14b, rt.9/rw.1, cipedak, kota jakarta selatan",ChIJNQK2eZLuaS4RttPSfhgXmLc,0.007173699999990291
warteg nur. risma,4.0,1,-6.3555058,106.8136301,"jl. srengseng sawah no.3, rt.10/rw.9, srengseng sawah, kota jakarta selatan",ChIJp0kMIZzuaS4RlipfbTCJWlE,0.014164500000002356
warteg mulia,0.0,0,-6.350283900000001,106.80404409999998,"jrx3+vjm, rt.7/rw.4, cipedak, south jakarta city",ChIJSR_TxI_uaS4RdrJuFxWH9Rs,0.009800400000004041
warteg murah,0.0,0,-6.362028,106.8070559,"jl. moh. kafi ii no.9, rt.7/rw.3, cipedak, south jakarta city",ChIJwxHgu6LuaS4ROyWfOPl96PM,0.012764500000000293
warteg kharisma,0.0,0,-6.3614182,106.8071985,"jl. moch. kahfi ii no.42, rt.7/rw.3, cipedak, kota jakarta selatan",ChIJxxvlo6LuaS4RR-XrqU3xpLI,0.012297300000004618
warteg barki,4.0,9,-6.3633636,106.8061298,"jalan mohammad kafi i no.27, rt.7/rw.3, cipedak, kota jakarta selatan",ChIJm2oVlULtaS4RCjifOaIDvjo,0.013173999999999351
warteg dinda berhias,4.5,20,-6.358226600000001,106.8121072,"jl. srengseng sawah no.50, rt.8/rw.9, srengseng sawah, kota jakarta selatan",ChIJuZMI1Z7uaS4RebW3WjlExhw,0.014014400000006866
warteg ibu laundry,0.0,0,-6.363195699999999,106.807026,"jl. moch. kahfi ii no.24, rt.2/5, rt.7/rw.3, cipedak, kota jakarta selatan",ChIJ2XnpM-3vaS4Raxg5ty7Kki8,0.013902299999998036
warteg ibu roso,0.0,0,-6.3453433000000015,106.8260761,"jl. srengseng sawah, rt.5/rw.6, srengseng sawah, kota jakarta selatan",ChIJp_Vugy7saS4RnuazhSFMx0k,0.0
warteg zahirah,4.8,11,-6.3353233,106.8242948,"jl. sirsak, rt.9/rw.1, jagakarsa, kota jakarta selatan",ChIJ9Tpr-tPtaS4R73_9rM2mryE,0.0
warteg bude,5.0,1,-6.3510366,106.8090699,"jl. timbul no.32 c, rt.6/rw.5, cipedak, kota jakarta selatan",ChIJEVcrr77vaS4RC5wEXqjsYCk,0.0
warteg permata bahari,5.0,3,-6.3515496,106.8119013,"jl. moch. kahfi ii, rt.5/rw.5, cipedak, kota jakarta selatan",ChIJGR6hWJvuaS4Rhu2g9bTCKCE,0.0
warteg sederhana,3.0,1,-6.348504399999999,106.8132192,"jl. moch. kahfi ii, rt.3/rw.5, cipedak, kota jakarta selatan",ChIJVXEDQSrvaS4RTlWC4v76vTo,0.0
warteg rizki,0.0,0,-6.3496367,106.81418700000002,"jl. batu, rt.1/rw.8, srengseng sawah, kota jakarta selatan",ChIJ8TaoJIPuaS4RNVKcGPb6xPE,0.0
warteg indah,0.0,0,-6.3482954000000005,106.8202187,"jl. srengseng sawah no.81, rt.2/rw.7, srengseng sawah, kota jakarta selatan",ChIJC4dZUCjsaS4RTu-CK60jj50,0.0
warteg 05 senayan,4.9,8,-6.338871,106.822002,"jl. moch. kahfi ii no.14d, rt.1/rw.4, ciganjur, kota jakarta selatan",ChIJXwaZBMbvaS4RLekgy4EFnIs,0.0
warteg 24jam,0.0,0,-6.3475722,106.8097109,"jl. persahabatan no.1, rt.1/rw.4, cipedak, kota jakarta selatan",ChIJy_RnZGbvaS4R9jZKDADUtGA,0.0
warteg asih,0.0,0,-6.3367945,106.8249017,"jl. moh. kahfi 1 no.9, rt.9/rw.1, jagakarsa, kota jakarta selatan",ChIJy-7eltPtaS4RK2Ehj-v20R8,0.0
warteg berkah,5.0,1,-6.348489,106.8092822,"jl. persahabatan jl. al hidayah no.depan, rt.7/rw.4, cipedak, kota jakarta selatan",ChIJrTtBkz_vaS4RM_q9e0hsxFo,0.0
warteg kharisma 99,3.7,15,-6.346443,106.8256229,"rt006/rw006, rt.7/rw.6, srengseng sawah, kota jakarta selatan",ChIJH5b27C7saS4R7d3H9bIUC7I,0.0
warteg barokah mandiri,4.6,18,-6.3514422,106.8139699,"jl. batu, rt.1/rw.8, srengseng sawah, kota jakarta selatan",ChIJoXtYxJzuaS4R0juUMHM40AM,0.0
warteg karisma,4.0,1,-6.351616,106.819756,"jl. srengseng sawah no.27, rt.5/rw.7, srengseng sawah, kota jakarta selatan",ChIJs3nHkCfsaS4Rr9tikbRKDn4,0.0
warteg fitri jagakarsa,0.0,0,-6.3347861,106.8244909,"jl. belimbing no.10, rt.10/rw.1, jagakarsa, kota jakarta selatan",ChIJTZcmWNHtaS4R3JEzgsjE6s4,0.0
warteg mulia soto ayam,0.0,0,-6.346449400000001,106.8257512,"jl. srengseng sawah, rt.6/rw.6, srengseng sawah, kota jakarta selatan",ChIJW4Pg7C7saS4RUdKsxMg0Fn4,0.0
warteg mpo nimah,0.0,0,-6.3360597,106.8256292,"jl. sirsak no.11-10, rt.9/rw.1, jagakarsa, kota jakarta selatan",ChIJi4oBT6PtaS4RQOEvoZyjeVM,0.0
warteg mulia,4.5,2,-6.3409941,106.8196995,"jalan mohammad kafi ii no.3, rt.1/rw.4, ciganjur, kota jakarta selatan",ChIJBUEpxCrsaS4RWbpsS16exdU,0.0
warteg nongkrong m3style,4.0,2,-6.339589599999999,106.8209531,"jl. moch. kahfi ii no.2, rt.5/rw.4, ciganjur, kota jakarta selatan",ChIJG0eg19TtaS4RwPv_ZSc-LsE,0.0
warteg 03 sumber berkah,5.0,2,-6.3396184,106.8209255,"jl. moch. kahfi ii no.2, rt.2/rw.4, ciganjur, kota jakarta selatan",ChIJz5o5v4_taS4RFCf0IPH7RqY,0.0
warteg imam s jaya,4.0,2,-6.3344385,106.8212458,"jl. sirsak no.2, rt.5/rw.7, jagakarsa, kota jakarta selatan",ChIJTa_qhdbtaS4Rd8XGzbojItI,0.0
warteg mulya bahari,5.0,1,-6.3312532,106.8207416,"mr9c+f7x, rt.4/rw.7, jagakarsa, south jakarta city",ChIJ57Xu8iDtaS4RlY5a8H0e0UQ,0.0
warteg lestari,4.0,4,-6.3439587,106.8124173,"jl. wr. sila no.18, rt.1/rw.5, ciganjur, kota jakarta selatan",ChIJ0x-3NoHuaS4RQoCQAgYvm5Y,0.0
warteg barokah,5.0,1,-6.3409594,106.8045262,"jl. moh. kafi 1, rt.8/rw.6, ciganjur, kota jakarta selatan",ChIJS-_6IYjuaS4RCWnFbM2Q_oo,0.0
warteg kharisma,0.0,0,-6.3449269,106.8143465,"jl. wr. sila no.3, rt.2/rw.5, cipedak, kota jakarta selatan",ChIJa32xcYHuaS4R6ptFVCERfUE,0.0
warteg permata,4.6,9,-6.3443801,106.8123741,"jl. wr. sila no.45, rt.8/rw.5, cipedak, kota jakarta selatan",ChIJiSWaSYHuaS4RLPo-axRVSsE,0.0
warteg iklas bahari,0.0,0,-6.3429015,106.8042627,"jalan mohammad kafi 1, rt.10/rw.6, ciganjur, kota jakarta selatan",ChIJv_gbXIjuaS4RyUD-32Qqfo4,0.0
warteg sumber bawang,4.4,206,-6.344439599999999,106.8040378,"jl. moh. kahfi 1, rt.1/rw.1, ciganjur, kota jakarta selatan",ChIJhz55wojuaS4R-KaNc47K20M,0.0
warteg berkah jaya,4.4,21,-6.345132,106.8093445,"jl. wr. sila no.18, rt.2/rw.4, ciganjur, kota jakarta selatan",ChIJZ1Lqh4buaS4Rw8fk46VIZuA,0.0
podomoro warteg,0.0,0,-6.339612499999999,106.8133452,"jl. sadar raya no.46, rt.3/rw.4, ciganjur, kota jakarta selatan",ChIJJSzPF37uaS4RsLVYKFezhpw,0.0
warteg hidayah,0.0,0,-6.3432027,106.8175803,"jl. moch. kahfi ii, rt.5/rw.4, srengseng sawah, kota jakarta selatan",ChIJDZmy0YHuaS4RF24q6ceBQi4,0.0
warteg ibu ii,5.0,1,-6.3387432,106.8100366,"jl. anda no.40, rt.7/rw.3, ciganjur, kota jakarta selatan",ChIJ1U0uun3uaS4R6jiVvN2PrkQ,0.0
warteg mbak atun,3.0,2,-6.3448097999999975,106.8051393,"jl. wr. sila no.8, rt.3/rw.4, cipedak, kota jakarta selatan",ChIJJTyUu4juaS4Rv8XPZx72rIo,0.0
warteg jejeg,4.5,12,-6.345092500000002,106.803771,"jl. moh. kahfi 1 no.49, rt.1/rw.1, cipedak, kota jakarta selatan",ChIJIyxG0IjuaS4RYHrrI_r0RgE,0.0
padang & warteg 10.000 restu jaya,5.0,1,-6.3359603,106.8133396,"jl. gandaria ujung, rt.2/rw.4, ciganjur, kota jakarta selatan",ChIJAaQWuH7uaS4RIjxgZ3jY4pg,0.0
warteg slawi ayu,0.0,0,-6.335947000000001,106.8060299,"jl. moh. kahfi 1 no.24, rt.8/rw.1, ciganjur, kota jakarta selatan",ChIJXU8EqXzuaS4REe3G5liZP3k,0.0
warteg el ghani,0.0,0,-6.340927499999999,106.8046004,"jl. moh. kahfi 1 no.3, rt.8/rw.6, ciganjur, kota jakarta selatan",ChIJEwn1F4juaS4RHTnTwioaHcA,0.0
warteg kharisma bahari khafi1,5.0,1,-6.3332808,106.8072633,"jl.moh.khafi1 rt08/01 no 20, rt.7/rw.1, ciganjur, kota jakarta selatan",ChIJf4aqnpXvaS4RwmLxAGVxnuQ,0.0
warteg novi,5.0,1,-6.346052500000001,106.8148818,"mr37+hxc, rt.3/rw.8, srengseng sawah, south jakarta city",ChIJh_OxCZvvaS4RQwccP6zU804,0.0
warteg nampol,5.0,1,-6.3449675,106.815473,"blok h turini, jl. wr. sila blok h turini no.6, rt.2/rw.5, ciganjur, kota jakarta selatan",ChIJMdWohYHuaS4RYEOEDokoX3U,0.0
warteg kharisma bahari,4.3,8,-6.3454731,106.8097982,"jl. wr. sila no.80, rt.11/rw.4, cipedak, kota jakarta selatan",ChIJ90chnYbuaS4Rzqstt0ktS28,0.0
wkb warteg kharisma bahari jagakarsa kahfi 2,5.0,7,-6.3432224,106.8174907,"7, jl. moch. kahfi ii no.30a, rt.7/rw.8, srengseng sawah, south jakarta city",ChIJbzJ5iNbvaS4RxFDw-zJCyoc,0.0
warteg moro seneng,0.0,0,-6.2518919,106.8212383,"jl. bangka ix no.62, rt.7/rw.10, pela mampang, kota jakarta selatan",ChIJ1bW1jNbzaS4Rc2yrYvDyUL8,0.03418190000000276
warteg ibu tuti.,4.7,3,-6.2189925000000015,106.7932781,"jl. patal senayan iii no.1, rt.1/rw.7, grogol utara, kota jakarta selatan",ChIJKf2HWpDxaS4R0Vgz8qucB6o,0.026677700000007576
aneka warteg sih bendul,0.0,0,-6.2390959000000015,106.7850065,"jl. kebayoran baru, rt.4/rw.7, kby. lama utara, kota jakarta selatan",ChIJcV101hfxaS4Rdi_NAY9SheM,0.021319500000008595
warteg kuning,0.0,0,-6.222511799999999,106.82105359999998,"jl. guru mughni no.170, rt.17/rw.4, kuningan, kota jakarta selatan",ChIJm7SIm9rzaS4RD6J-kdEZLE4,0.0
warteg biru,0.0,0,-6.217992,106.820167,"gedung ciputra world 1 di besment 1, jl. prof. dr. satrio, rt.2/rw.1, kuningan, karet kuningan, kota jakarta selatan",ChIJFwAAAPnzaS4RhbTUPjLJLuA,0.0
warteg kharisma bahari wkb satrio,0.0,0,-6.2168508000000005,106.8192152,"jl. prof. dr. satrio, rt.3/rw.4, kuningan, karet semanggi, kota jakarta selatan",ChIJgaAiGMD1aS4RVt0O5pU5W-4,0.0
warteg maju jaya,0.0,0,-6.2166324,106.8233622,"jalan anggrek1 no 21rt 06 rw 01, rt.10/rw.1, kuningan, karet kuningan, kota jakarta selatan",ChIJKfwGGK71aS4RcAbP_35Ijbo,0.0
warteg ibu putri,4.9,9,-6.2205251,106.825301,"jl. karet pedurenan no.3, rt.3/rw.4, kuningan, karet kuningan, kota jakarta selatan",ChIJIc9nSPnzaS4RXfpEBvUpS5g,0.0
warteg jawa,0.0,0,-6.2185752,106.8226446,"jl. tiong no.23, rt.7/rw.6, kuningan, rt.7/rw.6, kuningan, karet kuningan, kota jakarta selatan",ChIJUe40nbbzaS4Rt7J24pAdy1s,0.0
warteg pak de barokah,5.0,1,-6.2479881000000015,106.817205,"jl. bangka v no.8, rw.3, pela, kota jakarta selatan",ChIJl1sVkb_xaS4RtwInqlsLoEg,0.0
warteg,0.0,0,-6.2467460999999975,106.8275095,"jl. mampang prapatan vi no.17, rt.1/rw.2, tegal parang, kota jakarta selatan",ChIJVaD0kdrzaS4RP4rsT6OP0_g,0.0
warteg abil jaya,4.3,36,-6.251912799999999,106.8179044,"jl. bangka ix, rt.3/rw.12, pela mampang, kota jakarta selatan",ChIJbWYTINbzaS4R30dW265Wz7s,0.0
warteg kumis slawi ayu,0.0,0,-6.251886799999999,106.8188966,"jalan bangka ix 12 5, rt.5/rw.10, pela mampang, kota jakarta selatan",ChIJSfSIvyfzaS4Rj-yO_4G9VdE,0.0
warteg mandiraja,0.0,0,-6.250349900000002,106.8185938,"jl. bangka viiic no.73, rt.4/rw.12, pela mampang, kota jakarta selatan",ChIJeUMBztfzaS4ROCXky0C7azU,0.0
warteg jbu anggun,0.0,0,-6.2515294999999975,106.824801,"jl. mampang prapatan xiii no.3, rt.3/rw.6, tegal parang, kota jakarta selatan",ChIJnXiKFdHzaS4R-aBMuJUFuqM,0.0
warteg kharisma bahari,4.0,4,-6.2203588,106.7816176,"jl. panjang no.8, rt.7/rw.10, grogol utara, kota jakarta selatan",ChIJTSdrby3xaS4Ry8UPA0jQ4fk,0.02570729999999433
warteg agung gandaria,4.5,562,-6.2448571,106.7890842,"jl. gandaria tengah ii no.30, rt.12/rw.1, kramat pela, kota jakarta selatan",ChIJ2ciJ5RPxaS4RKetFCdhKdnY,0.013620799999992885
warteg agung jaya,4.9,7,-6.227968499999999,106.786927,"jalan rawa simprug iii rt 006 rw 005 # 12 grogol selatan, rt.5/rw.5, grogol sel., dki jakarta",ChIJ3USPoTDxaS4RJNNLe1oEBhk,0.012788199999993031
warteg salma,4.7,3,-6.2370511,106.7829808,"jalan mangga tengah, rt.08/rw.3, rt.3/rw.1, cipulir, kota jakarta selatan",ChIJlfWCufHxaS4RRaoFVqaQjGo,0.011918199999993995
warteg barokah,5.0,1,-6.2392066,106.794929,"qq6v+8x7, rt.4/rw.8, gunung, south jakarta city",ChIJm_ImOgHxaS4R7Yzb2V0VK7k,0.0064518999999982896
warteg bahari - base camp ojol lobby selatan jkt,4.7,17,-6.2281619999999975,106.79497,"jl. simprug golf 2 no.132, rt.10/rw.8, grogol sel., kota jakarta selatan",ChIJR0oTpNvxaS4R-BZLVedKTdM,0.008960100000009241
warteg (wahyoo) enno,5.0,4,-6.2498542,106.7915148,"jl. radio dalam raya no.2, rt.14/rw.2, gandaria utara, kota jakarta selatan",ChIJn2kcbrrxaS4RrbmUrkJi46s,0.016187299999995908
warteg soimah,2.5,2,-6.2279768,106.7937316,"jl. simprug golf 2, rt.9/rw.8, grogol sel., kota jakarta selatan",ChIJJenUhTLxaS4R-Nqjur3btC0,0.007906900000002716
warteg kharisma bahari,4.0,4,-6.2323856,106.7908186,"jl. martimbang raya no.25, rt.1/rw.5, gunung, kota jakarta selatan",ChIJi3-XGDnxaS4R0Sx3S7XspJ0,0.0044795000000039656
warteg raji,5.0,1,-6.2403518,106.7832983,"jl. sultan iskandar muda no.4, rt.4/rw.2, kby. lama utara, kota jakarta selatan",ChIJ2REnAdzxaS4RLlNuk6BRH8M,0.014901399999999397
warteg permata,0.0,0,-6.2401440999999975,106.78057350000002,"pasar kebayoran lama, jl. ciputat raya, rt.3/rw.1, cipulir, kota jakarta selatan",ChIJpbpQaRjxaS4Rt574k3xGfgw,0.017418499999994452
warteg ainun jaya 1 - tanah kusir,4.3,17,-6.2549179000000015,106.77765990000002,"jl. ciputat raya jl. tanah kusir no.47, rt.13/rw.1, kby. lama sel., kota jakarta selatan",ChIJFdYstSrxaS4RDR2FalWmrFE,0.0
warteg kowantara banten,4.0,2,-6.2580538,106.77740590000002,"jl. ciputat raya, rt.4/rw.10, kby. lama sel., kota jakarta selatan",ChIJiQc7OgfxaS4RjV7EuovH5dI,0.0
warteg abdul,0.0,0,-6.257321599999999,106.7754954,"jl. ismail blok ismail 4 no.25, rt.9/rw.10, kby. lama sel., kota jakarta selatan",ChIJy8jBfDfxaS4Rf83dogM-Kno,0.0
warteg lestari 2,5.0,1,-6.2262694000000005,106.77115159999998,"jalan h thohir rt 02 rw 04 no 51a kebon jeruk, rt.2/rw.4, sukabumi sel., dki jakarta",ChIJrY7Y4SnxaS4RwhUNDhDO_nw,0.0
warteg nabilah,4.2,36,-6.226505299999999,106.7689875,"jl. persatuan no.24a, rt.1/rw.7, grogol sel., kota jakarta selatan",ChIJu9zJS9bwaS4R3BhFKXsYi58,0.0
warteg barokah pak rohkmani,0.0,0,-6.2264412,106.7697695,"jl. persatuan no.1, rt.1/rw.4, grogol sel., kota jakarta selatan",ChIJQ0TdC6LxaS4R6Uu_y40Y_ts,0.0
warteg ibu murni,0.0,0,-6.218893799999999,106.7718587,"qqjc+cpx, rt.11/rw.3, south sukabumi, west jakarta city",ChIJb3pwS9X2aS4RhVWXGe6TWfg,0.0
warteg bu isah,5.0,5,-6.2494852,106.81263529999998,"qr27+632, rt.8/rw.7, pela mampang, south jakarta city",ChIJ4yuXZwXxaS4RLlaHvd1i6qk,0.0
warteg xii - kemang,4.1,35,-6.248979599999998,106.81458390000002,"8, jl. bangka raya no.28, rt.8/rw.11, pela mampang, kota jakarta selatan",ChIJD30qgOHxaS4R4K_8470O7U8,0.0
warteg bazaar,4.6,66,-6.246372,106.8154781,"jl. bangka raya no36b.rt.14, rt.14/rw.3, pela mampang, kota jakarta selatan",ChIJY5OIUGLxaS4RnR318NF3PAM,0.0
warteg mba heni,0.0,0,-6.2479644,106.814785,"jl. bangka blok satria no.53, rt.7/rw.11, pela mampang, kota jakarta selatan",ChIJ0VRg1HzxaS4RipjLqhJP1tw,0.0
warteg rasa mala,5.0,1,-6.2455679,106.8154712,"jl. bangka raya, rt.13/rw.5, pela mampang, kota jakarta selatan",ChIJ87qxV2LxaS4Rrl32hHhEEiw,0.0
warteg cipta rasa bangka,4.1,144,-6.250092,106.811744,"jl. bank v blok a no.3, rt.8/rw.7, pela mampang, kota jakarta selatan",ChIJX_GQY3vxaS4R14TDVsZMDtc,0.0
warteg bahari,5.0,1,-6.2474397,106.7788875,"jl. ciputat raya no.321, rt.4/rw.1, kby. lama utara, kota jakarta selatan",ChIJVbkZBRvxaS4RUROZvIFxQRw,0.0
wahyoo warteg dua saudara ii,4.5,10,-6.251043,106.783584,"jl. praja dalam k no.2b, rt.10/rw.12, kby. lama sel., kota jakarta selatan",ChIJtyH4w9vxaS4Ry-xZbL2BD0o,0.0
warteg ana,5.0,3,-6.248831099999999,106.7843621,"jalan bungur ii rw003, rt.4/rw.12, kby. lama sel., kec. kby. lama, kota jakarta selatan, dki jakarta12240, rt.5/rw.2, kby. lama sel., kota jakarta selatan",ChIJLdK__YTxaS4RnAEzfcP6EOg,0.0
warteg kharisma,4.3,13,-6.2467650999999975,106.7882461,"jl. jatayu no.rt.7, rt.8/rw.3, south kebayoran lama, south jakarta city",ChIJwTFnhBHxaS4RUnkcZqdgsTI,0.0
warteg fajar,0.0,0,-6.2529355,106.7827558,"jl. praja dalam e no.3, rt.3/rw.5, kby. lama sel., kota jakarta selatan",ChIJgwIlYQ_xaS4RsJXooYRSKx0,0.0
warteg kharisma bahari,0.0,0,-6.2480297,106.7784328,"rt.4/rw.1, kby. lama utara, kota jakarta selatan",ChIJySWrgOPxaS4RWxlBB1OXCyM,0.0
warteg irma,0.0,0,-6.253249299999999,106.7778802,"jl. ciputat raya no.2, rt.11/rw.11, kby. lama utara, kota jakarta selatan",ChIJTe_1agTxaS4RTRdADsChwg4,0.0
warteg mardo tillah,4.1,7,-6.24794,106.7783921,"jl. ciputat raya, rt.2/rw.10, kby. lama utara, kota jakarta selatan",ChIJNbVKPxvxaS4RG5wcTLAfo54,0.0
warteg,5.0,2,-6.2369629,106.7751159,"qq7g+629, rt.2/rw.4, cipulir, south jakarta city",ChIJqVE2hLrxaS4Ra8uSgAFfTts,0.025827499999994785
wahyoo warteg hidayah,0.0,0,-6.2491955999999975,106.7826033,"jl. bungur ii no.57, rt.2/rw.2, kby. lama sel., kota jakarta selatan",ChIJ-X5OABDxaS4RtSLrS7TkDtw,0.01421759999999228
warteg 69,5.0,1,-6.242126499999999,106.7833824,"jl. sultan iskandar muda no.11, rt.4/rw.4, kby. lama utara, kota jakarta selatan",ChIJWQUNHvbxaS4RV8RF_hLg5SA,0.012397400000005554
warteg yoga,4.8,21,-6.259869,106.805691,"jl. damai raya no.35, rt.7/rw.3, cipete utara, kota jakarta selatan",ChIJN8gxNp3xaS4RlpOsz3cFXrE,0.027653699999998338
warteg hikmah,5.0,4,-6.2268193,106.7785308,"jl. tabah no.7, rt.5/rw.10, grogol sel., kota jakarta selatan",ChIJlbaFGy_xaS4R0Umlw1V_qxg,0.0
warteg surya kencana,4.4,101,-6.230512000000001,106.7718359,"jl. panjang cidodol no.15, rt.5/rw.13, grogol sel., kota jakarta selatan",ChIJNV_HlCfxaS4R0jAyY7YYX74,0.0
warteg kharisma bahari,0.0,0,-6.228973000000001,106.771536,"jl. panjang cidodol no.2, rt.5/rw.13, sukabumi sel., kota jakarta selatan",ChIJacp_7OfxaS4Ru_0AAzvYeK4,0.0
warteg berkah jaya,0.0,0,-6.231963200000001,106.7700561,"jl. masjid cidodol no.7, rt.7/rw.13, grogol sel., kota jakarta selatan",ChIJX3iuh9jwaS4RuqIKIbQ9Qmg,0.0
warteg slawi ayu,0.0,0,-6.2343363,106.7788186,"jl. kebon mangga i no.10, rt.1/rw.1, cipulir, kota jakarta selatan",ChIJMyMWhiPxaS4R_wppE6W0Nok,0.0
warteg tisha,5.0,3,-6.228991099999999,106.8038655,"jalan senopat dalam 2, rt.1/rw.2, senayan, kota jakarta selatan",ChIJHd_oscXxaS4RWxlkgwvUjsM,0.0
warteg mobil,5.0,1,-6.2278879,106.8123761,"kantor lurah, jl. widya chandra viii, rt.4/rw.1, senayan, kota jakarta selatan",ChIJh5_xzFfxaS4RJeqtScVoMu4,0.0
warteg mataram,0.0,0,-6.232546,106.805131,"jl. mataram raya, rt.7/rw.2, selong, kota jakarta selatan",ChIJQ9284VTxaS4RafeQIifyfxs,0.0
warteg sederhana,5.0,1,-6.2290871,106.7789612,"jl. raya kby. lama no.19, rt.4/rw.10, grogol sel., kota jakarta selatan",ChIJK7bBfkvxaS4RSj8BA7bN760,0.0
warteg putrabahari,4.4,111,-6.2294899999999975,106.7767754,"jl. cidodol raya, rt.3/rw.11, grogol sel., kota jakarta selatan",ChIJy6ta_CXxaS4RfydUlbQcTPk,0.0
warteg berkah merintis tanpa batas,4.4,11,-6.225582999999999,106.7798811,"jl. limo no.10, rt.1/rw.10, grogol sel., kota jakarta selatan",ChIJcRWrjC7xaS4RmkS4xghmzsU,0.0
warteg gandasari,4.4,18,-6.2257807000000005,106.7809555,"jl. limo no.22, rt.1/rw.2, grogol utara, kota jakarta selatan",ChIJIakoSC7xaS4R6oSAffpFsA0,0.0
warteg putrabahari,4.3,10,-6.2255729,106.7746448,"jl. assirot no.10, rt.5/rw.1, grogol sel., kota jakarta selatan",ChIJswjlEynxaS4R0HuT1w1sB2k,0.0
warteg hello bahari,4.8,11,-6.2254929999999975,106.77644209999998,"jl assirot no.12 rt006/01, rt.6/rw.1, grogol sel., kota jakarta selatan",ChIJDWlSt_fxaS4R0pO5s-a8zrs,0.0
warteg najwa/awa,5.0,1,-6.2255980000000015,106.7751535,"jl. assirot, rt.12/rw.1, grogol sel., kota jakarta selatan",ChIJ61ngPSnxaS4RPiAn6VizTQ0,0.0
warteg karomah,4.0,2,-6.2264327,106.7839039,"jl. rawa simprug i no.8, rt.3/rw.5, grogol sel., kota jakarta selatan",ChIJ-6EkPzDxaS4RwouYHojimvY,0.0
warteg putra pertama,3.5,2,-6.2285074,106.7844666,"rt 001 rw 009 # 5 kebayoran lama, jl. rawa simprug iii, rt.2/rw.5, grogol sel., dki jakarta",ChIJ45graDDxaS4R8I_wY7GX_yQ,0.0
warteg sari mukti,0.0,0,-6.2256072,106.7738827,"jl. assirot no.5, rt.10/rw.3, grogol sel., kota jakarta selatan",ChIJE4SFDCnxaS4RbSE-vPZj2P4,0.0
warteg kowantara jaksel,4.8,21,-6.2299117,106.77893020000002,"jl. kebayoran lama raya rt 04/10 no 26 kebayoran lama jakarta selatan, rt.3/rw.11, grogol sel., kota jakarta selatan",ChIJpfYsmiXxaS4RDQajfPs9du4,0.0
warteg 09,0.0,0,-6.229817499999999,106.7797899,"jl. raya kby. lama no.18cd, rt.4/rw.10, grogol sel., kota jakarta selatan",ChIJr0jAdiXxaS4R7QICv73mH0o,0.0
warteg aneka pepea,0.0,0,-6.225209,106.7745769,"jl. assirot no.5, rt.5/rw.1, grogol sel., kota jakarta selatan",ChIJa4Qi-d_xaS4RRVRPQCo_tbY,0.0
warteg bahari,0.0,0,-6.2357124000000015,106.77267340000002,"jl. cipulir i no.28, rt.7/rw.4, cipulir, kota jakarta selatan",ChIJ06pU6CDxaS4RjOgnbiOnuoE,0.0
warteg papa mewek,4.7,7,-6.2290866,106.7789608,"jl. raya kby. lama no.19, rt.4/rw.10, grogol sel., kota jakarta selatan",ChIJuyherAnxaS4R2jnK4dzWD_g,0.0
warteg barokah limo,5.0,2,-6.2262129,106.785473,"jl. limo no.8, rt.3/rw.9, grogol sel., kota jakarta selatan",ChIJjQjlJvnxaS4RDVurz_jmooY,0.0
warteg budhe,0.0,0,-6.235517099999999,106.7830314,"jl. jiban, rt.8/rw.1, grogol sel., kota jakarta selatan",ChIJO2PQyDzxaS4RLAyuJKAVU1c,0.0
warteg warung makan tegal,0.0,0,-6.2354414,106.7735374,"jl. cipulir i no.1, rt.4/rw.8, cipulir, kota jakarta selatan",ChIJwZaXnnzxaS4RzXUkzE8x3Nw,0.0
warteg wahyu,3.5,2,-6.2342441,106.7783521,"jalan kebon mangga ii rt 004 rw 003 # 4, rt.1/rw.7, cipulir, kota jakarta selatan",ChIJm9NMdiTxaS4RDYbReO4ar5A,0.0
warteg tuk-mumbul,0.0,0,-6.2318231,106.7801545,"jl. raya kby. lama, rt.1/rw.11, grogol sel., kota jakarta selatan",ChIJ3xtf-yTxaS4RG8HGimhP9fQ,0.0
warteg piah yanto,5.0,1,-6.2346001,106.7755579,"jl. kangkung no.7, rt.13/rw.3, cipulir, kota jakarta selatan",ChIJ_ZFCR-bxaS4R_tkGxoGiWlQ,0.0
warteg kharisma bahari,4.4,53,-6.2355310999999976,106.7735406,"jl. cipulir i no.1, rt.4/rw.8, cipulir, kota jakarta selatan",ChIJH8DRK6nxaS4R0TXrI4rKxPA,0.0
ajisaka warteg 2,0.0,0,-6.2302007,106.7795838,"jl. tepekong, rt.6/rw.11, grogol sel., kota jakarta selatan",ChIJK0D9sU_xaS4RwE5P_MDqmBY,0.0
warteg barokah,4.8,4,-6.247303899999999,106.7797712,"jl. bungur, rt.4/rw.1, kby. lama utara, kota jakarta selatan",ChIJwahg_BrxaS4RNRojSe6S7EQ,0.020758900000001468
warteg poncol,0.0,0,-6.275475900000001,106.7930573,"pqfv+r63, rt.3/rw.7, south gandaria, south jakarta city",ChIJ9XsywdPxaS4RH1wimCW4GR4,0.02069920000000192
warteg citra bahari,3.6,10,-6.253381,106.77607,"jalan bintaro raya tanah kusir, rt.2/rw.10, kebayoran lama selatan, kebayoran lama, rt.11/rw.10, kby. lama sel., kota jakarta selatan",ChIJo7yAjAPxaS4Rj1TMzLIGzlE,0.01838299999999471
warteg jaya bahari,4.4,23,-6.24587,106.7844251,"jl. taman gandaria, rt.9/rw.6, kby. lama utara, kota jakarta selatan",ChIJqwf67hDxaS4Rlz_dZoKL-fs,0.01753889999999192
warteg makmu,5.0,1,-6.2416718,106.7800145,"jl. kh. mas'ud, rt.1/rw.1, cipulir, kota jakarta selatan",ChIJaVIkUxjxaS4RIeJt5SI2qTQ,0.026147700000006324
warteg slawi ayu,4.6,60,-6.2553325,106.7760395,"jl. johari no.1, rt.10/rw.10, kby. lama sel., kota jakarta selatan",ChIJdUouTgHxaS4RkjXb5A6rWb4,0.01646200000000331
warteg bendi jaya,4.2,181,-6.2529184,106.7735524,"jl. bendi raya no.15, rt.3/rw.10, kby. lama utara, kota jakarta selatan",ChIJt7N-TQLxaS4RNZXLjgEk-Ws,0.0213631999999988
warteg darmi,3.0,2,-6.2449431,106.78156090000002,"jl. gandaria kampung dukuh no. 35 rt 007%2frw 06 kebayoran lama selatan kebayoran lama jakarta selatan dki jakarta, rt.4/rw.4, kby. lama utara, kota jakarta selatan",ChIJg5RnEBrxaS4R_S05Fz9PDNU,0.021329999999996296
warteg langgeng jaya,5.0,1,-6.2669321,106.7924537,"jl. madrasah no.20a, rt.7/rw.1, gandaria sel., kota jakarta selatan",ChIJGWGvWKLxaS4RYSs6UNnMZ9I,0.01155179999999678
warteg kemenangan bahari,4.6,48,-6.2420858999999975,106.7813601,"jl. makmur no.#27, rt.4/rw.3, kby. lama utara, kota jakarta selatan",ChIJc-KlwxnxaS4RC6Uj5Frx3RE,0.024387999999999188
warteg bahari kembar,5.0,2,-6.2394446,106.7708592,"jl. al mubarok 1 no.10, rt.1/rw.1, cipulir, kota jakarta selatan",ChIJQzXRASDxaS4RuL0MAhxie_k,0.0
warteg kharisma bahari,3.3,3,-6.243720400000001,106.7725298,"rt08/rw09, jl. peninggaran raya no.50, rt.8/rw.11, kby. lama utara, kota jakarta selatan",ChIJ-ynsJLDxaS4RaFG9NL6U46w,0.0
warteg lena,3.9,28,-6.2430857,106.7690678,"qq49+qj8, rt.11/rw.11, north kebayoran lama, south jakarta city",ChIJM1-cuOHwaS4RXNBGBXZ7kas,0.0
warteg al riski jaya,0.0,0,-6.244271599999999,106.7763086,"jl. peninggaran timur ii, rt.3/rw.9, kby. lama utara, kota jakarta selatan",ChIJQ8hPqh7xaS4R-_dkOzmWZaM,0.0
warteg barokah,5.0,4,-6.2378864,106.7697193,"jl. ciledug raya no.9, rt.2/rw.5, cipulir, kota jakarta selatan",ChIJR9Aokt_waS4RFASO0A1o0m8,0.0
warteg barokah,3.7,17,-6.2383864,106.7721225,"jl. seskoal no.11, rt.6/rw.11, cipulir, kota jakarta selatan",ChIJ5W4bGCDxaS4RqZ0KAKyp5os,0.0
warteg bahari 107,4.4,28,-6.2380394999999975,106.7684813,"jl. ciledug raya, rt.14/rw.6, cipulir, kota jakarta selatan",ChIJRZd9t9_waS4Re0g731DM18M,0.0
warteg bahari,4.8,5,-6.245033900000001,106.7748024,"istiqomah, jl. peninggaran timur iii no.22, rt.5/rw.9, kby. lama utara, kota jakarta selatan",ChIJPUjeIhzxaS4RQ49jjpEgeJU,0.0
wahyoo warteg bahari mulya,3.0,1,-6.2417960999999975,106.7704652,"jl. almubarok iii no.2, rt.6/rw.10, cipulir, kota jakarta selatan",ChIJoaM1KuDwaS4R8nRVeYCAewA,0.0
warteg bakti ibu bahari,0.0,0,-6.2382193,106.7729206,"jl. ciledug raya no.40, rt.6/rw.11, cipulir, kota jakarta selatan",ChIJMxKl_fDxaS4R8M41iuRtJiU,0.0
warteg 24 jam marisah,3.6,11,-6.23766,106.776666,"jl. ciledug raya, rt.6/rw.2, cipulir, kota jakarta selatan",ChIJK-3JFxrxaS4RzmEHGx_eP88,0.0
warteg cahaya mulya,5.0,3,-6.238153,106.770678,"jl. ciledug raya no.69, rt.8/rw.6, cipulir, kota jakarta selatan",ChIJjSUsE9DxaS4RXxTaP-xXyEM,0.0
warteg sajny,0.0,0,-6.241383,106.805117,"rt3, jl. tirtayasa v no.5, rt.3/rw.2, melawai, kota jakarta selatan",ChIJezPy70LxaS4RpgoJ3loY8JY,0.0
warteg blok m,0.0,0,-6.243073000000001,106.801823,"jl. falatehan i no.44, rt.2/rw.1, melawai, kota jakarta selatan",ChIJ3zgOI5TxaS4RvxDCNxYwGgg,0.0
warteg andriani,0.0,0,-6.2463922,106.8013357,"melawai, south jakarta city",ChIJdZlAYW7xaS4RhiW2YnauOJg,0.0
warteg asli bu taripah,0.0,0,-6.2664953,106.7745249,"jl. h. muhi, rt.1/rw.4, pd. pinang, kota jakarta selatan",ChIJa7CBQ6zxaS4RrwIFHNEzIAQ,0.0
warteg bu mi,4.8,5,-6.2647407,106.7672208,"pqp8+4v5, rt.9/rw.3, bintaro, south jakarta city",ChIJ9xq_e1TwaS4Rs3ntcSMg2t4,0.0
warteg eko,0.0,0,-6.2727444000000006,106.769188,"jl. deplu raya, rt.6/rw.3, bintaro, kota jakarta selatan",ChIJJR8BIE3waS4RgwA8-mKtK9Y,0.0
rm. warteg jamboel,5.0,3,-6.2695821,106.7673598,"jl. melati, rt.6/rw.3, bintaro, kota jakarta selatan",ChIJ99WkZFLwaS4RLC5dhKLz4co,0.0
wahyoo warteg joko,0.0,0,-6.262459499999999,106.7749874,"003, jl. pd. pinang,, rt.1/rw.2, pd. pinang, kota jakarta selatan",ChIJ1XSE0WvxaS4RkbR4TBMYz3Q,0.0
warteg bahari,3.9,35,-6.268824599999999,106.7729791,"jl. h. naimun no.39, rt.11/rw.11, pd. pinang, kota jakarta selatan",ChIJia7LCK3xaS4RwjBhS0ggBdc,0.0
warteg talifah,0.0,0,-6.266496599999999,106.77454109999998,"jl. h. muhi, rt.1/rw.4, pd. pinang, kota jakarta selatan",ChIJ26qMQ6zxaS4RcN443usyteE,0.0
wahyoo warteg indah jaya,0.0,0,-6.2704663,106.7751062,"rt.1/rw.12, pd. pinang, kota jakarta selatan",ChIJJboUev7xaS4ROqyM5lpv8rM,0.0
warteg khaerul jaya,0.0,0,-6.271276299999999,106.7750983,"japan, jl. tanah ara, rt.1/rw.12, pd. pinang, jakarta",ChIJFfstuP3xaS4R-qUyGWp7S70,0.0
warteg elis,0.0,0,-6.2688865000000025,106.7726844,"jl. h. naimun rt. 02/11 no. 39, rt.11/rw.11, pd. pinang, kota jakarta selatan",ChIJx-Jm8dHxaS4ROmPq5bjMofk,0.0
warteg indah jaya 2,4.4,75,-6.264345,106.7749519,"jl. ciputat raya, rt.6/rw.1, pd. pinang, kota jakarta selatan",ChIJ83kTjavxaS4RpJk1GwTlV28,0.0
warteg jaya bahari,4.4,7,-6.2665967,106.7710437,"jl. h. muhi no.5, rt.10/rw.4, pd. pinang, kota jakarta selatan",ChIJ62pRyazxaS4RxptYLo_9z0E,0.0
warteg indah jaya 3,4.9,7,-6.2760902000000005,106.7729926,"no., jl. ciputat raya no.4a, rt.2/rw.11, pd. pinang, kota jakarta selatan",ChIJG90kv63xaS4R6_r_gzIs7sg,0.0
warteg soto ayam,0.0,0,-6.268796900000001,106.7729631,"jl. h. naimun no.33, rt.11/rw.11, pd. pinang, kota jakarta selatan",ChIJ3VTacq3xaS4RUihpG9oLATg,0.0
warteg tiara jaya,4.7,17,-6.2654647999999975,106.7785939,"jl. pondok pinang perak raya. rt.12/ rw.03, kebayoran lama, rt.12/rw.3, pd. pinang, kota jakarta selatan",ChIJdcVwcZTxaS4Rhl5oJ6RRbLY,0.0
warteg kharimah,5.0,1,-6.265037299999999,106.7750814,"jl. ciputat raya no.54, rt.9/rw.11, pd. pinang, kota jakarta selatan",ChIJNY3WCqzxaS4RSwW6x_06Np8,0.0
di warteg,4.4,37,-6.2681513,106.8239665,"jl. kemang timur no.56, rt.7/rw.3, bangka, kota jakarta selatan",ChIJKbtxVC_yaS4R-myPSGXPhI4,0.024371099999990875
warteg berkah,4.3,170,-6.2677115999999975,106.8222851,"jl. kemang tim. xii no.7, rt.6/rw.3, bangka, kota jakarta selatan",ChIJ88zNkSjyaS4RS0o4mSnunYM,0.02224999999999433
warteg niki 4,4.7,18,-6.274515,106.79789,"jl. rs. fatmawati raya, rt.14/rw.4, cipete sel., kota jakarta selatan",ChIJ3498KJTxaS4RcG5SKCjpSEk,0.02504490000001169
warteg,4.3,47,-6.2765407,106.824222,"warteg, jalan pejatan barat raya, rt.2/rw.8, pejaten bar., kota jakarta selatan",ChIJzR3iLiLyaS4R_HUpPw1-R4w,0.0
warteg hidayah,5.0,1,-6.2718263,106.8276766,"5, jl. kamboja no.43, rw.8, pejaten bar.",ChIJeSROtLjzaS4RolubxfAMtik,0.0
warteg berkah 4,4.5,25,-6.278200599999999,106.8199691,"jl. ampera raya no.4, rt.3/rw.4, cilandak tim., kota jakarta selatan",ChIJldlcJSDyaS4R7JJRbco9Pyc,0.0
warteg syarifah,4.5,6,-6.2774047,106.8271283,"jalan pejaten barat raya no. 34, pejaten barat, pasar minggu, rt.8/rw.8, pejaten bar., kota jakarta selatan",ChIJpYy2t5vzaS4RcUV5QF7iD_c,0.0
wahyoo.warteg alif bahari,4.6,44,-6.2816467000000005,106.823119,"jl. pekayon no.2, rt.9/rw.3, ragunan, kota jakarta selatan",ChIJ9Swrth7yaS4Rec3AeV4nKck,0.0
warteg bahari,0.0,0,-6.2755442000000015,106.8303481,"jl. amil no.75, rt.12/rw.5, kalibata, kota jakarta selatan",ChIJe16ZcBPtaS4RW-hMZ2nPRU0,0.0
warteg ellya,4.5,112,-6.279879999999999,106.818121,"jl. madrasah no.7, rt.5/rw.6, cilandak tim., kota jakarta selatan",ChIJEd0jgMvvaS4R_0_i9wEeWik,0.0
warteg danny,4.0,5,-6.281784399999999,106.824179,"jl. pekayon, rt.2/rw.3, ragunan, kota jakarta selatan",ChIJ0-wZLhnyaS4R1bOnEU9msWk,0.0
warteg berkah,4.5,352,-6.2709113,106.8237082,"jl. kemang timur, rt.14, pejaten bar., kota jakarta selatan",ChIJDfIMgCbyaS4RiEmI4B0u6BA,0.0
warteg kharisma bahari,5.0,3,-6.2759284000000015,106.8295911,"jl. warung buncit raya no.22, rt.2/rw.7, pejaten bar., kota jakarta selatan",ChIJr34CQ3TzaS4RNFQjP7nfZlQ,0.0
warteg nusantara multisukma,4.9,7,-6.272241999999999,106.8308732,"jl. warung buncit raya no.448, rt.3/rw.5, kalibata, kota jakarta selatan",ChIJr7nBP9vzaS4RYhYly09xFB8,0.0
warteg ibu tari,4.9,7,-6.2719473,106.8294171,"jl. warung buncit raya no.12, rt.10/rw.5, kalibata, south jakarta city",ChIJ5-Y1yiTyaS4RKsbHab11PME,0.0
warteg ampera raya,4.4,8,-6.280988400000001,106.8194107,"jl. ampera raya no.17, rt.5/rw.6, ragunan, kota jakarta selatan",ChIJ2wpDqALyaS4RZQMC9qni9ts,0.0
warteg nusantara milenia,4.6,192,-6.2722447,106.8307662,"jl. warung buncit raya, rt.10/rw.5, kalibata, kota jakarta selatan",ChIJRSdrIgfzaS4RluxBS9gsOhI,0.0
