nama_tempat,rating_tempat,user_ratings_total,latitude,longitude,alamat_tempat,place_id,distance
warteg ibu mukrim,4.4,9,-6.2294415,106.80785549999999,"jalan tebet barat raya no 71 a rt 15 rw 01, gang keamanan no.2, rt.7/rw.3, senayan, dki jakarta",ChIJtTxgoVrxaS4RIcILCJ94784,0.02147659999999174
warteg putri,4.5,105,-6.223198,106.828236,"jalan asem 4, rt.14/rw.4, kuningan, karet kuningan, kota jakarta selatan",ChIJ6xUMFvrzaS4RaCeYKqPzOHY,0.0192866000000107
warteg ibu nur,5.0,1,-6.2217946,106.8302986,"no., jl. pedurenan mesjid 1 no.22, rt.16/rw.4, kuningan, karet kuningan, kota jakarta selatan",ChIJW8HBUffzaS4Rwmp3Vi3ULJo,0.02275260000001289
warteg bahari,4.0,1,-6.2208801,106.8200318,"jl. karet sawah, rt.3/rw.3, karet semanggi, kota jakarta selatan",ChIJd2e5RP7zaS4RMoTbprhaktI,0.017861699999999203
warteg bu ani,3.8,4,-6.218558199999999,106.82266170000001,"gg. tiong ujung kecamatan no.20.rt 04/01, rt.7/rw.4, kuningan, karet kuningan, kota jakarta selatan",ChIJPcROR__zaS4R44eusKgsCck,0.018352100000005755
warteg biru,4.4,19,-6.2229009999999985,106.82092949999999,"jl. guru mughni blok no.8, rt.1/rw.3, karet semanggi, kota jakarta selatan",ChIJN66F9_zzaS4RSmv_R9fk6Cw,0.014943099999989329
warteg gaspoll 2.0,4.5,4,-6.2225658,106.8212412,"jl. prof. dr. satrio no.8, rt.17/rw.6, kuningan, karet kuningan, kota jakarta selatan",ChIJne7qKfzzaS4RpnpEbCwVUYA,0.014966599999991281
warteg berkah,4.3,3,-6.222456999999999,106.820594,"jl. guru mughni no.147, rt.1/rw.3, karet semanggi, kota jakarta selatan",ChIJmRFo5qrzaS4RJLZsBv2W5Vg,0.0157225999999957
warteg putri,4.5,17,-6.219725299999999,106.8244858,"jl. h. sidik no.30, rt.6/rw.6, kuningan, karet kuningan, kota jakarta selatan",ChIJObivLHDzaS4Rrutp4VQq0M8,0.019009100000013213
warteg mekar jaya,4.4,18,-6.2217954,106.8257664,"jl. karet pedurenan no.52 4, rt.4/rw.7, kuningan, karet kuningan, kota jakarta selatan",ChIJ3-tla_nzaS4R7BfOt7mwEEY,0.018219600000012548
warteg dua saudara,4.5,13,-6.221017,106.827992,"jl pedurenan masjid raya rt 06/rw 07 kel, rt.6/rw.7, kuningan, karet kuningan, kota jakarta selatan",ChIJK2uIlfnzaS4R2w2xmEMl-Sk,0.021223600000001674
warteg kowantara jaksel,0.0,0,-6.2223742,106.8298821,"jl. pedurenan masjid 5 no.2, rt.5/rw.4, kuningan, karet kuningan, kota jakarta selatan",ChIJH26nq_DzaS4RiAjy8L6LhL8,0.02175650000001284
warteg jaya bahari,0.0,0,-6.2532406,106.84260159999998,"jl. raya pasar minggu, rt.2/rw.7, duren tiga, kota jakarta selatan",ChIJGQrZ6LXzaS4RGZHsTRKqwSo,0.0
warteg barokah,4.8,12,-6.2196989999999985,106.83813700000002,"jl. menteng atas barat, rt.5/rw.5, menteng atas, dki jakarta",ChIJm5kBVPTzaS4RRZCxr82lqFA,0.0
warteg emak,4.6,11,-6.2221148999999984,106.8409979,"jl. menteng pulo ii no.8, rt.16/rw.12, menteng dalam, kota jakarta selatan",ChIJddVfNPPzaS4RKVPQVOTT8gs,0.0
wahyoo warteg sinta bahari,4.3,63,-6.2186534999999985,106.8377666,"no., jl. menteng atas barat no.2, rt.3/rw.5, menteng atas, dki jakarta",ChIJJS7sUwr0aS4RNLZeBtF_zYU,0.0
wahyoo warteg putra bahari,0.0,0,-6.219144900000001,106.83797340000002,"4, rt.5/rw.5, menteng atas, kota jakarta selatan",ChIJZ6pdjzTzaS4R1g3rBCgJ11k,0.0
warteg karunia rahayu,4.2,18,-6.219502400000001,106.8427692,"jl. subur dalam no.8, rt.4/rw.8, menteng atas, kota jakarta selatan",ChIJfWmaIYvzaS4RURpv4xrH_Nw,0.0
warteg berkah,5.0,1,-6.221354,106.84274099999999,"jl. menteng pulo no.4, rt.5/rw.9, menteng atas, kota jakarta selatan",ChIJJS43VVTzaS4RMhUCYQDXpcE,0.0
warteg putra bahari,5.0,1,-6.2227801,106.83235149999999,"jl. menteng atas barat, rt.16/rw.4, kuningan, karet kuningan, kota jakarta selatan",ChIJVVi88qfzaS4Rkk8n8QeYzMk,0.0
warteg citaayu,0.0,0,-6.2171727,106.8404217,"jl. menteng atas dalam, rt.14/rw.6, menteng atas, kota jakarta selatan",ChIJ4Y-VW_XzaS4R66zBHx0QdTM,0.0
warteg berkah,4.1,13,-6.2222890999999985,106.84466670000002,"jl. menteng pulo 1 no.14, rt.15/rw.5, menteng dalam, kota jakarta selatan",ChIJHQAA84zzaS4RdP7KBSg8FSc,0.0
warteg siang malam,4.6,51,-6.2147084999999995,106.8436209,"jl. minangkabau barat no.75, rt.7/rw.8, ps. manggis, kota jakarta selatan",ChIJPzcUHHX0aS4RoVB7xpFPE0Y,0.0
warteg bahari,0.0,0,-6.221403,106.844424,"jl. menteng pulo, rt.12/rw.8, menteng atas, kota jakarta selatan",ChIJwwwDgovzaS4R-mU6M41P8VI,0.0
wahyoo warteg sinta bahari,4.0,2,-6.215070900000001,106.840792,"9, jl. menteng atas no.6, rt.9/rw.6, menteng atas, kota jakarta selatan",ChIJjUg5GBH1aS4R6eEb7z3yB5s,0.0
warteg pak kumis,4.4,38,-6.2189988,106.84113740000001,"jl. subur ujung no.4, rt.14/rw.15, menteng atas, kota jakarta selatan",ChIJmX3xK_XzaS4R1lNPl3trJj4,0.0
warteg ayu laka- laka,5.0,4,-6.2206670000000015,106.842047,"jl. rela no 4a rt 09, kel 11, rt.11/rw.10, menteng atas, kota jakarta selatan",ChIJkSaQ1u_zaS4RPwl7frKsA5M,0.0
warteg 21,4.8,19,-6.221161799999999,106.8448696,"jl. pendawa no.2, rt.3/rw.5, menteng dalam, kota jakarta selatan",ChIJN8xhrefzaS4ReYI0FQkdFi0,0.0
warteg kharisma bahari cb.saharjo,3.9,43,-6.215278,106.84396399999999,"qrmv+vhp, rt.8/rw.10, south manggarai, south jakarta city",ChIJzcToiGP1aS4RoVKibqNQcOA,0.0
warteg fajar,3.8,11,-6.224195,106.8411074,"jl. menteng pulo ii no.31, rt.2/rw.12, menteng dalam, kota jakarta selatan",ChIJXyjyLPPzaS4R5qhGPEYcCFI,0.0
warteg murah rizqi,4.3,3,-6.214441099999999,106.8429165,"jl. payakumbuh no.14, rt.4/rw.6, menteng atas, kota jakarta selatan",ChIJB85Pumf1aS4RIIrT013awrA,0.0
warteg eli,0.0,0,-6.221371599999999,106.84153880000001,"qrhr+fj3, rt.10/rw.9, menteng atas, south jakarta city",ChIJ41ponbnzaS4RVaKK9xX0nbM,0.0
warteg cipta bahari,0.0,0,-6.2499547999999985,106.84124150000001,"jl. pancoran bar. raya no.1, rt.1/rw.6, pancoran, kota jakarta selatan",ChIJB25ZaBzzaS4R65ov0uZYffo,0.0
wahyoo warteg prima jaya,5.0,3,-6.247241000000002,106.842891,"jl. raya pasar minggu no.rt. 6, rt.7/rw.2, pancoran, kota jakarta selatan",ChIJKy13Ai3zaS4RVuf_amVkFoo,0.0
warteg saniki,4.6,27,-6.250999699999999,106.8350007,"jl. mampang prapatan xiv no.100, rt.8/rw.4, tegal parang, kota jakarta selatan",ChIJuZfW887zaS4RsTUoBdsp-Ko,0.0
warteg family xii,5.0,1,-6.258811,106.835822,"jl. duren tiga selatan, rt.9/rw.2, duren tiga, dki jakarta",ChIJH8VAoTTyaS4RAyniWwYEJqs,0.0
warteg inyong,4.4,8,-6.253276899999999,106.8363791,"jl. gg. duren tiga no.47, rt.8/rw.6, duren tiga, kota jakarta selatan",ChIJ-6HO78vzaS4RDsLza33oBZ0,0.0
warteg buncit ii,4.4,29,-6.251746099999999,106.83589540000001,"jl. mampang prapatan xiv, rt.8/rw.6, pancoran, kota jakarta selatan",ChIJBasWTMnzaS4RVCSjieL-2Kw,0.0
warteg kharisma bahari,4.6,33,-6.2502258,106.8366561,"9, jl. pancoran barat vii no.18, rt.13/rw.6, pancoran, kota jakarta selatan",ChIJDQIwcj3zaS4RmL1vc1EPsvk,0.0
warteg ridho ilahi,5.0,1,-6.2545199,106.83367209999999,"jl. duren tiga selatan iv a no.1-103, rt.4/rw.1, duren tiga, kota jakarta selatan",ChIJ98fL6MfzaS4REOzy0_b65s4,0.0
warteg subsidi,4.8,5,-6.2521157,106.83494579999999,"jl. mampang prpt. xv b no.12, rt.12/rw.5, duren tiga, kota jakarta selatan",ChIJy8cM5DHzaS4RCABzl8GnDHE,0.0
warteg baru,5.0,2,-6.248542700000001,106.83468789999999,"jl. pancoran barat viii, rt.7/rw.4, tegal parang, kota jakarta selatan",ChIJEfLbRc_zaS4RLjxpfPB4ZRg,0.0
warteg podomoro mampang prapatan xv,4.2,5,-6.2519770999999995,106.8339721,"jl. mampang prapatan xv no.8, rt.10/rw.5, duren tiga, kota jakarta selatan",ChIJB1N2CQ_zaS4RCs2nktSY38g,0.0
warteg amanah ms. baim,5.0,1,-6.2599985999999985,106.828854,"jl. duren tiga selatan vii no. 7a rt.004/rw.02 kel, kec, rt.3/rw.2, duren tiga, kota jakarta selatan",ChIJ7ZhprwrzaS4R7iE5Qeg-O08,0.0
warteg iyas,5.0,1,-6.2509188999999985,106.8365886,"jl. pancoran barat vii, rt.8/rw.6, pancoran, kota jakarta selatan",ChIJVxfX-v3zaS4RQZ7sx5WjMP4,0.0
warteg sahabat,4.4,14,-6.2542468,106.8277562,"jl. duren tiga raya, rt.3/rw.5, duren tiga, kota jakarta selatan",ChIJ_3L6JDXzaS4RS0p3aQMwoUY,0.0
warteg mandiri bahari,0.0,0,-6.2522873,106.8297845,"jl. mampang prapatan xv, rt.6/rw.5, duren tiga, kota jakarta selatan",ChIJ3wLbAs7zaS4Ry-MjDF0VYWs,0.0
warteg mampang,5.0,3,-6.2481457,106.8276962,"jl. mampang prapatan viii no.14, rt.1/rw.2, tegal parang, kota jakarta selatan",ChIJFRdfcE3zaS4RRO1B9GXY9Zo,0.0
wahyoo warteg jayanti,4.0,3,-6.250141200000001,106.82714540000002,"jl. mampang prapatan x, rt.7/rw.1, tegal parang, kota jakarta selatan",ChIJZc_IU9DzaS4RAbDezGu8eNU,0.0
warteg duren 3,5.0,3,-6.2543456,106.828106,"jl. duren tiga raya no.5, rt.4/rw.1, duren tiga, kota jakarta selatan",ChIJ4Uxxa9LzaS4R2NztoqZ7Wnk,0.0
warteg latifah,4.5,87,-6.2479930999999995,106.8283968,"jl. mampang prapatan viii, rt.2/rw.2, tegal parang, kota jakarta selatan",ChIJ3ROwC9DzaS4Rtjta9p9Pkrk,0.016323199999989768
warteg pusri,4.3,74,-6.2685656,106.81854550000001,"jl. kemang dalam x, rt.5/rw.2, bangka, kota jakarta selatan",ChIJB2v5ByjyaS4ROSpxhg8l-Gg,0.0214157999999971
wahyoo warteg putri jaya,5.0,2,-6.263434699999999,106.8294758,"jl. warung jati barat i no.42, rt.6/rw.3, kalibata, kota jakarta selatan",ChIJ-bUkHS7yaS4Rerw3pjsJnso,0.027215199999994333
warteg bahari 234,0.0,0,-6.2393939000000005,106.8182932,"jl. kapten tendean no.4, rt.1/rw.1, pela mampang, kota jakarta selatan",ChIJE-dnjN_zaS4RunDaLwj6xZ0,0.014818799999996912
warteg mini,0.0,0,-6.243427400000001,106.824083,"gg. h. mujimi no.60, rt.7/rw.6, mampang prpt., kota jakarta selatan",ChIJbxGTLxLzaS4RrhRkakxv8SE,0.016575099999998955
warteg mulya bahari,4.3,301,-6.2637941,106.7908567,"jl. h. nawi raya no.73, rt.6, gandaria utara, kota jakarta selatan",ChIJVZgWeqHxaS4RaoBtJDqp_zY,0.0
warteg umi kramat batu,0.0,0,-6.2720225,106.7961226,"jl. kramat batu no.7, rt.3/rw.4, gandaria sel., kota jakarta selatan",ChIJC7-ep67xaS4RZlNrubDgkqo,0.0
warteg razahwali,5.0,1,-6.266779800000001,106.79022509999999,"jl. madrasah no.61, rt.7/rw.1, gandaria sel., kota jakarta selatan",ChIJ62i3pKPxaS4Rp9W2ID1qeL8,0.0
warteg pesona maslikha,0.0,0,-6.2726684,106.7962371,"jl. kramat batu no.22, rt.1/rw.5, gandaria sel., kota jakarta selatan",ChIJeUK-UpbxaS4Rxxcu0VbSLDg,0.0
warteg barokah,0.0,0,-6.2639881,106.7921053,"jl. h. nawi raya no.14-20, rt.10/rw.2, gandaria sel., kota jakarta selatan",ChIJwdvb-I7xaS4RSlSpDmvz1t0,0.0
warteg selera,4.0,1,-6.2610981,106.7910983,"jl. hidup baru no.30, rt.12/rw.3, gandaria utara, kota jakarta selatan",ChIJ1ZlaW6DxaS4Ro0zW8V-AUa0,0.0
warteg langgeng jaya,5.0,1,-6.2669321,106.7924537,"jl. madrasah no.20a, rt.7/rw.1, gandaria sel., kota jakarta selatan",ChIJGWGvWKLxaS4RYSs6UNnMZ9I,0.0
warteg kharisma bahari 16,4.5,16,-6.2602297999999985,106.79097050000001,"cilandak, jl. h. salim 1 no.3, rt.8/rw.10, gandaria utara, dki jakarta",ChIJDdcAxKDxaS4R_DT2xRvkiFk,0.0
warteg kelapa gading,4.7,11,-6.265407,106.792649,"jl. kelapa gading no.37 a, rt.8/rw.2, gandaria sel., kota jakarta selatan",ChIJ3Rga0n3xaS4Rx4lQI3QkKPo,0.0
warteg salma,0.0,0,-6.2633009999999985,106.7924879,"north gandaria, south jakarta city",ChIJ160UlKHxaS4RCpTyEaR3fVk,0.0
warteg mamoka,4.5,191,-6.2719347,106.7965176,"pqhw+6jc, rt.1/rw.4, south gandaria, south jakarta city",ChIJQ-4iYQ3xaS4ROc90Y7wg3QQ,0.0
wahyoo warteg yudi,0.0,0,-6.270960500000001,106.80260619999999,"004, gg. h. musa buntu no.13, rt.14, rt.14/rw.5, cipete sel., kota jakarta selatan",ChIJv-yLqDvxaS4REWfb5UzVtOA,0.0
warteg mustika,4.4,29,-6.2700073,106.79719109999998,"jl. rs. fatmawati raya no.2, rt.1/rw.4, gandaria sel., kota jakarta selatan",ChIJy55LmCHxaS4R_yOLfeYNffA,0.0
warteg selaras bahari,4.7,3,-6.2643499999999985,106.79774499999999,"jl. nangka, rt.2/rw.5, cipete utara, kota jakarta selatan",ChIJ41bAP_jxaS4Rf50QI4ZoMsA,0.0
warteg selera,4.6,13,-6.260402999999998,106.7970268,"jl. rs. fatmawati raya no.1, rt.2/rw.1, cipete utara, kota jakarta selatan",ChIJzRY0eXXxaS4RDvXmGhnQD4Y,0.0
warteg citrajaya bahari,4.1,12,-6.259934500000001,106.7962051,"jl. gotong royong i no.1, rt.4/rw.6, gandaria utara, kota jakarta selatan",ChIJ9fn8wp_xaS4Rnr_xEDKeXI0,0.0
warteg rahayu,0.0,0,-6.260065699999998,106.80069099999999,"jl. damai raya no.20, rt.1/rw.2, cipete utara, kota jakarta selatan",ChIJv4vg6J3xaS4RatIsR5-Eu4w,0.0
warteg kharisma bahari,5.0,8,-6.2677365,106.79674209999999,"jl. madrasah no.1a, rt.3/rw.3, gandaria sel., kota jakarta selatan",ChIJQ4JQ1Q_xaS4R_aKPjG7C_sQ,0.0
warteg murah meriah,4.0,5,-6.2668583,106.8019914,"jl. abdul majid raya no.30, rt.11/rw.2, cipete sel., kota jakarta selatan",ChIJYxvXSJrxaS4R-Sgik59q2Nk,0.0
warteg kharisma bahari,0.0,0,-6.264571,106.799726,"jl. abdul majid raya, rt.13/rw.2, cipete utara, kota jakarta selatan",ChIJNyMYqAPxaS4R7gNXNMCSNY4,0.0
wahyoo warteg sebelah gg haji miad,4.8,10,-6.2667242,106.80409009999998,"jl. abdul majid raya no.3, rt.11/rw.7, cipete sel., kota jakarta selatan",ChIJuU9W4prxaS4Ry-10NNDr1Hk,0.0
warteg kharisma bahari 24,4.6,57,-6.2609493999999986,106.796151,"jl. hidup baru, rt.9/rw.6, gandaria utara, kota jakarta selatan",ChIJuQHgkZ_xaS4RhJK7eLjYLoE,0.0
wahyoo warteg kharisma bahari,5.0,1,-6.260268900000001,106.80112749999999,"jl. damai iv no.5, rt.1/rw.2, cipete utara, kota jakarta selatan",ChIJrwCBZ73xaS4RQeOSCrJbuHM,0.0
warteg palapa bahari,4.8,11,-6.2634235999999985,106.80427479999999,"prp3+jpj, rt.7/rw.7, north cipete, south jakarta city",ChIJ95n_znHxaS4RcMhu3itXWJU,0.0
warteg cipta rasa 4,4.4,86,-6.2643054000000005,106.7974929,"jl. rs. fatmawati raya, rt.3/rw.5, cipete sel., kota jakarta selatan",ChIJCT4HK5nxaS4RRmuy4adlg1A,0.0
warteg citra jaya bahari 24 jam,4.9,7,-6.259878,106.79571899999999,"jl. gotong royong, rt.4/rw.6, gandaria utara, kota jakarta selatan",ChIJj3GRO8DxaS4RJW_37-8rV88,0.0
warteg barokah,3.8,15,-6.258563,106.802274,"no 18, jalan kirai, rt.10/rw.4, cipete utara, kota jakarta selatan",ChIJK_7-mZ3xaS4RG3fPlGRAtKc,0.0
wahyoo warteg sasak sanjaya,5.0,1,-6.268418,106.8022846,"006, jl. sasak no.13, rt.13/rw.5, cipete sel., kota jakarta selatan",ChIJIb1iywnxaS4RZlNSGgR6bio,0.0
warteg 168,4.0,2,-6.263635499999999,106.79454040000002,"jl. h. nawi raya, rt.2/rw.7, gandaria utara, kota jakarta selatan",ChIJBW6EWZ_xaS4Roq_1K9LQ7ps,0.0
warteg rohmadi,0.0,0,-6.2671835,106.79425590000001,"jl. komp. depag no.19, rt.7/rw.3, gandaria sel., kota jakarta selatan",ChIJFemleJjxaS4RUI3pXCOhVdM,0.0
warteg mekar jaya (wmj),3.0,2,-6.270124,106.79727,"jl. rs. fatmawati raya no.8-1, rt.1/rw.4, gandaria sel., kota jakarta selatan",ChIJv83Pi4fxaS4R5cjVT7Qyq0U,0.0
warteg 46,5.0,2,-6.2642370000000005,106.7935285,"jl. h. nawi raya no.46a, rt.6/rw.2, gandaria sel., kota jakarta selatan",ChIJBYMb-KHxaS4RKc7vu-v5SVg,0.0
warteg cita rasa 3,4.0,9,-6.2638568,106.794299,"no. 051, jl. h. nawi raya, rt.7/rw.7, gandaria utara, kota jakarta selatan",ChIJLaE9Vp_xaS4RXEZZp3K0has,0.0
warteg ben jaya,3.5,6,-6.2671015,106.7941082,"jl. madrasah no.4, rt.7/rw.3, gandaria sel., kota jakarta selatan",ChIJ8T2QgaLxaS4Rh4tD2TBG0Us,0.0
warteg restu ibu,5.0,1,-6.2706906999999985,106.79728829999999,"jl. rs. fatmawati raya no.234, rt.1/rw.4, gandaria sel., kota jakarta selatan",ChIJMe6GgpfxaS4RiahGZqvF6BA,0.0
warteg annisa,3.5,2,-6.2705804,106.79624879999999,"jalan mangga nomor 8d, rt.4/rw.4, gandaria sel., kota jakarta selatan",ChIJ0TDKwGEfai4RQBj94PZtAUw,0.0
warteg ceria gotong royong,5.0,1,-6.259770199999998,106.7958452,"4, jl. gotong royong no.8, rt.4/rw.6, gandaria utara, kota jakarta selatan",ChIJMdAUoRzxaS4RguBqpjzrBuI,0.0
warteg kharisma,4.2,30,-6.270607999999998,106.79571499999999,"samping philips, jl. mangga no.5, rt.5/rw.3, gandaria sel., kota jakarta selatan",ChIJo6qq6pfxaS4Rn4QKuHY7PCU,0.0
warteg diva,0.0,0,-6.2613864999999995,106.7997239,"north cipete, south jakarta city",ChIJp_nNfZ7xaS4RbDQO2nxmjM8,0.0
warteg tresna,0.0,0,-6.270738700000001,106.7968358,"jl. mangga, rt.2/rw.5, gandaria sel., kota jakarta selatan",ChIJGT4IopfxaS4RWmtC2NSnj6k,0.0
warteg bmw / warteg bude,5.0,1,-6.2604264,106.80103270000001,"jalan damai iv no.4 rt.004/rw.05, rt.4/rw.2, cipete utara, kota jakarta selatan",ChIJMaAOw53xaS4RW4U7eBhxMd0,0.0
warteg kharisma bahari,4.4,206,-6.2582684,106.7932268,"jl. karya utama no.6, gandaria utara, kota jakarta selatan",ChIJx1eskX_xaS4R07OKpVGmurM,0.0
wahyoo warteg umi,5.0,1,-6.2634595,106.8042898,"prp3+jp7, rt.12/rw.7, north cipete, south jakarta city",ChIJD_eKu1DxaS4RC0k47qoK9lg,0.0
wahyoo warteg selebritis,5.0,2,-6.2598649,106.800184,"jl. damai raya no.27, rt.1/rw.5, cipete utara, kota jakarta selatan",ChIJs8sPq8LxaS4RBgx4yiyXzmE,0.0
warteg yoga,4.8,21,-6.259869,106.805691,"jl. damai raya no.35, rt.7/rw.3, cipete utara, kota jakarta selatan",ChIJN8gxNp3xaS4RlpOsz3cFXrE,0.0
warteg selera,4.3,10,-6.2639969,106.8042005,"jl. h. jian, rt.8/rw.7, cipete utara, kota jakarta selatan",ChIJfQv2YZvxaS4RxXgQR8R773s,0.0
warteg bahari,0.0,0,-6.275544200000001,106.8303481,"jl. amil no.75, rt.12/rw.5, kalibata, kota jakarta selatan",ChIJe16ZcBPtaS4RW-hMZ2nPRU0,0.02426640000000013
warteg,4.3,47,-6.2765407,106.82422199999999,"warteg, jalan pejatan barat raya, rt.2/rw.8, pejaten bar., kota jakarta selatan",ChIJzR3iLiLyaS4R_HUpPw1-R4w,0.019136800000011608
warteg hidayah,5.0,1,-6.2718263,106.82767659999999,"5, jl. kamboja no.43, rw.8, pejaten bar.",ChIJeSROtLjzaS4RolubxfAMtik,0.017877000000009247
warteg 99,4.2,23,-6.274098,106.82209009999998,"jl. kecapi no.3, rt.14/rw.8, pejaten bar., kota jakarta selatan",ChIJy4TQMiHyaS4RyI3wvKzIVBE,0.014562200000002969
warteg berkah,4.3,170,-6.267711599999998,106.8222851,"jl. kemang tim. xii no.7, rt.6/rw.3, bangka, kota jakarta selatan",ChIJ88zNkSjyaS4RS0o4mSnunYM,0.008370800000006895
warteg jaya bahari,4.5,49,-6.2666981,106.80377320000001,"jl. abdul majid raya, rt.11/rw.7, cipete utara, kota jakarta selatan",ChIJPc4q_ZrxaS4Rnb65HJWKVAM,0.02287399999999984
warteg lestari,4.0,1,-6.273784999999998,106.83185800000001,"jl. amil no.mor 82, rt.12/rw.5, kalibata, kota jakarta selatan",ChIJv-QyhTzyaS4RpaVm0DGelts,0.02401710000000179
warteg kharisma bahari,4.4,179,-6.260070100000001,106.8057715,"jl. h. jian no.32, rt.7/rw.3, cipete utara, kota jakarta selatan",ChIJx8p0Sp3xaS4R-_IldqY_PHc,0.015784299999987542
warteg syarifah,4.5,6,-6.2774047,106.82712830000001,"jalan pejaten barat raya no. 34, pejaten barat, pasar minggu, rt.8/rw.8, pejaten bar., kota jakarta selatan",ChIJpYy2t5vzaS4RcUV5QF7iD_c,0.022907100000003844
warteg bu turah,4.4,31,-6.2613799000000006,106.802347,"jakarta selatan, rt.6/rw.2, cipete utara, kota jakarta selatan",ChIJIwFTrZ3xaS4R8yZkk2Jr6pU,0.018981999999996724
warteg bercahaya,4.4,5,-6.258806,106.835951,"jl. duren tiga selatan, rt.15/rw.2, duren tiga, kota jakarta selatan",ChIJr-4DwjnzaS4RqpDIg1cSgx8,0.01719589999999993
warteg nusantara multisukma,4.9,7,-6.2722419999999985,106.83087320000001,"jl. warung buncit raya no.448, rt.3/rw.5, kalibata, kota jakarta selatan",ChIJr7nBP9vzaS4RYhYly09xFB8,0.021489300000004263
warteg wagetun,4.3,14,-6.271634400000001,106.81533700000001,"jl. kemang raya no.95 e, rt.1/rw.2, bangka, kota jakarta selatan",ChIJh867ronxaS4Rc0hjpvuWHW8,0.016246499999994946
warteg bahari,4.3,8,-6.243084899999999,106.8036004,"rt.5/rw.2, melawai, kota jakarta selatan",ChIJnR10wNHxaS4RW1jJIolVFBg,0.0
warteg pandan wangi,4.5,52,-6.243892,106.80157539999999,"jalan hasanudin dalam no.28c blok m, kebayoran baru, rt.3/rw.1, melawai, kota jakarta selatan",ChIJfzFWNWnxaS4RKd8Nme0LbRI,0.0
warteg nojo jaya ciragil,4.2,113,-6.2374415,106.80939579999999,"jl. cikatomas no.12, rt.5/rw.1, rw. bar., kota jakarta selatan",ChIJSfF6m13xaS4RA4-iuuueqIg,0.0
warteg sajny,0.0,0,-6.241383,106.805117,"rt3, jl. tirtayasa v no.5, rt.3/rw.2, melawai, kota jakarta selatan",ChIJezPy70LxaS4RpgoJ3loY8JY,0.0
warteg blok m,0.0,0,-6.243073000000001,106.801823,"jl. falatehan i no.44, rt.2/rw.1, melawai, kota jakarta selatan",ChIJ3zgOI5TxaS4RvxDCNxYwGgg,0.0
warteg sari rasa bahari,4.8,4,-6.241202700000001,106.8086271,"15, rt.15/rw.6, petogogan, kota jakarta selatan",ChIJfcQt7GfxaS4RQPODRu1FWH8,0.0
warteg indah jaya,5.0,2,-6.2413086999999985,106.80849109999998,"jl. cililin no.12a, rt.15/rw.6, petogogan, kota jakarta selatan",ChIJOQgwUWbxaS4RlO0bjH5s4kA,0.0
warteg nurul jaya,5.0,1,-6.2379327999999985,106.8092399,"jl. ciragil ii no.14, rt.4/rw.1, rw. bar., kota jakarta selatan",ChIJlSx6gV3xaS4RX63CdU-RK_c,0.0
warteg bdn,4.5,4,-6.280281,106.79958570000001,"pq9x+vrp, rt.10/rw.11, west cilandak, south jakarta city",ChIJWUq0u0_xaS4RiyQ-DFBvI7Y,0.0
warteg mini,5.0,5,-6.2443728,106.8323338,"jl. tegal parang utara no.37b, rt.7/rw.4, mampang prpt., kota jakarta selatan",ChIJlaMX98TzaS4R6jRYgeneZuc,0.0
warteg latifah,3.9,61,-6.245214499999999,106.8308268,"jl. mampang prapatan iv, rt.15/rw.4, mampang prpt., kota jakarta selatan",ChIJTXvhJ8XzaS4RHQma6XlEioI,0.0
warteg putera bahari,3.0,2,-6.247906400000001,106.8312331,"jl. mampang prapatan viii no.60a, rt.5/rw.1, kuningan, tegal parang, kota jakarta selatan",ChIJkajNQOrzaS4RJvBD1npMCx8,0.0
warteg buncit iv,4.4,16,-6.2480077000000005,106.83215590000002,"jl. tegal parang selatan i no.3a, rt.2/rw.4, tegal parang, kota jakarta selatan",ChIJsTilthjzaS4RGCWgA7NcDMM,0.0
warteg latifah,0.0,0,-6.2451992999999995,106.83064409999999,"jl. bank raya ii no.4 no. 63, rt.7/rw.007, tegal parang, kota jakarta selatan",ChIJ-aZRIYfxaS4R1wkywsKq54M,0.0
warteg ridho illahi,4.4,45,-6.250074099999999,106.8300023,"jl. mampang prapatan xi no.9, rt.9/rw.1, tegal parang, kota jakarta selatan",ChIJxyyO08_zaS4RWyx7hIsTw7M,0.0
warteg putri kirana,5.0,1,-6.250097900000001,106.83640749999999,"jl. pancoran barat vii no.10 a, rt.9/rw.6, pancoran, kota jakarta selatan",ChIJm97M1IHzaS4RflCSpTxdSv4,0.0
warteg kharisma bahari / tasripin,4.4,118,-6.2780903,106.8049547,"jl. cipete raya no.1a, rt.8/rw.4, cipete sel., kota jakarta selatan",ChIJ92bavZLxaS4RuyRU7t5bjv4,0.0
warteg sarapada 4 ibu,4.2,69,-6.2781813999999985,106.8079133,"jl. cipete raya no.61, rt.9/rw.4, cipete sel., kota jakarta selatan",ChIJiZAGPI3xaS4RhKCoGnkNB9E,0.0
warteg anda,5.0,2,-6.2724509999999984,106.803327,"jl. asem dua no.14, rt.1/rw.6, cipete sel., kota jakarta selatan",ChIJ5zKjrDvxaS4RUyfQwcS7jZc,0.0
warteg mpr,4.4,54,-6.2843849999999986,106.80663290000001,"jl. m.p.r iii no.dalam, rt.12/rw.13, cilandak bar., kota jakarta selatan",ChIJcbdCnQ_xaS4RmrM1BqjXTjs,0.0
warteg arip bude,0.0,0,-6.277090599999998,106.8027205,"jakarta selatan, rt.004/rw03, 51c, rt.4/rw.3, cipete sel., kota jakarta selatan",ChIJexlHIK_xaS4R5d-0t8Egbf4,0.0
warteg bahari,5.0,1,-6.265148,106.8239236,"jl. kemang timur no.43, rt.9/rw.3, bangka, kota jakarta selatan",ChIJqyITzS7yaS4RBLkOO45wYq8,0.020291500000002568
warteg,0.0,0,-6.246746099999998,106.82750949999999,"jl. mampang prapatan vi no.17, rt.1/rw.2, tegal parang, kota jakarta selatan",ChIJVaD0kdrzaS4RP4rsT6OP0_g,0.0030018999999974483
warteg bahari,4.2,16,-6.2651463,106.8340135,"jl. wr. jati timur raya no.20, rt.4/rw.9, kalibata, kota jakarta selatan",ChIJrzhpIjHyaS4RSQsSV-ltA_k,0.021902299999995375
warteg falah,4.7,31,-6.2658992,106.82372609999999,"jl. kemang raya no.48, rt.6/rw.3, bangka, kota jakarta selatan",ChIJCXwsr6jzaS4RBkWHb4JImQI,0.021240200000001156
warteg mandiri,4.1,10,-6.266043,106.808127,"jl. duren tiga raya no.48, rt.4/rw.1, duren tiga, kota jakarta selatan",ChIJyyDNSszzaS4RNwTh3ojM5zc,0.0
warteg citra bahari,3.3,3,-6.267001899999999,106.8115929,"jalan haji abdul majid, rt.6/rw.7, cipete sel., kota jakarta selatan",ChIJ6yqP2YXxaS4R8AJUoEswT1U,0.0
warteg,4.4,175,-6.2730144,106.8148675,"jl. kemang sel., rt.5/rw.6, cipete sel., kota jakarta selatan",ChIJwTeEN4bxaS4RuMOTs5rkpNI,0.0
warteg kholifah,5.0,1,-6.270166000000001,106.80896399999999,"jl. manunggal juang no.1, rt.2/rw.3, cipete sel., kota jakarta selatan",ChIJTW4uAObxaS4RztgSpLTVsBs,0.0
warteg dedi,5.0,2,-6.267091400000001,106.8132925,"prm7+587, rt.7/rw.2, bangka, south jakarta city",ChIJpX9E6XLxaS4Rn-JzgszYZB0,0.0
warteg rizal bahari sedia soto ayam,5.0,2,-6.271609099999999,106.8102877,"jl. jaya no.71, rt.1/rw.7, cipete sel., kota jakarta selatan",ChIJf9Li4I7xaS4R7lu2AE0Lquk,0.0
warteg wagetun a.k.a warhol,0.0,0,-6.2716898,106.8154416,"prh8+85g, rt.1/rw.2, bangka, south jakarta city",ChIJyZGQronxaS4Re9hq36L4QoQ,0.0
wahyoo warteg naim,2.8,6,-6.2646063,106.80820940000001,"jl. kh. moh. naim ii no.10, rt.3/rw.11, cipete utara, kota jakarta selatan",ChIJOxqUxgDxaS4RjYgxP5CF6as,0.0
warteg yayu,4.4,8,-6.2728693999999985,106.80968100000001,"jl. puri sakti i no.26a, rt.2/rw.7, cipete sel., kota jakarta selatan",ChIJCbKCjY7xaS4Rq_MXqOSXik8,0.0
warteg illa,0.0,0,-6.270623199999998,106.8086254,"prh5+qf2, rt.13/rw.2, south cipete, south jakarta city",ChIJBUqdpo_xaS4RiwG2VSIElkY,0.0
warteg bu anto,0.0,0,-6.2694312000000005,106.84864950000001,"jl. batu i no.14, rt.14/rw.5, pejaten tim., kota jakarta selatan",ChIJJ0U63ZXzaS4RVJYxRDaPdmo,0.0
warteg yeni,0.0,0,-6.2681749999999985,106.8484206,"prjx+p9m, rt.14/rw.5, east pejaten, south jakarta city",ChIJv_XoDSLzaS4RdqW5fsR9cP8,0.0
warteg baru,4.7,6,-6.270289000000001,106.844388,"jalan warung buncit raya no 7 (dekat halte busway jatipadang), rt.6/rw.1, pejaten bar., kota jakarta selatan",ChIJif___0byaS4RQFXVn523rY4,0.0
warteg wahyu,4.3,3,-6.268618999999998,106.84605630000001,"jl. raya pasar minggu no.8c, rt.12/rw.1, pejaten tim., kota jakarta selatan",ChIJqRViPUbyaS4RWCZ0G5hXc0A,0.0
warteg rinjani,4.9,55,-6.2681949,106.8400081,"gang f no.19 rt 12, rt.1/rw.1, pejaten bar., kota jakarta selatan",ChIJCTcN-EfyaS4R-7UcC_gPMMk,0.0
warteg jaya,3.9,28,-6.2712921999999995,106.83793390000001,"jl. siaga raya no.40, rt.16/rw.4, pejaten bar., kota jakarta selatan",ChIJba7_GjnyaS4RwvL_2vfaeuE,0.0
warteg kharisma bahari,4.9,17,-6.270404099999999,106.83775320000001,"jl. komp. siaga utama no.3, rt.7/rw.4, pejaten bar., kota jakarta selatan",ChIJTV4FpL7zaS4REiOUTGqhK9U,0.0
warteg alief bahari,4.0,5,-6.2697337,106.83985600000001,"jl. al fajri no.17, rt.12/rw.1, pejaten bar., kota jakarta selatan",ChIJ1zHFQjjyaS4RZSMp80Bh5c8,0.0
wahyoo warteg anugrah,5.0,1,-6.267257099999999,106.8374,"jl. siaga raya no.9, rt.14/rw.4, pejaten bar., kota jakarta selatan",ChIJzUyWbjfyaS4R0FBhXmuLbwo,0.0
warteg salsabila ( warung makan )üè£,4.4,8,-6.2722508,106.8464372,"gg. bend. no.39, rt.1/rw.3, pejaten bar., kota jakarta selatan",ChIJ24VZsEbyaS4Rq1YUWGLo7VE,0.0
warteg rahayu,4.3,23,-6.272866199999998,106.8475613,"jl. rawajati timur, rt.6/rw.6, pejaten tim., kota jakarta selatan",ChIJ7_t8_0PyaS4RetfTi5UxFYI,0.0
warteg ibu wiwi,4.6,81,-6.2724758000000005,106.8409511,"jl. warga i ma no.69, rt.14/rw.3, pejaten bar., kota jakarta selatan",ChIJ3dzsrjjyaS4R8q0L6svz864,0.0
warteg kowantara jaksel,5.0,1,-6.272705999999999,106.83756090000001,"jl. amil no.7, rt.4/rw.3, pejaten bar., kota jakarta selatan",ChIJ0-t3MTnyaS4RC2XU2vafM4E,0.0
warteg sederhana purbaya,5.0,1,-6.272487,106.84672490000001,"jl. purbaya no.11, rt.11/rw.5, pejaten tim., kota jakarta selatan",ChIJw-bjRWbzaS4RK-wqkq5nedw,0.0
warteg slawi ayu,0.0,0,-6.2709874,106.8357871,"jl. siaga swadaya no.8, rt.6/rw.4, pejaten bar., kota jakarta selatan",ChIJRaCLpqzzaS4R7cQ_uhZbY24,0.0
warteg sony  berhias ,4.2,5,-6.260897,106.835554,"no pancoran, jl. kalibata utara ii no.63, rt.8/rw.7, kalibata, kota jakarta selatan",ChIJxT10eDTyaS4RXaNA1c1Uvhg,0.0
warteg kharisma bahari,0.0,0,-6.2670846,106.8450173,"prmw+526, rt.12/rw.1, east pejaten, south jakarta city",ChIJW3WhQWLzaS4R_JkL2a54If4,0.0
warteg putra bahari,4.3,4,-6.245657700000001,106.819603,"rt.2/rw.3, pela mampang, kota jakarta selatan",ChIJVVVVaNjzaS4RyixQLFrqka8,0.010232800000001596
warteg gaspoll,4.6,37,-6.23992,106.81188799999998,"santa modern market, lantai 2 no. 171-172, rt.5/rw.4, petogogan, kota jakarta selatan",ChIJox4BmHnxaS4R391rlmpggsA,0.02033850000000648
warteg,4.2,10,-6.238093900000001,106.82719209999999,"jl. gatot subroto no.23, rt.2/rw.2, kuningan bar., kota jakarta selatan",ChIJkX-lW93zaS4R14XAXTz3ayU,0.0068604999999966046
warteg saleh jaya,4.6,21,-6.244921,106.81018600000002,"jalan petogogan ii no.30p, pulo, rt.9/rw.5, petogogan, kota jakarta selatan",ChIJeVL2pHTxaS4RiuAtQ7S6Qkg,0.018913100000000682
warteg bu yanti,4.8,12,-6.245361,106.82742830000001,"jl. mampang prapatan iv, rt.5/rw.5, mampang prpt., kota jakarta selatan",ChIJnUe14trzaS4RXKiE7Rit_eo,0.002110800000008517
warteg kar1mah bahari,4.7,3,-6.260486299999998,106.8232763,"jl. kemang timur no.21, rt.5/rw.4, bangka, kota jakarta selatan",ChIJ-SQ7eSvyaS4RTa4L3WszsgE,0.02138809999999847
warteg jayabahari,4.4,104,-6.2579525999999985,106.8233462,"jl. kemang utara no.55, rt.2/rw.4, bangka, kota jakarta selatan",ChIJp9qMq9TzaS4R3a846-2OsiY,0.018784499999998868
warteg barokah,4.0,1,-6.243405200000001,106.83541699999999,"jl. pancoran barat xic, rt.5/rw.3, pancoran, kota jakarta selatan",ChIJM-bbHcTzaS4Rd_xzhiQUmbw,0.007833700000004384
warteg nojo jaya,4.1,130,-6.2369222,106.8169473,"jl. rengas 3 no.1, rt.7/rw.2, rw. bar., kota jakarta selatan",ChIJe36y7V_xaS4Rg4XGMfLfIX0,0.018277000000006538
warteg nojo jaya,4.3,52,-6.246447900000001,106.8187618,"jl. bangka ii no.44b, rt.1/rw.3, pela mampang, kota jakarta selatan",ChIJx7Z8btjzaS4RPtfQJN3azZ0,0.011864199999997993
warteg bahari jaya,0.0,0,-6.2390041,106.81887340000002,"jl. kapten tendean, rt.6/rw.5, kuningan bar., kota jakarta selatan",ChIJ-RZCiKvzaS4RtAav75WND64,0.01426900000000142
warteg pojok,4.5,4,-6.2426382999999985,106.83677150000001,"jl. pancoran barat xi no.19, rt.1/rw.3, pancoran, kota jakarta selatan",ChIJ97NFtMbzaS4R11zCKNnQMXo,0.009955099999995555
warteg dj,4.6,18,-6.229369999999999,106.82157600000001,"jl. guru mughni no.9, rt.2/rw.5, kuningan, kuningan tim., kota jakarta selatan",ChIJ-zMdEOPzaS4RsP1D_W1cffk,0.02120050000000884
warteg rejo,4.3,85,-6.250047400000001,106.83650049999999,"jl. pancoran barat vii, rt.3/rw.6, pancoran, kota jakarta selatan",ChIJwzmO2MjzaS4RhQ3lUJ_iSZo,0.014401399999997013
warteg bahari,4.1,17,-6.2580227,106.82801440000001,"jl. warung buncit raya no.36, rt.1/rw.2, duren tiga, kota jakarta selatan",ChIJS-zbdi3yaS4RocYBNmpdJpw,0.014186400000001598
warteg kembang,4.1,148,-6.2269406,106.8218963,"jl. guru mughni jl. sd no.21, rt.5/rw.1, kuningan, kuningan tim., kota jakarta selatan",ChIJfeXGxPzzaS4Ra8mJIOI6C5w,0.0233095999999966
warteg putri barokah,5.0,3,-6.246687400000001,106.82894679999998,"jl. mampang prapatan vi, rt.8/rw.2, tegal parang, kota jakarta selatan",ChIJSalwt9rzaS4Rebe67f7j1XE,0.003487699999994653
warteg bahari,4.4,5,-6.2436783,106.82599569999999,"jl. mampang prapatan ii, rt.1/rw.5, mampang prpt., kota jakarta selatan",ChIJgeVMl9vzaS4RYj_nLr2mHlI,0.0024724999999952146
warteg bahari 11,5.0,5,-6.230938,106.82346899999999,"jl. komp. tni (auri) no.11, rt.3/rw.3, kuningan, kuningan tim., kota jakarta selatan",ChIJxw7cHCzzaS4Rtw7d-RgE6ak,0.017739499999999353
warteg bu ati,0.0,0,-6.2294003999999985,106.8215767,"jl. guru mughni no.10, rt.2/rw.5, kuningan, kuningan tim., kota jakarta selatan",ChIJezhuEOPzaS4R_31zYm2fBZg,0.02116940000000866
warteg bahariin,0.0,0,-6.2419072,106.8370313,"jl. pancoran barat xi, rt.1/rw.3, pancoran, kota jakarta selatan",ChIJmwIiSLTzaS4RCHygGEbhyUg,0.01094600000000412
wahyoo warteg bahari tegal,4.2,33,-6.245285,106.832002,"jl. mampang prpt. raya no.50, rt.6/rw.2, tegal parang, jakarta",ChIJYRJm8HDzaS4R2dbsP7HAQQY,0.0051405000000004355
warteg sederhana,4.7,11,-6.248002,106.816425,"5 no, jl. bangka no.13, rt.10/rw.3, pela mampang, dki jakarta",ChIJw3WatWLxaS4RRAE587JshQE,0.015755100000006902
warteg idola,3.5,4,-6.253014599999998,106.82544229999999,"prwg+q5w, rt.1/rw.6, duren tiga, south jakarta city",ChIJT_bXYdHzaS4R27unIxkFFeE,0.011750399999995942
warteg darmo,5.0,2,-6.251923499999998,106.82125959999999,"jl. bangka, rt.10/rw.10, pela mampang, kota jakarta selatan",ChIJBQWMmNbzaS4RcczX4-mhAxo,0.014841999999997137
warteg xii mutiara bahari,4.8,6,-6.2456644,106.81555859999999,"rt.1/rw.11, pela mampang, kota jakarta selatan",ChIJ-1nXV2LxaS4RZv5LRU6mKHY,0.014283899999999685
warteg rizky,3.8,9,-6.229686,106.8225727,"jalan perintis rt.2/rw.5, rt.3/rw.5, kuningan, kuningan tim., kota jakarta selatan",ChIJq15KFOPzaS4RRIvf0vROEU4,0.019887800000007342
warteg rido ilahi,5.0,1,-6.2545115,106.83366000000001,"jl. duren tiga raya no.54, rt.4/rw.1, duren tiga, kota jakarta selatan",ChIJnwuHRMzzaS4RMUc33pEyWKc,0.016024999999991962
warteg slawi ayu,4.1,12,-6.251524300000002,106.8236075,"jl. bangka ix no.49, rt.8/rw.10, pela mampang, kota jakarta selatan",ChIJEfkqNdHzaS4R34pjpXPkJo0,0.012094900000009012
warteg jaya bahari,3.8,71,-6.2429118,106.8324035,"jl. tegal parang utara no.8, rw.4, mampang prapatan, south jakarta city",ChIJLxmzydXzaS4RwXUdsDypiro,0.005313599999995589
warteg kenanga,5.0,1,-6.2599712,106.82854850000001,"jl. warung buncit raya no.49, rt.2/rw.2, duren tiga, kota jakarta selatan",ChIJuW9PgJvzaS4RmFUV_xcLAXQ,0.01637319999999409
warteg jaya bahari,4.6,5,-6.241229,106.8177995,"jl. bangka raya no.10, rt.2/rw.1, pela mampang, kota jakarta selatan",ChIJVYhx2GHxaS4R8ZbmSUf-62k,0.013117999999995966
warteg ridho ibu,4.6,15,-6.240116,106.84523329999999,"jl. prof. dr. soepomo no.31, rt.4/rw.1, menteng dalam, kota jakarta selatan",ChIJY5BMw77zaS4RcRklqw5XtMI,0.020939200000000824
warteg bahari kharisma,4.4,41,-6.243481099999999,106.8290251,"jl. mampang prapatan ii no.74, rt.11/rw.5, mampang prpt., kota jakarta selatan",ChIJf6QHT9vzaS4RCFGlBe2Zi_M,0.0013658999999943688
warteg yana,5.0,2,-6.246696900000001,106.8259189,"jl. mampang prpt. raya no.70 d, rt.9/rw.3, tegal parang, kota jakarta selatan",ChIJiTxjb9rzaS4REM1n7VAkszE,0.0049560999999975755
warteg sri rejeki,4.5,45,-6.246705,106.82913300000001,"jl. mampang prpt. raya no.17, rt.8/rw.2, tegal parang, kota jakarta selatan",ChIJ8_93t9rzaS4RG7EsXgnOoYc,0.00369149999999685
warteg jaya,3.0,1,-6.237504,106.81493300000001,"#, jl. birah ii no.4, rt.6/rw.6, rw. bar., kota jakarta selatan",ChIJy_TP0l_xaS4RN33VNof7puc,0.0197095000000056
warteg khasanah,4.7,9,-6.2481751,106.82585049999999,"jl. mampang prapatan vii no.28, rt.8/rw.008, tegal parang, kota jakarta selatan",ChIJ1Wwwm9DzaS4R6U2I1ns6Ld0,0.006502700000001305
warteg jaya makmur,5.0,4,-6.241175900000001,106.84464990000001,"jl. prof. dr. soepomo no.7, rt.4/rw.1, menteng dalam, kota jakarta selatan",ChIJYwXw0eXzaS4R2BJWYmrH6xs,0.0192958999999906
warteg jaya makmur,4.1,13,-6.247274,106.842307,"jl. raya psr minggu, rt.1/rw.4, pancoran, kota jakarta selatan",ChIJ9coSHbjzaS4R2kA_O_yILi8,0.017434500000002906
warteg kharisma bahari,4.2,99,-6.2403191,106.8292345,"jl. mp. prapatan gg. iv, rt.2/rw.2, tegal parang, kota jakarta selatan",ChIJJ5S9HgLzaS4RHz4FCQd7O2s,0.0047372999999959475
warteg timbul jaya 4,4.1,13,-6.2494235,106.81775900000001,"no.23, jl. bangka raya no.8, rt.2/rw.12, pela mampang, kota jakarta selatan",ChIJ6QThX33xaS4RyXnW6W5LXYY,0.015842600000007145
warteg putra bahari 2,0.0,0,-6.235429,106.82071200000001,"jl. kuningan bar. 1, rt.12/rw.1, kuningan bar., kota jakarta selatan",ChIJ661_kJzzaS4RVRZcnAznOn8,0.016005500000002115
warteg bangka 2,4.4,113,-6.2438636,106.81921799999999,"jl. bangka ii no.rt.12, rt.12/rw.1, pela mampang, kota jakarta selatan",ChIJyzDruNjzaS4RBaMrsK3v6lU,0.009064899999995824
warteg alfar,0.0,0,-6.2422301,106.83229009999998,"jl. tegal parang sel., rt.2/rw.4, mampang prpt., kota jakarta selatan",ChIJQ1BJecPzaS4R0CFExOnZawU,0.005881899999992335
warteg latifah,4.3,21,-6.266245,106.8422818,"jalan warung jati timur, rt.10, pejaten bar., kota jakarta selatan",ChIJF3u8PEjyaS4RppTLQD3jtGY,0.0
warteg arisba,4.0,1,-6.2624065,106.8462673,"jl. kalibata timur no.31, rt.9/rw.8, pejaten tim., kota jakarta selatan",ChIJB9UqbXvzaS4R78pKGmp2q2g,0.0
warteg rizki,4.1,65,-6.2660974000000005,106.83735549999999,"jl. h. samali no.85a, rt.19/rw.1, pejaten bar., kota jakarta selatan",ChIJfSI6FzfyaS4RV5A5eTBt33M,0.0
dapur warteg putra jaya,3.8,10,-6.2586857,106.8368179,"jl. gajah mungkur, rt.11/rw.3, duren tiga, jakarta",ChIJMak7vzTyaS4RL7jm4GLN5ho,0.0
warteg pesona,4.5,12,-6.2662670999999985,106.84097790000001,"jl. h. samali no.3, rt.13/rw.1, pejaten bar., kota jakarta selatan",ChIJ-akM3DfyaS4R0B-mxTXBUCM,0.0
warteg narti,4.6,18,-6.26649,106.8445837,"jl. raya pasar minggu no.km. 18, rt.13/rw.1, pejaten bar., kota jakarta selatan",ChIJIS0mi0jyaS4RcS_Vt4iQEx4,0.0
warteg aji,3.9,14,-6.2590796,106.84362709999999,"jl. kalibata timur i gg. rukun no.2, rt.1/rw.8, kalibata, kota jakarta selatan",ChIJJ6716EryaS4RanjpCv2gLg8,0.0
warteg berkah,4.6,15,-6.260322299999999,106.84336429999999,"jl. raya pasar minggu no.4, rt.5/rw.8, kalibata, kota jakarta selatan",ChIJHzBDQ0ryaS4RnbkZLtNcKPg,0.0
warteg pancoran,4.2,67,-6.262366099999999,106.84588529999999,"jl. kalibata timur no.49, rt.9/rw.8, kalibata, kota jakarta selatan",ChIJBf9O3kvyaS4RfEJORj-sS-w,0.0
warteg kowantara jakarta selatan,0.0,0,-6.260827900000001,106.8433146,"jl. raya pasar minggu no.4, rt.5/rw.8, kalibata, kota jakarta selatan",ChIJ-_NRWUryaS4RkR4zsF4Gt6U,0.0
warteg sederhana ibu siti,5.0,8,-6.263507,106.84302,"blok kalibata selatan 2g jalan kalibata selatan ii b blok kalibata selatan 2g no.16a, rt.1/rw.4, kalibata, kota jakarta selatan",ChIJ0xHK7EnyaS4R_78youc08X0,0.0
warteg doa ibu,4.0,2,-6.262507100000001,106.84734909999999,"jl. kalibata timur no.66, rt.14/rw.1, pejaten tim., kota jakarta selatan",ChIJV98AAEzyaS4RXTNYZZrC51s,0.0
warteg bu haji,0.0,0,-6.2533106,106.8481756,"jl. kh.mahmud,buntu no.7, rt.5/rw.4, duren tiga, kota jakarta selatan",ChIJs0Hks73zaS4R7qyhiRJX9jk,0.0
wahyoo warteg pada rukun 2,5.0,1,-6.2602198,106.8403418,"jl. kalibata utara ii no.62, rt.5/rw.2, kalibata, kota jakarta selatan",ChIJ_ZYjot_zaS4Rj4j_DDqr_hU,0.0
warteg dewi,3.8,4,-6.2534892,106.840767,"jl. duren tiga raya, rt.1/rw.1, pancoran, kota jakarta selatan",ChIJ624TDsrzaS4RtcJpUsWQ24E,0.0
warteg zakaria,0.0,0,-6.258705600000001,106.83778319999999,"jl. duren tiga selatan no.67, rt.8/rw.3, duren tiga, kota jakarta selatan",ChIJEdU31onzaS4R3-9pMWJZO68,0.0
warteg subsidi,4.7,10,-6.258696700000001,106.8417007,"jl. duren tiga selatan no.37, rt.1/rw.2, kalibata, kota jakarta selatan",ChIJp7MTo4XzaS4R9aub3jE0gd4,0.0
warteg dapuk,4.1,113,-6.253419900000001,106.8384314,"jl. duren tiga selatan, rt.3/rw.6, duren tiga, kota jakarta selatan",ChIJpbbHNhfzaS4RXx6_ORxH6x8,0.0
warteg pesona bahari,4.5,6,-6.253236900000001,106.84261540000001,"jl. raya pasar minggu no.46, rt.3/rw.7, duren tiga, kota jakarta selatan",ChIJtb4l6bXzaS4RroOmPgeOchY,0.0
warteg jaya makmur,0.0,0,-6.2658181,106.8442605,"jl. raya pasar minggu, rt.13/rw.1, pejaten tim., kota jakarta selatan",ChIJHdODV0jyaS4RZvtForGZfpo,0.0
warteg kharisma bahari,3.8,21,-6.253233,106.8373344,"jl. duren tiga raya no.41, rt.5/rw.6, duren tiga, kota jakarta selatan",ChIJYwBuaqbzaS4Rc_bfFtZiX4c,0.0
wahyoo warteg,4.1,13,-6.2623674000000005,106.84588500000001,"jl. empang 3/kalibata tim., rt.9/rw.8, kalibata, kota jakarta selatan",ChIJ46Cc4EvyaS4Rmd4oJ7rsdLg,0.0
warteg tigaputri,0.0,0,-6.2601806,106.8433285,"jl. raya pasar minggu, rt.5/rw.8, kalibata, kota jakarta selatan",ChIJE_zHWEryaS4REwrLNKTzu8Q,0.0
warteg latifah,4.6,42,-6.2571283,106.8169117,"prv8+4qv, rt.5/rw.1, bangka, south jakarta city",ChIJc-5_wn_xaS4RRhfzbFQQ6B8,0.0
warteg bejo,4.5,114,-6.258194599999999,106.8134351,"jl. kemang i no.12, rt.10/rw.1, bangka, kota jakarta selatan",ChIJZVTwuK_xaS4RHEFvuzuSxyw,0.0
warteg kharisma bahari,4.4,134,-6.2641376,106.8090111,"jl. khm. naim iii no.11, rt.5/rw.9, cipete utara, kota jakarta selatan",ChIJ32eNfYTxaS4RPMzLYLN43zk,0.0
warteg kharisma bahari,4.3,3,-6.2571620999999995,106.8184548,"jl. kemang barat no.16, rt.6/rw.5, bangka, kota jakarta selatan",ChIJOxi72bzzaS4RlvjFPBNt4kc,0.0
warteg mojo,3.9,15,-6.2517871,106.8170368,"jl. bangka ix no.100, rt.3/rw.12, pela mampang, kota jakarta selatan",ChIJNdOYjH3xaS4Rk1oL3l1tnB0,0.0
wahyoo warteg tegal bahari,0.0,0,-6.2637201,106.80791299999999,"012, jl. h. sa'aba no.8a, rt.3/rw.11, cipete utara, kota jakarta selatan",ChIJ96k_jIHxaS4RaRUgenP3ZDU,0.0
warteg jippo,4.5,6,-6.257980799999999,106.80719429999999,"jl. anggur v, rt.3/rw.3, cipete utara, kota jakarta selatan",ChIJOSU7EnjxaS4R_IVdjn8r26A,0.0
simpang raya rm warteg kecil,4.6,14,-6.2572807,106.81616399999999,"jl. kemang utara, rt.4/rw.1, bangka, kota jakarta selatan",ChIJ6ZkBlX_xaS4RHQ5_31o7o94,0.0
warteg sederhana,4.4,48,-6.264538000000001,106.8089784,"jl. khm. naim iii b no.11, rt.7/rw.9, cipete utara, kota jakarta selatan",ChIJMWiYWoTxaS4R7M_b64dog7Y,0.0
warteg ibu lilis,4.9,7,-6.2597540999999985,106.8071358,"jl. putih melati no.11, rt.11/rw.3, cipete utara, kota jakarta selatan",ChIJrXQb3znxaS4RqKDZxl-bFoc,0.0
warteg abil jaya,4.3,36,-6.251912799999999,106.8179044,"jl. bangka ix, rt.3/rw.12, pela mampang, kota jakarta selatan",ChIJbWYTINbzaS4R30dW265Wz7s,0.0
warteg bahari,4.5,12,-6.2355784000000005,106.84283500000001,"jl. masjid an nur no.24a, rt.4/rw.2, menteng dalam, kota jakarta selatan",ChIJlXALPpXzaS4RrjkhZxIhv9I,0.0
warteg rasamala,4.0,104,-6.2361868,106.84021470000002,"jl. rasamala raya no.24, rt.9/rw.2, menteng dalam, kota jakarta selatan",ChIJ802RvurzaS4Rx2pin99rm7A,0.0
warteg podomoro 3,5.0,1,-6.2321442000000005,106.8441351,"jalan merpati 3 no.26, rt.1/rw.3, menteng dalam, kota jakarta selatan",ChIJBzn-f5PzaS4R17_-nsHYGso,0.0
warteg berkah jaya,0.0,0,-6.2347538,106.84029840000002,"jl. rasamala 1 no.2a, rt.4/rw.2, menteng dalam, kota jakarta selatan",ChIJYeUz2erzaS4RoDId64f4Zzw,0.0
warteg safari kh. ramli,4.4,95,-6.2322685,106.8447206,"jl. k.h. ramli no.10, rt.1, menteng dalam, kota jakarta selatan",ChIJUxS1fpTzaS4RRYf5AS84-xU,0.0
warteg satria,4.5,101,-6.234213599999999,106.84669,"jl. tebet barat dalam raya no.9, rt.8/rw.2, tebet bar., kota jakarta selatan",ChIJD1kzWe3zaS4Rav1WOP5rHZk,0.0
warteg pink,4.7,123,-6.2277749999999985,106.84607890000001,"jl. pal batu 1 no.20a, rt.4/rw.4, menteng dalam, kota jakarta selatan",ChIJG8nNjGfzaS4R9LYQ37Iqt2c,0.0
warteg salsabilla,4.2,31,-6.2347018,106.8378487,"2, jl. rasamala iii no.3, rt.2/rw.13, menteng dalam, kota jakarta selatan",ChIJq93OrevzaS4R8Q3x2ynNcyI,0.0
warteg podomoro,4.3,3,-6.2317885,106.8442469,"jl. k.h. ramli no.8b, rt.2/rw.3, menteng dalam, kota jakarta selatan",ChIJCePlUpPzaS4RXx0zXNYM_TM,0.0
warteg ridho ibu,3.0,3,-6.2341824,106.8439636,"jl. masjid an nur, rt.1/rw.2, menteng dalam, kota jakarta selatan",ChIJjzqq_pTzaS4RjZoeQHdfudg,0.0
warteg kharisma,4.9,9,-6.2383967999999985,106.8473758,"jl. tebet barat dalam iv, rt.15/rw.6, tebet bar., kota jakarta selatan",ChIJt8or7tDzaS4R-H8EdwDC7z8,0.0
