nama_tempat,rating_tempat,user_ratings_total,latitude,longitude,alamat_tempat,place_id,distance
warteg bahari,4.3,8,-6.243084899999999,106.8036004,"rt.5/rw.2, melawai, kota jakarta selatan",ChIJnR10wNHxaS4RW1jJIolVFBg,0.01901000000000952
warteg putra bahari,4.3,4,-6.2456577,106.819603,"rt.2/rw.3, pela mampang, kota jakarta selatan",ChIJVVVVaNjzaS4RyixQLFrqka8,0.00986479999999812
warteg gaspoll,4.6,37,-6.23992,106.811888,"santa modern market, lantai 2 no. 171-172, rt.5/rw.4, petogogan, kota jakarta selatan",ChIJox4BmHnxaS4R391rlmpggsA,0.013887300000005709
warteg,4.2,10,-6.238093900000001,106.8271921,"jl. gatot subroto no.23, rt.2/rw.2, kuningan bar., kota jakarta selatan",ChIJkX-lW93zaS4R14XAXTz3ayU,0.025017700000001142
warteg saleh jaya,4.6,21,-6.244921,106.810186,"jalan petogogan ii no.30p, pulo, rt.9/rw.5, petogogan, kota jakarta selatan",ChIJeVL2pHTxaS4RiuAtQ7S6Qkg,0.010588300000000217
warteg bu yanti,4.8,12,-6.245361,106.8274283,"jl. mampang prapatan iv, rt.5/rw.5, mampang prpt., kota jakarta selatan",ChIJnUe14trzaS4RXKiE7Rit_eo,0.0179867999999912
warteg bahari,5,1,-6.265148,106.8239236,"jl. kemang timur no.43, rt.9/rw.3, bangka, kota jakarta selatan",ChIJqyITzS7yaS4RBLkOO45wYq8,0.023376299999998906
warteg bu turah,4.4,31,-6.2613799,106.802347,"jakarta selatan, rt.6/rw.2, cipete utara, kota jakarta selatan",ChIJIwFTrZ3xaS4R8yZkk2Jr6pU,0.023113400000005058
warteg kar1mah bahari,4.7,3,-6.260486299999999,106.8232763,"jl. kemang timur no.21, rt.5/rw.4, bangka, kota jakarta selatan",ChIJ-SQ7eSvyaS4RTa4L3WszsgE,0.01806730000000112
warteg jayabahari,4.4,104,-6.257952599999999,106.8233462,"jl. kemang utara no.55, rt.2/rw.4, bangka, kota jakarta selatan",ChIJp9qMq9TzaS4R3a846-2OsiY,0.015603500000000992
warteg kharisma bahari,4.4,134,-6.2641376,106.8090111,"jl. khm. naim iii no.11, rt.5/rw.9, cipete utara, kota jakarta selatan",ChIJ32eNfYTxaS4RPMzLYLN43zk,0.0192069999999962
warteg mandiri,4.1,10,-6.266043,106.808127,"jl. duren tiga raya no.48, rt.4/rw.1, duren tiga, kota jakarta selatan",ChIJyyDNSszzaS4RNwTh3ojM5zc,0.02199650000000375
warteg selaras bahari,4.7,3,-6.264349999999999,106.797745,"jl. nangka, rt.2/rw.5, cipete utara, kota jakarta selatan",ChIJ41bAP_jxaS4Rf50QI4ZoMsA,0.030685499999996146
warteg barokah,3.8,15,-6.258563,106.802274,"no 18, jalan kirai, rt.10/rw.4, cipete utara, kota jakarta selatan",ChIJK_7-mZ3xaS4RG3fPlGRAtKc,0.02036950000000548
warteg nojo jaya,4.1,130,-6.2369222,106.8169473,"jl. rengas 3 no.1, rt.7/rw.2, rw. bar., kota jakarta selatan",ChIJe36y7V_xaS4Rg4XGMfLfIX0,0.015944599999992093
warteg nojo jaya ciragil,4.2,113,-6.2374415,106.8093958,"jl. cikatomas no.12, rt.5/rw.1, rw. bar., kota jakarta selatan",ChIJSfF6m13xaS4RA4-iuuueqIg,0.018857999999997155
warteg latifah,4.5,87,-6.2479931,106.8283968,"jl. mampang prapatan viii, rt.2/rw.2, tegal parang, kota jakarta selatan",ChIJ3ROwC9DzaS4Rtjta9p9Pkrk,0.016323199999989768
warteg nojo jaya,4.3,52,-6.2464479,106.8187618,"jl. bangka ii no.44b, rt.1/rw.3, pela mampang, kota jakarta selatan",ChIJx7Z8btjzaS4RPtfQJN3azZ0,0.008233400000001723
warteg bahari jaya,0,0,-6.2390041,106.8188734,"jl. kapten tendean, rt.6/rw.5, kuningan bar., kota jakarta selatan",ChIJ-RZCiKvzaS4RtAav75WND64,0.015788799999998382
warteg pusri,4.3,74,-6.2685656,106.8185455,"jl. kemang dalam x, rt.5/rw.2, bangka, kota jakarta selatan",ChIJB2v5ByjyaS4ROSpxhg8l-Gg,0.0214157999999971
warteg berkah,4.3,170,-6.267711599999999,106.8222851,"jl. kemang tim. xii no.7, rt.6/rw.3, bangka, kota jakarta selatan",ChIJ88zNkSjyaS4RS0o4mSnunYM,0.024301399999999695
warteg jaya bahari,4.5,49,-6.2666981,106.8037732,"jl. abdul majid raya, rt.11/rw.7, cipete utara, kota jakarta selatan",ChIJPc4q_ZrxaS4Rnb65HJWKVAM,0.027005400000008173
warteg bahari,4.1,17,-6.2580227,106.8280144,"jl. warung buncit raya no.36, rt.1/rw.2, duren tiga, kota jakarta selatan",ChIJS-zbdi3yaS4RocYBNmpdJpw,0.020341799999998855
warteg putri barokah,5,3,-6.2466874,106.8289468,"jl. mampang prapatan vi, rt.8/rw.2, tegal parang, kota jakarta selatan",ChIJSalwt9rzaS4Rebe67f7j1XE,0.018178899999994336
warteg bahari,4.4,5,-6.2436783,106.8259957,"jl. mampang prapatan ii, rt.1/rw.5, mampang prpt., kota jakarta selatan",ChIJgeVMl9vzaS4RYj_nLr2mHlI,0.01823690000000422
warteg selera,4.6,13,-6.260402999999999,106.7970268,"jl. rs. fatmawati raya no.1, rt.2/rw.1, cipete utara, kota jakarta selatan",ChIJzRY0eXXxaS4RDvXmGhnQD4Y,0.027456700000004552
wahyoo warteg putri jaya,5,2,-6.263434699999999,106.8294758,"jl. warung jati barat i no.42, rt.6/rw.3, kalibata, kota jakarta selatan",ChIJ-bUkHS7yaS4Rerw3pjsJnso,0.027215199999994333
wahyoo warteg bahari tegal,4.2,33,-6.245285,106.832002,"jl. mampang prpt. raya no.50, rt.6/rw.2, tegal parang, jakarta",ChIJYRJm8HDzaS4R2dbsP7HAQQY,0.02263649999999995
warteg falah,4.7,31,-6.2658992,106.8237261,"jl. kemang raya no.48, rt.6/rw.3, bangka, kota jakarta selatan",ChIJCXwsr6jzaS4RBkWHb4JImQI,0.023930000000000007
warteg citra bahari,3.3,3,-6.267001899999999,106.8115929,"jalan haji abdul majid, rt.6/rw.7, cipete sel., kota jakarta selatan",ChIJ6yqP2YXxaS4R8AJUoEswT1U,0.01948950000000771
warteg latifah,4.6,42,-6.2571283,106.8169117,"prv8+4qv, rt.5/rw.1, bangka, south jakarta city",ChIJc-5_wn_xaS4RRhfzbFQQ6B8,0.008344700000003868
warteg idola,3.5,4,-6.253014599999999,106.8254423,"prwg+q5w, rt.1/rw.6, duren tiga, south jakarta city",ChIJT_bXYdHzaS4R27unIxkFFeE,0.012761600000003703
warteg darmo,5,2,-6.251923499999999,106.8212596,"jl. bangka, rt.10/rw.10, pela mampang, kota jakarta selatan",ChIJBQWMmNbzaS4RcczX4-mhAxo,0.007487800000002487
warteg xii mutiara bahari,4.8,6,-6.2456644,106.8155586,"rt.1/rw.11, pela mampang, kota jakarta selatan",ChIJ-1nXV2LxaS4RZv5LRU6mKHY,0.005813700000000033
warteg kenanga,5,1,-6.2599712,106.8285485,"jl. warung buncit raya no.49, rt.2/rw.2, duren tiga, kota jakarta selatan",ChIJuW9PgJvzaS4RmFUV_xcLAXQ,0.02282439999999486
warteg kharisma bahari,4.4,179,-6.260070100000001,106.8057715,"jl. h. jian no.32, rt.7/rw.3, cipete utara, kota jakarta selatan",ChIJx8p0Sp3xaS4R-_IldqY_PHc,0.018379099999997983
warteg slawi ayu,4.1,12,-6.251524300000001,106.8236075,"jl. bangka ix no.49, rt.8/rw.10, pela mampang, kota jakarta selatan",ChIJEfkqNdHzaS4R34pjpXPkJo0,0.009436499999993408
warteg mojo,3.9,15,-6.2517871,106.8170368,"jl. bangka ix no.100, rt.3/rw.12, pela mampang, kota jakarta selatan",ChIJNdOYjH3xaS4Rk1oL3l1tnB0,0.003128599999994819
warteg jaya bahari,3.8,71,-6.2429118,106.8324035,"jl. tegal parang utara no.8, rw.4, mampang prapatan, south jakarta city",ChIJLxmzydXzaS4RwXUdsDypiro,0.025411199999995304
warteg jaya bahari,4.6,5,-6.241229,106.8177995,"jl. bangka raya no.10, rt.2/rw.1, pela mampang, kota jakarta selatan",ChIJVYhx2GHxaS4R8ZbmSUf-62k,0.012490000000004109
warteg bahari 234,0,0,-6.2393939,106.8182932,"jl. kapten tendean no.4, rt.1/rw.1, pela mampang, kota jakarta selatan",ChIJE-dnjN_zaS4RunDaLwj6xZ0,0.014818799999996912
warteg bejo,4.5,114,-6.258194599999999,106.8134351,"jl. kemang i no.12, rt.10/rw.1, bangka, kota jakarta selatan",ChIJZVTwuK_xaS4RHEFvuzuSxyw,0.008839999999994852
warteg kharisma bahari,4.3,3,-6.2571621,106.8184548,"jl. kemang barat no.16, rt.6/rw.5, bangka, kota jakarta selatan",ChIJOxi72bzzaS4RlvjFPBNt4kc,0.009921599999996644
warteg bahari kharisma,4.4,41,-6.243481099999999,106.8290251,"jl. mampang prapatan ii no.74, rt.11/rw.5, mampang prpt., kota jakarta selatan",ChIJf6QHT9vzaS4RCFGlBe2Zi_M,0.021463499999994085
warteg kharisma bahari,5,8,-6.2677365,106.7967421,"jl. madrasah no.1a, rt.3/rw.3, gandaria sel., kota jakarta selatan",ChIJQ4JQ1Q_xaS4R_aKPjG7C_sQ,0.03507489999999969
warteg yana,5,2,-6.2466969,106.8259189,"jl. mampang prpt. raya no.70 d, rt.9/rw.3, tegal parang, kota jakarta selatan",ChIJiTxjb9rzaS4REM1n7VAkszE,0.01514150000000214
warteg sri rejeki,4.5,45,-6.246705,106.829133,"jl. mampang prpt. raya no.17, rt.8/rw.2, tegal parang, kota jakarta selatan",ChIJ8_93t9rzaS4RG7EsXgnOoYc,0.01834749999999552
warteg jaya,3,1,-6.237504,106.814933,"#, jl. birah ii no.4, rt.6/rw.6, rw. bar., kota jakarta selatan",ChIJy_TP0l_xaS4RN33VNof7puc,0.013348499999993102
warteg jippo,4.5,6,-6.257980799999999,106.8071943,"jl. anggur v, rt.3/rw.3, cipete utara, kota jakarta selatan",ChIJOSU7EnjxaS4R_IVdjn8r26A,0.0148669999999953
warteg khasanah,4.7,9,-6.2481751,106.8258505,"jl. mampang prapatan vii no.28, rt.8/rw.008, tegal parang, kota jakarta selatan",ChIJ1Wwwm9DzaS4R6U2I1ns6Ld0,0.013594899999998411
warteg kharisma bahari,4.2,99,-6.2403191,106.8292345,"jl. mp. prapatan gg. iv, rt.2/rw.2, tegal parang, kota jakarta selatan",ChIJJ5S9HgLzaS4RHz4FCQd7O2s,0.024834899999995663
warteg timbul jaya 4,4.1,13,-6.2494235,106.817759,"no.23, jl. bangka raya no.8, rt.2/rw.12, pela mampang, kota jakarta selatan",ChIJ6QThX33xaS4RyXnW6W5LXYY,0.00425499999999257
warteg putra bahari 2,0,0,-6.235429,106.820712,"jl. kuningan bar. 1, rt.12/rw.1, kuningan bar., kota jakarta selatan",ChIJ661_kJzzaS4RVRZcnAznOn8,0.02120249999999757
warteg kharisma bahari,0,0,-6.264571,106.799726,"jl. abdul majid raya, rt.13/rw.2, cipete utara, kota jakarta selatan",ChIJNyMYqAPxaS4R7gNXNMCSNY4,0.028925499999996163
warteg murah meriah,4,5,-6.2668583,106.8019914,"jl. abdul majid raya no.30, rt.11/rw.2, cipete sel., kota jakarta selatan",ChIJYxvXSJrxaS4R-Sgik59q2Nk,0.02894739999999718
warteg bangka 2,4.4,113,-6.2438636,106.819218,"jl. bangka ii no.rt.12, rt.12/rw.1, pela mampang, kota jakarta selatan",ChIJyzDruNjzaS4RBaMrsK3v6lU,0.0112739000000035
warteg sederhana,4.4,48,-6.264538000000001,106.8089784,"jl. khm. naim iii b no.11, rt.7/rw.9, cipete utara, kota jakarta selatan",ChIJMWiYWoTxaS4R7M_b64dog7Y,0.019640100000002825
warteg alfar,0,0,-6.2422301,106.8322901,"jl. tegal parang sel., rt.2/rw.4, mampang prpt., kota jakarta selatan",ChIJQ1BJecPzaS4R0CFExOnZawU,0.02597949999999205
wahyoo warteg sebelah gg haji miad,4.8,10,-6.2667242,106.8040901,"jl. abdul majid raya no.3, rt.11/rw.7, cipete sel., kota jakarta selatan",ChIJuU9W4prxaS4Ry-10NNDr1Hk,0.02671460000000625
warteg mini,0,0,-6.2434274,106.824083,"gg. h. mujimi no.60, rt.7/rw.6, mampang prpt., kota jakarta selatan",ChIJbxGTLxLzaS4RrhRkakxv8SE,0.016575099999998955
