nama_tempat,rating_tempat,user_ratings_total,latitude,longitude,alamat_tempat,place_id,distance
warteg podoworo,3,1,-6.2881446,106.8248379,"jalan taman rt 001 rw 006 ragunan, jl. margasatwa bar., rt.6/rw.1, ragunan, dki jakarta",ChIJfyE8aRvyaS4R6c6Jt_g30VU,0
warteg barokah,4.2,6,-6.2864494,106.8260434,"kompleks bri, jl. warung jati barat no.20, rt.6/rw.5, jati padang, kota jakarta selatan",ChIJb8u_BxvyaS4RUqurz7FUx6Q,0
warteg minah,4.2,20,-6.284747299999999,106.8190653,"jl. ampera raya no.4a, rt.1/rw.6, ragunan, kota jakarta selatan",ChIJkYmc6x3yaS4RqZV67z9_CEM,0
warteg bahari,0,0,-6.2876967,106.8234272,"jl. hankam no.rt.5, rt.8/rw.11, ragunan, kota jakarta selatan",ChIJzb7lNIjzaS4RN5d-ACBV1BQ,0
makmur restaurant,4.4,51,-6.287111899999999,106.825406,"jl. taman margasatwa raya no.16, rt.4/rw.11, ragunan, kota jakarta selatan",ChIJ45sNFRvyaS4ROMnssJC0o4w,0
warteg khalimah baru,4,2,-6.2852673,106.8261658,"jl. warung jati barat no.7, rt.3/rw.11, ragunan, kota jakarta selatan",ChIJu4i9zRvyaS4R-1xT8Fi6L9Q,0
warteg b 464 s,5,1,-6.285446899999999,106.8186179,"jalan ampera raya no.10, rt.8/rw.2, cilandak timur, pasar minggu, rt.8/rw.2, cilandak tim., kota jakarta selatan",ChIJ73ANkh3yaS4RbT5kf2OMn1M,0
warteg kharisma elegant cab warung jati,4.5,328,-6.289969200000001,106.8240129,"jl. marga satwa raya no no.16, rt.5/rw.1, ragunan, kota jakarta selatan",ChIJd9d3xQnvaS4RatGPrzFuWSo,0
warteg kharisma bahari elegant cabang warung jati,4.6,9,-6.2900239,106.8239837,"jl. taman margasatwa raya no.16, rt.5/rw.1, ragunan, kota jakarta selatan",ChIJ4bLuWNDzaS4R_g-TIrV3VHc,0
warteg blimbing,4.4,5,-6.2890766,106.8290214,"pr6h+9j6, rt.7/rw.3, jati padang, south jakarta city",ChIJu92WUQXyaS4RLrjfDCodW6E,0
warteg,5,1,-6.2920247,106.8288391,"jl. raya jatipadang, rt.6/rw.9, jati padang, kota jakarta selatan",ChIJt-IwkAXyaS4RwooxjP6ylBg,0
warteg pondok ijo anugrah,5,5,-6.2925361,106.8227679,"jl. taman margasatwa raya jl. damai no.1, rt.1/rw.1, ragunan, kota jakarta selatan",ChIJxykmtdfzaS4RMc2ABZc4gGo,0
warteg danny,4,5,-6.281784399999999,106.824179,"jl. pekayon, rt.2/rw.3, ragunan, kota jakarta selatan",ChIJ0-wZLhnyaS4R1bOnEU9msWk,0
warteg nusantara bahari,4.7,9,-6.2858082,106.8298345,"jl. raya ragunan no.14 c, rt.2/rw.7, jati padang, kota jakarta selatan",ChIJGRTggBDyaS4RiJXSoWYWRag,0
warteg kowantara jakarta selatan,5,1,-6.2870662,106.8253886,"blok kehakiman no 12540, jl. warung jati barat blok kehakiman no.8, rt.4/rw.11, 4, ragunan, kota jakarta selatan",ChIJJfAAExvyaS4RTw4epwF_h5o,0
warteg podoworo,3,1,-6.2881446,106.8248379,"jalan taman rt 001 rw 006 ragunan, jl. margasatwa bar., rt.6/rw.1, ragunan, dki jakarta",ChIJfyE8aRvyaS4R6c6Jt_g30VU,0
warteg barokah,4.2,6,-6.2864494,106.8260434,"kompleks bri, jl. warung jati barat no.20, rt.6/rw.5, jati padang, kota jakarta selatan",ChIJb8u_BxvyaS4RUqurz7FUx6Q,0
warteg blimbing,4.4,5,-6.2890766,106.8290214,"pr6h+9j6, rt.7/rw.3, jati padang, south jakarta city",ChIJu92WUQXyaS4RLrjfDCodW6E,0
warteg,5,1,-6.2920247,106.8288391,"jl. raya jatipadang, rt.6/rw.9, jati padang, kota jakarta selatan",ChIJt-IwkAXyaS4RwooxjP6ylBg,0
warteg bahari,0,0,-6.2876967,106.8234272,"jl. hankam no.rt.5, rt.8/rw.11, ragunan, kota jakarta selatan",ChIJzb7lNIjzaS4RN5d-ACBV1BQ,0
makmur restaurant,4.4,51,-6.287111899999999,106.825406,"jl. taman margasatwa raya no.16, rt.4/rw.11, ragunan, kota jakarta selatan",ChIJ45sNFRvyaS4ROMnssJC0o4w,0
warteg khalimah baru,4,2,-6.2852673,106.8261658,"jl. warung jati barat no.7, rt.3/rw.11, ragunan, kota jakarta selatan",ChIJu4i9zRvyaS4R-1xT8Fi6L9Q,0
warteg kharisma elegant cab warung jati,4.5,328,-6.289969200000001,106.8240129,"jl. marga satwa raya no no.16, rt.5/rw.1, ragunan, kota jakarta selatan",ChIJd9d3xQnvaS4RatGPrzFuWSo,0
warteg kharisma bahari elegant cabang warung jati,4.6,9,-6.2900239,106.8239837,"jl. taman margasatwa raya no.16, rt.5/rw.1, ragunan, kota jakarta selatan",ChIJ4bLuWNDzaS4R_g-TIrV3VHc,0
warteg pondok ijo anugrah,5,5,-6.2925361,106.8227679,"jl. taman margasatwa raya jl. damai no.1, rt.1/rw.1, ragunan, kota jakarta selatan",ChIJxykmtdfzaS4RMc2ABZc4gGo,0
warteg minah,4.2,20,-6.284747299999999,106.8190653,"jl. ampera raya no.4a, rt.1/rw.6, ragunan, kota jakarta selatan",ChIJkYmc6x3yaS4RqZV67z9_CEM,0
warteg b 464 s,5,1,-6.285446899999999,106.8186179,"jalan ampera raya no.10, rt.8/rw.2, cilandak timur, pasar minggu, rt.8/rw.2, cilandak tim., kota jakarta selatan",ChIJ73ANkh3yaS4RbT5kf2OMn1M,0
warteg bahari,0,0,-6.294548199999999,106.8279195,"jl. raya jatipadang, rt.3/rw.4, jati padang, kota jakarta selatan",ChIJCU6MbQbyaS4RGANgrEbEdZw,0
warteg nusantara bahari,4.7,9,-6.2858082,106.8298345,"jl. raya ragunan no.14 c, rt.2/rw.7, jati padang, kota jakarta selatan",ChIJGRTggBDyaS4RiJXSoWYWRag,0
warteg danny,4,5,-6.281784399999999,106.824179,"jl. pekayon, rt.2/rw.3, ragunan, kota jakarta selatan",ChIJ0-wZLhnyaS4R1bOnEU9msWk,0
warteg kowantara jakarta selatan,5,1,-6.2870662,106.8253886,"blok kehakiman no 12540, jl. warung jati barat blok kehakiman no.8, rt.4/rw.11, 4, ragunan, kota jakarta selatan",ChIJJfAAExvyaS4RTw4epwF_h5o,0
warteg idola,3.5,4,-6.253014599999999,106.8254423,"prwg+q5w, rt.1/rw.6, duren tiga, south jakarta city",ChIJT_bXYdHzaS4R27unIxkFFeE,0
warteg darmo,5,2,-6.251923499999999,106.8212596,"jl. bangka, rt.10/rw.10, pela mampang, kota jakarta selatan",ChIJBQWMmNbzaS4RcczX4-mhAxo,0
warteg slawi ayu,4.1,12,-6.251524300000001,106.8236075,"jl. bangka ix no.49, rt.8/rw.10, pela mampang, kota jakarta selatan",ChIJEfkqNdHzaS4R34pjpXPkJo0,0
warteg ridho illahi,4.4,45,-6.2500741,106.8300023,"jl. mampang prapatan xi no.9, rt.9/rw.1, tegal parang, kota jakarta selatan",ChIJxyyO08_zaS4RWyx7hIsTw7M,0
warteg b9,4.5,44,-6.251925099999999,106.8212432,"jl. bangka ix, rt.7/rw.10, pela mampang, kota jakarta selatan",ChIJx2e4jNbzaS4RYh1aTTtZG2U,0
warteg jayabahari,4.4,104,-6.257952599999999,106.8233462,"jl. kemang utara no.55, rt.2/rw.4, bangka, kota jakarta selatan",ChIJp9qMq9TzaS4R3a846-2OsiY,0
wahyoo warteg sari rasa,4.8,5,-6.254684,106.8257667,"jl. kemang utara ix, rt.1, duren tiga, kota jakarta selatan",ChIJVa_e_dfzaS4RDwVLuJjp8Gs,0
warteg dewi,0,0,-6.251555199999999,106.8267558,"jl. mampang prapatan xiv, rt.12/rw.1, tegal parang, kota jakarta selatan",ChIJo2ZLoNHzaS4Rk10bcY2NLlE,0
warteg mojo,0,0,-6.2532745,106.8221282,"jl. bangka ix c, rt.10/rw.10, pela mampang, kota jakarta selatan",ChIJwZtNINTzaS4R29tJ4u1-P3U,0
warteg latifah,4.5,87,-6.2479931,106.8283968,"jl. mampang prapatan viii, rt.2/rw.2, tegal parang, kota jakarta selatan",ChIJ3ROwC9DzaS4Rtjta9p9Pkrk,0
wahyoo warteg jayanti,4,3,-6.2501412,106.8271454,"jl. mampang prapatan x, rt.7/rw.1, tegal parang, kota jakarta selatan",ChIJZc_IU9DzaS4RAbDezGu8eNU,0
warteg sahabat,4.4,14,-6.2542468,106.8277562,"jl. duren tiga raya, rt.3/rw.5, duren tiga, kota jakarta selatan",ChIJ_3L6JDXzaS4RS0p3aQMwoUY,0
warteg bahari,4.1,17,-6.2580227,106.8280144,"jl. warung buncit raya no.36, rt.1/rw.2, duren tiga, kota jakarta selatan",ChIJS-zbdi3yaS4RocYBNmpdJpw,0
warteg khasanah,4.7,9,-6.2481751,106.8258505,"jl. mampang prapatan vii no.28, rt.8/rw.008, tegal parang, kota jakarta selatan",ChIJ1Wwwm9DzaS4R6U2I1ns6Ld0,0
warteg,0,0,-6.246746099999999,106.8275095,"jl. mampang prapatan vi no.17, rt.1/rw.2, tegal parang, kota jakarta selatan",ChIJVaD0kdrzaS4RP4rsT6OP0_g,0
warteg duren 3,5,3,-6.2543456,106.828106,"jl. duren tiga raya no.5, rt.4/rw.1, duren tiga, kota jakarta selatan",ChIJ4Uxxa9LzaS4R2NztoqZ7Wnk,0
warteg putri barokah,5,3,-6.2466874,106.8289468,"jl. mampang prapatan vi, rt.8/rw.2, tegal parang, kota jakarta selatan",ChIJSalwt9rzaS4Rebe67f7j1XE,0
warteg moro seneng,5,2,-6.253339599999999,106.822051,"jl. bangka ix c no.37, rt.12/rw.10, pela mampang, kota jakarta selatan",ChIJp4WW9drzaS4RXMgnBLXXcyw,0
warteg indah,3,1,-6.2541101,106.8270521,"jalan warung buncit no.3, rt.2/rw.5, duren tiga, kota jakarta selatan",ChIJ0f0ONtLzaS4RZqTDc9Qa_T4,0
warteg nojo jaya,4.3,52,-6.2464479,106.8187618,"jl. bangka ii no.44b, rt.1/rw.3, pela mampang, kota jakarta selatan",ChIJx7Z8btjzaS4RPtfQJN3azZ0,0
warteg sri rejeki,4.5,45,-6.246705,106.829133,"jl. mampang prpt. raya no.17, rt.8/rw.2, tegal parang, kota jakarta selatan",ChIJ8_93t9rzaS4RG7EsXgnOoYc,0
warteg yana,5,2,-6.2466969,106.8259189,"jl. mampang prpt. raya no.70 d, rt.9/rw.3, tegal parang, kota jakarta selatan",ChIJiTxjb9rzaS4REM1n7VAkszE,0
warteg 234,4.2,10,-6.2583754,106.82053,"warteg 234 no. 234, jalan. bungur dalam kemang utara, rt.1/rw.5, bangka, kota jakarta selatan",ChIJGRbq1CryaS4RLMvYTWYF13Q,0
warteg ibu ayu,5,1,-6.246930499999999,106.8266109,"jl. mampang prapatan iv, rt.1/rw.2, tegal parang, kota jakarta selatan",ChIJgTMZYtrzaS4RpvpzQQO7z0g,0
dapur warteg,5,1,-6.2579158,106.8221829,"jl. kemang sel. no.49a, rt.2/rw.4, bangka, kota jakarta selatan",ChIJEw8bjjjzaS4RoYkGbq5jlZk,0
warteg bahari h. abdul ghani,4.7,3,-6.2465945,106.823206,"6, jl. kh. marzuki ishaq no.7, rt.6/rw.3, tegal parang, kota jakarta selatan",ChIJNyjub13zaS4RphNs0TCmKW8,0
warteg sederhana ayu,5,1,-6.2470232,106.8263803,"81,, jl. mampang prapatan v no.6, rt.2/rw.2, tegal parang, kota jakarta selatan",ChIJ7RORY9rzaS4RGhNui566lJs,0
warteg jayabahari,4.1,41,-6.2484527,106.8227321,"jl. pd. jaya raya no.2, rt.9/rw.6, pela mampang, kota jakarta selatan",ChIJCxIlW9fzaS4RnOInyy0Jgpc,0
warteg mandiri bahari,0,0,-6.2522873,106.8297845,"jl. mampang prapatan xv, rt.6/rw.5, duren tiga, kota jakarta selatan",ChIJ3wLbAs7zaS4Ry-MjDF0VYWs,0
warteg podoworo,3,1,-6.2881446,106.8248379,"jalan taman rt 001 rw 006 ragunan, jl. margasatwa bar., rt.6/rw.1, ragunan, dki jakarta",ChIJfyE8aRvyaS4R6c6Jt_g30VU,0
warteg barokah,4.2,6,-6.2864494,106.8260434,"kompleks bri, jl. warung jati barat no.20, rt.6/rw.5, jati padang, kota jakarta selatan",ChIJb8u_BxvyaS4RUqurz7FUx6Q,0
warteg blimbing,4.4,5,-6.2890766,106.8290214,"pr6h+9j6, rt.7/rw.3, jati padang, south jakarta city",ChIJu92WUQXyaS4RLrjfDCodW6E,0
warteg bahari,0,0,-6.2876967,106.8234272,"jl. hankam no.rt.5, rt.8/rw.11, ragunan, kota jakarta selatan",ChIJzb7lNIjzaS4RN5d-ACBV1BQ,0
makmur restaurant,4.4,51,-6.287111899999999,106.825406,"jl. taman margasatwa raya no.16, rt.4/rw.11, ragunan, kota jakarta selatan",ChIJ45sNFRvyaS4ROMnssJC0o4w,0
warteg khalimah baru,4,2,-6.2852673,106.8261658,"jl. warung jati barat no.7, rt.3/rw.11, ragunan, kota jakarta selatan",ChIJu4i9zRvyaS4R-1xT8Fi6L9Q,0
warteg kharisma elegant cab warung jati,4.5,328,-6.289969200000001,106.8240129,"jl. marga satwa raya no no.16, rt.5/rw.1, ragunan, kota jakarta selatan",ChIJd9d3xQnvaS4RatGPrzFuWSo,0
warteg nusantara bahari,4.7,9,-6.2858082,106.8298345,"jl. raya ragunan no.14 c, rt.2/rw.7, jati padang, kota jakarta selatan",ChIJGRTggBDyaS4RiJXSoWYWRag,0
warteg kharisma bahari elegant cabang warung jati,4.6,9,-6.2900239,106.8239837,"jl. taman margasatwa raya no.16, rt.5/rw.1, ragunan, kota jakarta selatan",ChIJ4bLuWNDzaS4R_g-TIrV3VHc,0
warteg,5,1,-6.2920247,106.8288391,"jl. raya jatipadang, rt.6/rw.9, jati padang, kota jakarta selatan",ChIJt-IwkAXyaS4RwooxjP6ylBg,0
warteg minah,4.2,20,-6.284747299999999,106.8190653,"jl. ampera raya no.4a, rt.1/rw.6, ragunan, kota jakarta selatan",ChIJkYmc6x3yaS4RqZV67z9_CEM,0
warteg danny,4,5,-6.281784399999999,106.824179,"jl. pekayon, rt.2/rw.3, ragunan, kota jakarta selatan",ChIJ0-wZLhnyaS4R1bOnEU9msWk,0
warteg bude murmer,4.4,5,-6.280967899999999,106.8321397,"jl. jatipadang utara no.76, rt.13/rw.2, jati padang, kota jakarta selatan",ChIJx-DcBhfyaS4REQ7pgK-jCIY,0
warteg pondok ijo anugrah,5,5,-6.2925361,106.8227679,"jl. taman margasatwa raya jl. damai no.1, rt.1/rw.1, ragunan, kota jakarta selatan",ChIJxykmtdfzaS4RMc2ABZc4gGo,0
warteg kowantara jakarta selatan,5,1,-6.2870662,106.8253886,"blok kehakiman no 12540, jl. warung jati barat blok kehakiman no.8, rt.4/rw.11, 4, ragunan, kota jakarta selatan",ChIJJfAAExvyaS4RTw4epwF_h5o,0
