nama_tempat,rating_tempat,user_ratings_total,latitude,longitude,alamat_tempat,place_id,distance
warteg,4.4,175,-6.2730144,106.8148675,"jl. kemang sel., rt.5/rw.6, cipete sel., kota jakarta selatan",ChIJwTeEN4bxaS4RuMOTs5rkpNI,0.03539440000000038
warteg putra bahari,4.3,4,-6.2456577,106.819603,"rt.2/rw.3, pela mampang, kota jakarta selatan",ChIJVVVVaNjzaS4RyixQLFrqka8,0.022666200000005965
warteg,4.2,10,-6.238093900000001,106.8271921,"jl. gatot subroto no.23, rt.2/rw.2, kuningan bar., kota jakarta selatan",ChIJkX-lW93zaS4R14XAXTz3ayU,0.02264090000000074
warteg bahari,5,1,-6.265148,106.8239236,"jl. kemang timur no.43, rt.9/rw.3, bangka, kota jakarta selatan",ChIJqyITzS7yaS4RBLkOO45wYq8,0.018471900000005093
warteg,0,0,-6.246746099999999,106.8275095,"jl. mampang prapatan vi no.17, rt.1/rw.2, tegal parang, kota jakarta selatan",ChIJVaD0kdrzaS4RP4rsT6OP0_g,0.013671300000002162
warteg jaya,3.9,28,-6.2712922,106.8379339,"jl. siaga raya no.40, rt.16/rw.4, pejaten bar., kota jakarta selatan",ChIJba7_GjnyaS4RwvL_2vfaeuE,0.02129919999998986
warteg bahari,4.3,438,-6.2516782,106.8505178,"jl. pengadegan selatan no.12, rt.3/rw.5, pengadegan, kota jakarta selatan",ChIJIV4Ig7HzaS4RAOHhKF4zxeE,0.021592100000000336
warteg kar1mah bahari,4.7,3,-6.260486299999999,106.8232763,"jl. kemang timur no.21, rt.5/rw.4, bangka, kota jakarta selatan",ChIJ-SQ7eSvyaS4RTa4L3WszsgE,0.014457500000001566
warteg jayabahari,4.4,104,-6.257952599999999,106.8233462,"jl. kemang utara no.55, rt.2/rw.4, bangka, kota jakarta selatan",ChIJp9qMq9TzaS4R3a846-2OsiY,0.011853900000001971
warteg bahari,4.2,16,-6.2651463,106.8340135,"jl. wr. jati timur raya no.20, rt.4/rw.9, kalibata, kota jakarta selatan",ChIJrzhpIjHyaS4RSQsSV-ltA_k,0.011232899999990664
warteg pusri,4.3,74,-6.2685656,106.8185455,"jl. kemang dalam x, rt.5/rw.2, bangka, kota jakarta selatan",ChIJB2v5ByjyaS4ROSpxhg8l-Gg,0.027267600000006276
warteg hidayah,5,1,-6.2718263,106.8276766,"5, jl. kamboja no.43, rw.8, pejaten bar.",ChIJeSROtLjzaS4RolubxfAMtik,0.02139720000000178
warteg barokah,4,1,-6.2434052,106.835417,"jl. pancoran barat xic, rt.5/rw.3, pancoran, kota jakarta selatan",ChIJM-bbHcTzaS4Rd_xzhiQUmbw,0.014764300000001285
warteg bu haji,0,0,-6.2533106,106.8481756,"jl. kh.mahmud,buntu no.7, rt.5/rw.4, duren tiga, kota jakarta selatan",ChIJs0Hks73zaS4R7qyhiRJX9jk,0.017617499999999175
warteg berkah,4.3,170,-6.267711599999999,106.8222851,"jl. kemang tim. xii no.7, rt.6/rw.3, bangka, kota jakarta selatan",ChIJ88zNkSjyaS4RS0o4mSnunYM,0.02267400000000297
warteg latifah,4.5,87,-6.2479931,106.8283968,"jl. mampang prapatan viii, rt.2/rw.2, tegal parang, kota jakarta selatan",ChIJ3ROwC9DzaS4Rtjta9p9Pkrk,0.011537000000013009
warteg nojo jaya,4.3,52,-6.2464479,106.8187618,"jl. bangka ii no.44b, rt.1/rw.3, pela mampang, kota jakarta selatan",ChIJx7Z8btjzaS4RPtfQJN3azZ0,0.022717200000002435
warteg latifah,4.3,21,-6.266245,106.8422818,"jalan warung jati timur, rt.10, pejaten bar., kota jakarta selatan",ChIJF3u8PEjyaS4RppTLQD3jtGY,0.020599899999988125
warteg salsabila ( warung makan )üè£,4.4,8,-6.2722508,106.8464372,"gg. bend. no.39, rt.1/rw.3, pejaten bar., kota jakarta selatan",ChIJ24VZsEbyaS4Rq1YUWGLo7VE,0.03076109999999055
warteg bahari jaya,0,0,-6.2390041,106.8188734,"jl. kapten tendean, rt.6/rw.5, kuningan bar., kota jakarta selatan",ChIJ-RZCiKvzaS4RtAav75WND64,0.030049400000005555
warteg rejo,4.3,85,-6.2500474,106.8365005,"jl. pancoran barat vii, rt.3/rw.6, pancoran, kota jakarta selatan",ChIJwzmO2MjzaS4RhQ3lUJ_iSZo,0.009205599999994263
warteg bahari,4.1,17,-6.2580227,106.8280144,"jl. warung buncit raya no.36, rt.1/rw.2, duren tiga, kota jakarta selatan",ChIJS-zbdi3yaS4RocYBNmpdJpw,0.007255800000004697
warteg aji,3.9,14,-6.2590796,106.8436271,"jl. kalibata timur i gg. rukun no.2, rt.1/rw.8, kalibata, kota jakarta selatan",ChIJJ6716EryaS4RanjpCv2gLg8,0.014779799999999454
warteg putri barokah,5,3,-6.2466874,106.8289468,"jl. mampang prapatan vi, rt.8/rw.2, tegal parang, kota jakarta selatan",ChIJSalwt9rzaS4Rebe67f7j1XE,0.012292700000009482
wahyoo warteg putri jaya,5,2,-6.263434699999999,106.8294758,"jl. warung jati barat i no.42, rt.6/rw.3, kalibata, kota jakarta selatan",ChIJ-bUkHS7yaS4Rerw3pjsJnso,0.011206400000006944
warteg falah,4.7,31,-6.2658992,106.8237261,"jl. kemang raya no.48, rt.6/rw.3, bangka, kota jakarta selatan",ChIJCXwsr6jzaS4RBkWHb4JImQI,0.019420600000003674
warteg rahayu,4.3,23,-6.272866199999999,106.8475613,"jl. rawajati timur, rt.6/rw.6, pejaten tim., kota jakarta selatan",ChIJ7_t8_0PyaS4RetfTi5UxFYI,0.03250059999998811
warteg bahari,4.4,5,-6.2436783,106.8259957,"jl. mampang prapatan ii, rt.1/rw.5, mampang prpt., kota jakarta selatan",ChIJgeVMl9vzaS4RYj_nLr2mHlI,0.01825289999999935
warteg bahariin,0,0,-6.2419072,106.8370313,"jl. pancoran barat xi, rt.1/rw.3, pancoran, kota jakarta selatan",ChIJmwIiSLTzaS4RCHygGEbhyUg,0.01787660000000102
wahyoo warteg bahari tegal,4.2,33,-6.245285,106.832002,"jl. mampang prpt. raya no.50, rt.6/rw.2, tegal parang, jakarta",ChIJYRJm8HDzaS4R2dbsP7HAQQY,0.0106399000000037
warteg,0,0,-6.251912799999999,106.8494694,"jl. h. mahmud raya, rt.4/rw.4, kalibata, kota jakarta selatan",ChIJp2isKTbzaS4RZPwI0GYl890,0.020309099999999525
warteg latifah,4.6,42,-6.2571283,106.8169117,"prv8+4qv, rt.5/rw.1, bangka, south jakarta city",ChIJc-5_wn_xaS4RRhfzbFQQ6B8,0.01746409999999976
warteg zakaria,0,0,-6.258705600000001,106.8377832,"jl. duren tiga selatan no.67, rt.8/rw.3, duren tiga, kota jakarta selatan",ChIJEdU31onzaS4R3-9pMWJZO68,0.008561899999998346
warteg rizki,4.1,65,-6.2660974,106.8373555,"jl. h. samali no.85a, rt.19/rw.1, pejaten bar., kota jakarta selatan",ChIJfSI6FzfyaS4RV5A5eTBt33M,0.015525999999994156
warteg idola,3.5,4,-6.253014599999999,106.8254423,"prwg+q5w, rt.1/rw.6, duren tiga, south jakarta city",ChIJT_bXYdHzaS4R27unIxkFFeE,0.0094700000000012
warteg darmo,5,2,-6.251923499999999,106.8212596,"jl. bangka, rt.10/rw.10, pela mampang, kota jakarta selatan",ChIJBQWMmNbzaS4RcczX4-mhAxo,0.014743800000002416
warteg kharisma,4.2,18,-6.239914,106.84741,"jl. tebet barat dalam vii no.5 a, rt.9/rw.6, tebet bar., kota jakarta selatan",ChIJ677FKbzzaS4RXgH8C4vnh9k,0.03024849999999102
warteg xii mutiara bahari,4.8,6,-6.2456644,106.8155586,"rt.1/rw.11, pela mampang, kota jakarta selatan",ChIJ-1nXV2LxaS4RZv5LRU6mKHY,0.026703900000003777
warteg berkah,4.6,15,-6.260322299999999,106.8433643,"jl. raya pasar minggu no.4, rt.5/rw.8, kalibata, kota jakarta selatan",ChIJHzBDQ0ryaS4RnbkZLtNcKPg,0.015759699999996712
warteg ibu wiwi,4.6,81,-6.2724758,106.8409511,"jl. warga i ma no.69, rt.14/rw.3, pejaten bar., kota jakarta selatan",ChIJ3dzsrjjyaS4R8q0L6svz864,0.025499999999991196
warteg kenanga,5,1,-6.2599712,106.8285485,"jl. warung buncit raya no.49, rt.2/rw.2, duren tiga, kota jakarta selatan",ChIJuW9PgJvzaS4RmFUV_xcLAXQ,0.008670200000008954
warteg rido ilahi,5,1,-6.2545115,106.83366,"jl. duren tiga raya no.54, rt.4/rw.1, duren tiga, kota jakarta selatan",ChIJnwuHRMzzaS4RMUc33pEyWKc,0.0019009999999894944
warteg slawi ayu,4.1,12,-6.251524300000001,106.8236075,"jl. bangka ix no.49, rt.8/rw.10, pela mampang, kota jakarta selatan",ChIJEfkqNdHzaS4R34pjpXPkJo0,0.012795100000011495
warteg mojo,3.9,15,-6.2517871,106.8170368,"jl. bangka ix no.100, rt.3/rw.12, pela mampang, kota jakarta selatan",ChIJNdOYjH3xaS4Rk1oL3l1tnB0,0.019103000000010084
warteg jaya bahari,3.8,71,-6.2429118,106.8324035,"jl. tegal parang utara no.8, rw.4, mampang prapatan, south jakarta city",ChIJLxmzydXzaS4RwXUdsDypiro,0.012611600000008494
warteg jaya bahari,4.6,5,-6.241229,106.8177995,"jl. bangka raya no.10, rt.2/rw.1, pela mampang, kota jakarta selatan",ChIJVYhx2GHxaS4R8ZbmSUf-62k,0.028898400000000102
warteg jaya makmur,0,0,-6.2658181,106.8442605,"jl. raya pasar minggu, rt.13/rw.1, pejaten tim., kota jakarta selatan",ChIJHdODV0jyaS4RZvtForGZfpo,0.022151699999997554
warteg bahari 234,0,0,-6.2393939,106.8182932,"jl. kapten tendean no.4, rt.1/rw.1, pela mampang, kota jakarta selatan",ChIJE-dnjN_zaS4RunDaLwj6xZ0,0.030239800000007477
warteg wahyu,4.3,3,-6.268618999999999,106.8460563,"jl. raya pasar minggu no.8c, rt.12/rw.1, pejaten tim., kota jakarta selatan",ChIJqRViPUbyaS4RWCZ0G5hXc0A,0.026748399999993566
warteg kharisma bahari,3.8,21,-6.253233,106.8373344,"jl. duren tiga raya no.41, rt.5/rw.6, duren tiga, kota jakarta selatan",ChIJYwBuaqbzaS4Rc_bfFtZiX4c,0.006853899999997637
warteg dapuk,4.1,113,-6.253419900000001,106.8384314,"jl. duren tiga selatan, rt.3/rw.6, duren tiga, kota jakarta selatan",ChIJpbbHNhfzaS4RXx6_ORxH6x8,0.007763999999998106
warteg ridho ibu,4.6,15,-6.240116,106.8452333,"jl. prof. dr. soepomo no.31, rt.4/rw.1, menteng dalam, kota jakarta selatan",ChIJY5BMw77zaS4RcRklqw5XtMI,0.027869799999997724
warteg bercahaya,4.4,5,-6.258806,106.835951,"jl. duren tiga selatan, rt.15/rw.2, duren tiga, kota jakarta selatan",ChIJr-4DwjnzaS4RqpDIg1cSgx8,0.006830099999987738
warteg kharisma bahari,4.3,3,-6.2571621,106.8184548,"jl. kemang barat no.16, rt.6/rw.5, bangka, kota jakarta selatan",ChIJOxi72bzzaS4RlvjFPBNt4kc,0.015954800000008262
warteg bahari kharisma,4.4,41,-6.243481099999999,106.8290251,"jl. mampang prapatan ii no.74, rt.11/rw.5, mampang prpt., kota jakarta selatan",ChIJf6QHT9vzaS4RCFGlBe2Zi_M,0.015420700000012388
warteg yana,5,2,-6.2466969,106.8259189,"jl. mampang prpt. raya no.70 d, rt.9/rw.3, tegal parang, kota jakarta selatan",ChIJiTxjb9rzaS4REM1n7VAkszE,0.015311100000001687
warteg pesona bahari,4.5,6,-6.2532369,106.8426154,"jl. raya pasar minggu no.46, rt.3/rw.7, duren tiga, kota jakarta selatan",ChIJtb4l6bXzaS4RroOmPgeOchY,0.012130999999993897
warteg sri rejeki,4.5,45,-6.246705,106.829133,"jl. mampang prpt. raya no.17, rt.8/rw.2, tegal parang, kota jakarta selatan",ChIJ8_93t9rzaS4RG7EsXgnOoYc,0.012088900000007285
warteg pancoran,4.2,67,-6.262366099999999,106.8458853,"jl. kalibata timur no.49, rt.9/rw.8, kalibata, kota jakarta selatan",ChIJBf9O3kvyaS4RfEJORj-sS-w,0.020324499999998302
warteg khasanah,4.7,9,-6.2481751,106.8258505,"jl. mampang prapatan vii no.28, rt.8/rw.008, tegal parang, kota jakarta selatan",ChIJ1Wwwm9DzaS4R6U2I1ns6Ld0,0.013901300000005001
