nama_tempat,rating_tempat,user_ratings_total,latitude,longitude,alamat_tempat,place_id,distance
warteg nojo jaya,4.1,130,-6.2369222,106.8169473,"jl. rengas 3 no.1, rt.7/rw.2, rw. bar., kota jakarta selatan",ChIJe36y7V_xaS4Rg4XGMfLfIX0,0
warteg bahari jaya,0,0,-6.2390041,106.8188734,"jl. kapten tendean, rt.6/rw.5, kuningan bar., kota jakarta selatan",ChIJ-RZCiKvzaS4RtAav75WND64,0
warteg jaya bahari,4.6,5,-6.241229,106.8177995,"jl. bangka raya no.10, rt.2/rw.1, pela mampang, kota jakarta selatan",ChIJVYhx2GHxaS4R8ZbmSUf-62k,0
warteg bahari 234,0,0,-6.2393939,106.8182932,"jl. kapten tendean no.4, rt.1/rw.1, pela mampang, kota jakarta selatan",ChIJE-dnjN_zaS4RunDaLwj6xZ0,0
warteg jaya,3,1,-6.237504,106.814933,"#, jl. birah ii no.4, rt.6/rw.6, rw. bar., kota jakarta selatan",ChIJy_TP0l_xaS4RN33VNof7puc,0
warteg gaspoll,4.6,37,-6.23992,106.811888,"santa modern market, lantai 2 no. 171-172, rt.5/rw.4, petogogan, kota jakarta selatan",ChIJox4BmHnxaS4R391rlmpggsA,0
warteg kowantara jaksel,5,1,-6.241513299999999,106.8177321,"jl. bangka raya no.1, rt.2/rw.5, pela mampang, kota jakarta selatan",ChIJz4Xl2GHxaS4RmiyEQ3wPx7U,0
warteg aka jaya,5,3,-6.240929899999999,106.8179024,"jl. bangka raya no.10a, rt.2/rw.5, pela mampang, kota jakarta selatan",ChIJKVUSgyXxaS4RzwvA9q0q4G4,0
warteg barokah,4.1,8,-6.241329299999999,106.8188167,"jl. bangka i no.18, rt.11/rw.1, bangka, kota jakarta selatan",ChIJH0vobt_zaS4RANlPoWH6NOU,0
warteg anindya,4.7,3,-6.2409514,106.8211758,"jl. pd. karya, rt.2/rw.9, pela mampang, kota jakarta selatan",ChIJ7caTMqbzaS4RK-zKmDq8XSk,0
warteg slawiayu,5,1,-6.236124299999999,106.8157183,"blok s, jl. senayan, rt.5/rw.6, rw. bar., kota jakarta selatan",ChIJxxTspF_xaS4RSg0lD1RiMWA,0
warteg kirana bahari,4.5,24,-6.234984,106.818697,"jl. poncol jaya no.20, rt.9/rw.4, kuningan bar., kota jakarta selatan",ChIJt0NuzuHzaS4Rq7gif9mfGWs,0
warteg bu sari,4.5,6,-6.2415787,106.8176039,"jl. bangka raya, rt.3/rw.1, pela mampang, kota jakarta selatan",ChIJ8xLw3mHxaS4RMk5Jcbk88VM,0
warteg jono,3.8,9,-6.2408113,106.8207697,"jl. bangka i, rt.2/rw.9, pela mampang, kota jakarta selatan",ChIJBx90At_zaS4RGUrh-C3K4eg,0
warteg 88a jaya,4,13,-6.238967,106.813477,"rt.1/rw.4, petogogan, south jakarta city",ChIJ-VtAlWDxaS4Rufkfpv684fU,0
warteg kharisma bahari (wkb),5,2,-6.240634699999999,106.8203024,"jl. kapten tendean, rt.1/rw.1, pela mampang, kota jakarta selatan",ChIJVVqsESLzaS4R6snPGR7Y8Ps,0
warteg jaya lap blok s,5,1,-6.2374823,106.8148214,"jl. birah ii no.4, rt.6/rw.6, rw. bar., kota jakarta selatan",ChIJqWOhLV7xaS4RDvGBcds4JAw,0
warteg berkah jaya,0,0,-6.242133700000001,106.8201452,"jl. bangka i a no.18, rt.5/rw.9, pela mampang, jakarta",ChIJz3KxaWnzaS4RE3VmXvN8OeI,0
warteg h mawardi,4.5,2,-6.2378788,106.8189619,"no 26, jl. poncol jaya no.rt 11, rt.14/rw.5, kuningan bar., kota jakarta selatan",ChIJ3_zJnv_zaS4Rn1rROyfiZeA,0
warteg bahari 11,5,5,-6.230938,106.823469,"jl. komp. tni (auri) no.11, rt.3/rw.3, kuningan, kuningan tim., kota jakarta selatan",ChIJxw7cHCzzaS4Rtw7d-RgE6ak,0
warteg tiga putra,5,1,-6.2353714,106.8206072,"jl. kuningan bar. 1 no.2, rt.12/rw.1, kuningan bar., kota jakarta selatan",ChIJvZ8o76zzaS4RKBG9FFJIL50,0
warteg latifah,4,1,-6.24093,106.8211739,"jl. pd. karya jl. kuningan barat raya no.9, rt.2/rw.9, pela mampang, kota jakarta selatan",ChIJw91g-97zaS4Rqp-Q8nSe9nQ,0
"warteg bu nani, gang jati bawah.",2.5,2,-6.2418962,106.8228196,"gg. jati no.10, rt.11/rw.1, mampang prpt., kota jakarta selatan",ChIJSQNofAXzaS4R1p_FsjsamKs,0
warteg ortega,4.7,34,-6.241776,106.8144211,"jl. wijaya timur vi no.rt.10, rt.12/rw.2, petogogan, kota jakarta selatan",ChIJp2DKaGHxaS4R5EuRKWHcAKc,0
warteg ibu gendut,4.8,8,-6.2328797,106.8235432,"jl. komp. tni (auri) no.28, rt.5/rw.3, kuningan, kuningan tim., kota jakarta selatan",ChIJi_iWVOHzaS4RaeIAhhJK1_8,0
warung tegal gang jati,4.3,99,-6.2407048,106.8228452,"jl. kapten tendean no.3, rt.3/rw.1, mampang prpt., kota jakarta selatan",ChIJlXecid7zaS4Rdu0nQTlr-3g,0
warteg,4.4,175,-6.2730144,106.8148675,"jl. kemang sel., rt.5/rw.6, cipete sel., kota jakarta selatan",ChIJwTeEN4bxaS4RuMOTs5rkpNI,0
warteg pusri,4.3,74,-6.2685656,106.8185455,"jl. kemang dalam x, rt.5/rw.2, bangka, kota jakarta selatan",ChIJB2v5ByjyaS4ROSpxhg8l-Gg,0
warteg rizal bahari sedia soto ayam,5,2,-6.2716091,106.8102877,"jl. jaya no.71, rt.1/rw.7, cipete sel., kota jakarta selatan",ChIJf9Li4I7xaS4R7lu2AE0Lquk,0
warteg wagetun a.k.a warhol,0,0,-6.2716898,106.8154416,"prh8+85g, rt.1/rw.2, bangka, south jakarta city",ChIJyZGQronxaS4Re9hq36L4QoQ,0
warteg yayu,4.4,8,-6.272869399999999,106.809681,"jl. puri sakti i no.26a, rt.2/rw.7, cipete sel., kota jakarta selatan",ChIJCbKCjY7xaS4Rq_MXqOSXik8,0
warteg rofiq,4.9,9,-6.2779121,106.8157755,"jl. benda dalam no.16c, rt.6/rw.4, cilandak tim., kota jakarta selatan",ChIJbwekxIrxaS4RxnyZ7wN_crA,0
warteg citra bahari,3.3,3,-6.267001899999999,106.8115929,"jalan haji abdul majid, rt.6/rw.7, cipete sel., kota jakarta selatan",ChIJ6yqP2YXxaS4R8AJUoEswT1U,0
warteg kholifah,5,1,-6.270166,106.808964,"jl. manunggal juang no.1, rt.2/rw.3, cipete sel., kota jakarta selatan",ChIJTW4uAObxaS4RztgSpLTVsBs,0
warteg dedi,5,2,-6.2670914,106.8132925,"prm7+587, rt.7/rw.2, bangka, south jakarta city",ChIJpX9E6XLxaS4Rn-JzgszYZB0,0
warteg gaspoll,4.6,37,-6.23992,106.811888,"santa modern market, lantai 2 no. 171-172, rt.5/rw.4, petogogan, kota jakarta selatan",ChIJox4BmHnxaS4R391rlmpggsA,0
warteg nojo jaya,4.1,130,-6.2369222,106.8169473,"jl. rengas 3 no.1, rt.7/rw.2, rw. bar., kota jakarta selatan",ChIJe36y7V_xaS4Rg4XGMfLfIX0,0
warteg bahari jaya,0,0,-6.2390041,106.8188734,"jl. kapten tendean, rt.6/rw.5, kuningan bar., kota jakarta selatan",ChIJ-RZCiKvzaS4RtAav75WND64,0
warteg jaya bahari,4.6,5,-6.241229,106.8177995,"jl. bangka raya no.10, rt.2/rw.1, pela mampang, kota jakarta selatan",ChIJVYhx2GHxaS4R8ZbmSUf-62k,0
warteg bahari 234,0,0,-6.2393939,106.8182932,"jl. kapten tendean no.4, rt.1/rw.1, pela mampang, kota jakarta selatan",ChIJE-dnjN_zaS4RunDaLwj6xZ0,0
warteg jaya,3,1,-6.237504,106.814933,"#, jl. birah ii no.4, rt.6/rw.6, rw. bar., kota jakarta selatan",ChIJy_TP0l_xaS4RN33VNof7puc,0
warteg kowantara jaksel,5,1,-6.241513299999999,106.8177321,"jl. bangka raya no.1, rt.2/rw.5, pela mampang, kota jakarta selatan",ChIJz4Xl2GHxaS4RmiyEQ3wPx7U,0
warteg aka jaya,5,3,-6.240929899999999,106.8179024,"jl. bangka raya no.10a, rt.2/rw.5, pela mampang, kota jakarta selatan",ChIJKVUSgyXxaS4RzwvA9q0q4G4,0
warteg barokah,4.1,8,-6.241329299999999,106.8188167,"jl. bangka i no.18, rt.11/rw.1, bangka, kota jakarta selatan",ChIJH0vobt_zaS4RANlPoWH6NOU,0
warteg slawiayu,5,1,-6.236124299999999,106.8157183,"blok s, jl. senayan, rt.5/rw.6, rw. bar., kota jakarta selatan",ChIJxxTspF_xaS4RSg0lD1RiMWA,0
warteg kirana bahari,4.5,24,-6.234984,106.818697,"jl. poncol jaya no.20, rt.9/rw.4, kuningan bar., kota jakarta selatan",ChIJt0NuzuHzaS4Rq7gif9mfGWs,0
warteg nojo jaya ciragil,4.2,113,-6.2374415,106.8093958,"jl. cikatomas no.12, rt.5/rw.1, rw. bar., kota jakarta selatan",ChIJSfF6m13xaS4RA4-iuuueqIg,0
warteg 88a jaya,4,13,-6.238967,106.813477,"rt.1/rw.4, petogogan, south jakarta city",ChIJ-VtAlWDxaS4Rufkfpv684fU,0
warteg jaya lap blok s,5,1,-6.2374823,106.8148214,"jl. birah ii no.4, rt.6/rw.6, rw. bar., kota jakarta selatan",ChIJqWOhLV7xaS4RDvGBcds4JAw,0
warteg ortega,4.7,34,-6.241776,106.8144211,"jl. wijaya timur vi no.rt.10, rt.12/rw.2, petogogan, kota jakarta selatan",ChIJp2DKaGHxaS4R5EuRKWHcAKc,0
warteg berkah jaya,0,0,-6.242133700000001,106.8201452,"jl. bangka i a no.18, rt.5/rw.9, pela mampang, jakarta",ChIJz3KxaWnzaS4RE3VmXvN8OeI,0
warteg h mawardi,4.5,2,-6.2378788,106.8189619,"no 26, jl. poncol jaya no.rt 11, rt.14/rw.5, kuningan bar., kota jakarta selatan",ChIJ3_zJnv_zaS4Rn1rROyfiZeA,0
warteg bangka 2,4.4,113,-6.2438636,106.819218,"jl. bangka ii no.rt.12, rt.12/rw.1, pela mampang, kota jakarta selatan",ChIJyzDruNjzaS4RBaMrsK3v6lU,0
warteg anindya,4.7,3,-6.2409514,106.8211758,"jl. pd. karya, rt.2/rw.9, pela mampang, kota jakarta selatan",ChIJ7caTMqbzaS4RK-zKmDq8XSk,0
warteg jono,3.8,9,-6.2408113,106.8207697,"jl. bangka i, rt.2/rw.9, pela mampang, kota jakarta selatan",ChIJBx90At_zaS4RGUrh-C3K4eg,0
warteg nurul jaya,5,1,-6.237932799999999,106.8092399,"jl. ciragil ii no.14, rt.4/rw.1, rw. bar., kota jakarta selatan",ChIJlSx6gV3xaS4RX63CdU-RK_c,0
warteg kharisma bahari (wkb),5,2,-6.240634699999999,106.8203024,"jl. kapten tendean, rt.1/rw.1, pela mampang, kota jakarta selatan",ChIJVVqsESLzaS4R6snPGR7Y8Ps,0
warteg sari rasa bahari,4.8,4,-6.241202700000001,106.8086271,"15, rt.15/rw.6, petogogan, kota jakarta selatan",ChIJfcQt7GfxaS4RQPODRu1FWH8,0
warteg indah jaya,5,2,-6.241308699999999,106.8084911,"jl. cililin no.12a, rt.15/rw.6, petogogan, kota jakarta selatan",ChIJOQgwUWbxaS4RlO0bjH5s4kA,0
warteg tiga putra,5,1,-6.2353714,106.8206072,"jl. kuningan bar. 1 no.2, rt.12/rw.1, kuningan bar., kota jakarta selatan",ChIJvZ8o76zzaS4RKBG9FFJIL50,0
warteg,4.4,175,-6.2730144,106.8148675,"jl. kemang sel., rt.5/rw.6, cipete sel., kota jakarta selatan",ChIJwTeEN4bxaS4RuMOTs5rkpNI,0
warteg pusri,4.3,74,-6.2685656,106.8185455,"jl. kemang dalam x, rt.5/rw.2, bangka, kota jakarta selatan",ChIJB2v5ByjyaS4ROSpxhg8l-Gg,0
warteg citra bahari,3.3,3,-6.267001899999999,106.8115929,"jalan haji abdul majid, rt.6/rw.7, cipete sel., kota jakarta selatan",ChIJ6yqP2YXxaS4R8AJUoEswT1U,0
warteg wagetun,4.3,14,-6.2716344,106.815337,"jl. kemang raya no.95 e, rt.1/rw.2, bangka, kota jakarta selatan",ChIJh867ronxaS4Rc0hjpvuWHW8,0
warteg dedi,5,2,-6.2670914,106.8132925,"prm7+587, rt.7/rw.2, bangka, south jakarta city",ChIJpX9E6XLxaS4Rn-JzgszYZB0,0
warteg yayu,4.4,8,-6.272869399999999,106.809681,"jl. puri sakti i no.26a, rt.2/rw.7, cipete sel., kota jakarta selatan",ChIJCbKCjY7xaS4Rq_MXqOSXik8,0
warteg 99,4.2,23,-6.274098,106.8220901,"jl. kecapi no.3, rt.14/rw.8, pejaten bar., kota jakarta selatan",ChIJy4TQMiHyaS4RyI3wvKzIVBE,0
warteg rizal bahari sedia soto ayam,5,2,-6.2716091,106.8102877,"jl. jaya no.71, rt.1/rw.7, cipete sel., kota jakarta selatan",ChIJf9Li4I7xaS4R7lu2AE0Lquk,0
warteg rofiq,4.9,9,-6.2779121,106.8157755,"jl. benda dalam no.16c, rt.6/rw.4, cilandak tim., kota jakarta selatan",ChIJbwekxIrxaS4RxnyZ7wN_crA,0
warteg kholifah,5,1,-6.270166,106.808964,"jl. manunggal juang no.1, rt.2/rw.3, cipete sel., kota jakarta selatan",ChIJTW4uAObxaS4RztgSpLTVsBs,0
