nama_tempat,rating_tempat,user_ratings_total,latitude,longitude,alamat_tempat,place_id,distance
warteg warmo,4.1,3319,-6.230143,106.8523994,"jl. tebet timur raya no.1d, rt.8/rw.10, tebet tim., kota jakarta selatan",ChIJez1HhZDzaS4RDzWl0w4Y-5E,0.009087199999991746
warteg bahari,4.5,12,-6.2355784,106.842835,"jl. masjid an nur no.24a, rt.4/rw.2, menteng dalam, kota jakarta selatan",ChIJlXALPpXzaS4RrjkhZxIhv9I,0.006043000000011567
warteg putra bahari 112,4.9,20,-6.231840999999999,106.85273,"8, jl. tebet timur raya no.18d, rt.8/rw.10, east tebet, south jakarta city",ChIJz6k9KtvzaS4R2OKeQIHyhbs,0.0077197999999905065
warteg bahari,4.3,438,-6.2516782,106.8505178,"jl. pengadegan selatan no.12, rt.3/rw.5, pengadegan, kota jakarta selatan",ChIJIV4Ig7HzaS4RAOHhKF4zxeE,0.01773960000000052
warteg nojo jaya,4.6,8,-6.2350157,106.8600161,"jl. asem baris raya no.36a, rt.4/rw.6, kb. baru, kota jakarta selatan",ChIJtUT4Op_zaS4R5XX7ufYQ850,0.011831199999991604
warteg mulya,4.9,10,-6.22113,106.846073,"jl. dr. saharjo, rt.4/rw.5, menteng atas, kota jakarta selatan",ChIJ1w_j8ovzaS4RWFhXncsmwEs,0.017253400000001307
warteg 24 jam,4.3,44,-6.2463126,106.8590844,"jl. cikoko timur raya no.10, rt.4/rw.1, cikoko, kota jakarta selatan",ChIJXxB3_aXzaS4ROq1fqmtY66I,0.020940599999995868
warteg,3,1,-6.2187167,106.8612924,"jl. bukit duri no.30, rt.10/rw.6, bukit duri, kota jakarta selatan",ChIJjxOZ13_zaS4R6gMhRnEeuG0,0.02940649999999234
warteg bahari.in,5,2,-6.220841099999999,106.8498442,"jl albarkah no 30 rt 06/rw 03 kel, rt.6/rw.3, manggarai sel., kota jakarta selatan",ChIJS3btx1DzaS4RgweaHWbNokg,0.015833900000004064
warteg barokah,4.3,10,-6.2300781,106.8526646,"jl. tebet timur raya no.32d, rt.9/rw.10, tebet tim., kota jakarta selatan",ChIJB2JJXLzzaS4Rl38TLDDvUEk,0.009417299999992856
warteg salsabilla,4.2,31,-6.2347018,106.8378487,"2, jl. rasamala iii no.3, rt.2/rw.13, menteng dalam, kota jakarta selatan",ChIJq93OrevzaS4R8Q3x2ynNcyI,0.011905900000010128
warteg berkah,4.1,13,-6.222289099999999,106.8446667,"jl. menteng pulo 1 no.14, rt.15/rw.5, menteng dalam, kota jakarta selatan",ChIJHQAA84zzaS4RdP7KBSg8FSc,0.017500600000000865
warteg barokah,4,1,-6.2434052,106.835417,"jl. pancoran barat xic, rt.5/rw.3, pancoran, kota jakarta selatan",ChIJM-bbHcTzaS4Rd_xzhiQUmbw,0.021157399999997217
warteg bu haji,0,0,-6.2533106,106.8481756,"jl. kh.mahmud,buntu no.7, rt.5/rw.4, duren tiga, kota jakarta selatan",ChIJs0Hks73zaS4R7qyhiRJX9jk,0.018304199999999327
warteg pojok,4.5,4,-6.242638299999999,106.8367715,"jl. pancoran barat xi no.19, rt.1/rw.3, pancoran, kota jakarta selatan",ChIJ97NFtMbzaS4R11zCKNnQMXo,0.019036000000006048
warteg rejo,4.3,85,-6.2500474,106.8365005,"jl. pancoran barat vii, rt.3/rw.6, pancoran, kota jakarta selatan",ChIJwzmO2MjzaS4RhQ3lUJ_iSZo,0.02671610000000424
warteg jayabahari,3,1,-6.2492558,106.8585973,"jl. pengadegan timur raya no.13, rt.3/rw.2, pengadegan, kota jakarta selatan",ChIJFai7Ka_zaS4R8ZJBl48vVJs,0.02339669999999483
warteg bahari,4.6,5,-6.2273648,106.8580821,"3, jl. tebet timur dalam ii no.1, rt.1/rw.3, tebet tim., kota jakarta selatan",ChIJszqGRJvzaS4RfYVqRQsB5AE,0.017548099999999955
warteg restu ibu,4.2,22,-6.2472631,106.8534447,"jl. pengadegan utara ii no.4 rt.007/rw.07 kel, rt.8/rw.6, pengadegan, kota jakarta selatan",ChIJZdF7WOjzaS4RxgYkFhzAzTE,0.01625139999999181
warteg putri,3.3,3,-6.2191892,106.852938,"jl. bukit duri selatan no.5, rt.9/rw.3, bukit duri, kota jakarta selatan",ChIJRXpbgYjzaS4RV1hv9D-ZtxA,0.020579599999990705
warteg ibu mukrim,4.5,25,-6.228701699999999,106.8517258,"qvc2+gm9, rt.15/rw.1, west tebet, south jakarta city",ChIJqViFXZDzaS4RYuxEuo2HLgE,0.00985489999999345
warteg putra bahari,5,1,-6.2227801,106.8323515,"jl. menteng atas barat, rt.16/rw.4, kuningan, karet kuningan, kota jakarta selatan",ChIJVVi88qfzaS4Rkk8n8QeYzMk,0.029324800000003926
wahyoo warteg bahari tegal,4.2,33,-6.245285,106.832002,"jl. mampang prpt. raya no.50, rt.6/rw.2, tegal parang, jakarta",ChIJYRJm8HDzaS4R2dbsP7HAQQY,0.02645220000000137
warteg,0,0,-6.251912799999999,106.8494694,"jl. h. mahmud raya, rt.4/rw.4, kalibata, kota jakarta selatan",ChIJp2isKTbzaS4RZPwI0GYl890,0.016925799999997437
warteg dewi,3.8,4,-6.2534892,106.840767,"jl. duren tiga raya, rt.1/rw.1, pancoran, kota jakarta selatan",ChIJ624TDsrzaS4RtcJpUsWQ24E,0.02589140000000434
warteg kharisma,4.2,18,-6.239914,106.84741,"jl. tebet barat dalam vii no.5 a, rt.9/rw.6, tebet bar., kota jakarta selatan",ChIJ677FKbzzaS4RXgH8C4vnh9k,0.005673200000007483
warteg jaya bahari,4.3,71,-6.229081799999999,106.8589533,"qvc5+9h8, rt.4/rw.5, kebon baru, south jakarta city",ChIJv7OqgZvzaS4RReSkChFTU5c,0.016702299999993286
warteg bahari berkah,0,0,-6.233874399999999,106.8568334,"jl. tebet timur dalam raya no.rt.004, rt.4/rw.5, tebet tim., kota jakarta selatan",ChIJo64jEZXzaS4RvUg2XuXUamc,0.009789799999996518
warteg kharisma bahari,3.8,21,-6.253233,106.8373344,"jl. duren tiga raya no.41, rt.5/rw.6, duren tiga, kota jakarta selatan",ChIJYwBuaqbzaS4Rc_bfFtZiX4c,0.029067800000000865
warteg rasamala,4,104,-6.2361868,106.8402147,"jl. rasamala raya no.24, rt.9/rw.2, menteng dalam, kota jakarta selatan",ChIJ802RvurzaS4Rx2pin99rm7A,0.009141299999999575
warteg jaya bahari,3.8,71,-6.2429118,106.8324035,"jl. tegal parang utara no.8, rw.4, mampang prapatan, south jakarta city",ChIJLxmzydXzaS4RwXUdsDypiro,0.023677500000006013
warteg barokah,4.8,12,-6.219698999999999,106.838137,"jl. menteng atas barat, rt.5/rw.5, menteng atas, dki jakarta",ChIJm5kBVPTzaS4RRZCxr82lqFA,0.02662040000000232
warteg dapuk,4.1,113,-6.253419900000001,106.8384314,"jl. duren tiga selatan, rt.3/rw.6, duren tiga, kota jakarta selatan",ChIJpbbHNhfzaS4RXx6_ORxH6x8,0.028157700000000396
warteg 21,4.8,19,-6.2211618,106.8448696,"jl. pendawa no.2, rt.3/rw.5, menteng dalam, kota jakarta selatan",ChIJN8xhrefzaS4ReYI0FQkdFi0,0.01842500000000946
warteg ridho ibu,4.6,15,-6.240116,106.8452333,"jl. prof. dr. soepomo no.31, rt.4/rw.1, menteng dalam, kota jakarta selatan",ChIJY5BMw77zaS4RcRklqw5XtMI,0.008051900000000778
warteg pesona bahari,4.5,6,-6.2532369,106.8426154,"jl. raya pasar minggu no.46, rt.3/rw.7, duren tiga, kota jakarta selatan",ChIJtb4l6bXzaS4RroOmPgeOchY,0.023790700000004605
warteg ridho ibu,3,1,-6.2355081,106.8570736,"jl. tebet timur dalam raya no.2, rw.6, tebet tim., kota jakarta selatan",ChIJX1PskpjzaS4RgD_4nr4402o,0.00839630000000291
warteg ugi jaya,0,0,-6.249038199999999,106.8596685,"jl. pengadegan timur ii, rt.4/rw.1, pengadegan, kota jakarta selatan",ChIJpUbl1qjzaS4R221fy8pd2MM,0.024250299999992286
warteg bahari,5,1,-6.2457579,106.8591311,"jl. pengadegan utara no.10, rt.4/rw.2, cikoko, kota jakarta selatan",ChIJC86dsLvzaS4RiELAZPEfFh0,0.02043259999999414
warteg sri,4.1,16,-6.233523000000001,106.8651764,"jl. f bawah no 35 rt/rw. 008/008 12830, rt.8/rw.8, kb. baru, kota jakarta selatan",ChIJqYbNgHXzaS4R-cNXpaQAU9M,0.018484199999990736
warteg maun jaya,4.8,6,-6.2185941,106.8452144,"jalan dokter saharjo, rt.1/rw.4, manggarai sel., kota jakarta selatan",ChIJY7fqT4rzaS4RpXeI2d90cpo,0.02064790000000194
warteg podomoro 3,5,1,-6.2321442,106.8441351,"jalan merpati 3 no.26, rt.1/rw.3, menteng dalam, kota jakarta selatan",ChIJBzn-f5PzaS4R17_-nsHYGso,0.008177100000002824
warteg gaul,4.5,6,-6.229657899999999,106.8582529,"jl. tebet timur dalam ii, rt.6/rw.3, tebet tim., kota jakarta selatan",ChIJYYaxmpvzaS4Riyrd5B0_j3M,0.01542579999999294
warteg febri,4.1,9,-6.2229266,106.8449343,"jl. pendawa, rt.14/rw.5, menteng dalam, kota jakarta selatan",ChIJcwt1Z4zzaS4Ra-Zsp1fdunY,0.01659549999999932
warteg jaya makmur,4.1,13,-6.247274,106.842307,"jl. raya psr minggu, rt.1/rw.4, pancoran, kota jakarta selatan",ChIJ9coSHbjzaS4R2kA_O_yILi8,0.018136199999998937
warteg bu ipah,5,2,-6.230258699999999,106.8523018,"no., jl. tebet raya no.15, rt.8/rw.10, tebet tim., kota jakarta selatan",ChIJK3v_lpDzaS4R4vRnQ8m4nUI,0.008873900000002877
warteg jaya makmur,5,4,-6.2411759,106.8446499,"jl. prof. dr. soepomo no.7, rt.4/rw.1, menteng dalam, kota jakarta selatan",ChIJYwXw0eXzaS4R2BJWYmrH6xs,0.009695200000011006
warteg bahari pakde sukram,4.9,30,-6.220428,106.8482647,"jl albarkah no 18a rt 13/rw 04 kel, rt.13/rw.4, manggarai sel., kota jakarta selatan",ChIJF8RTXUPzaS4ROzbGmkZix7s,0.01576370000000349
warteg ibu mulus,4.7,32,-6.222481699999999,106.8590161,"jl. bukit duri tanjakan no.58, rt.1/rw.8, bukit duri, kota jakarta selatan",ChIJ4y2TCoTzaS4RGr44il_yChU,0.023365200000002417
warteg saniki,4.6,27,-6.250999699999999,106.8350007,"jl. mampang prapatan xiv no.100, rt.8/rw.4, tegal parang, kota jakarta selatan",ChIJuZfW887zaS4RsTUoBdsp-Ko,0.02916820000000797
warteg tasya,4.5,51,-6.229188,106.8516545,"jl. tebet barat raya, rt.14/rw.1, tebet bar., kota jakarta selatan",ChIJBT53xGrzaS4RH6BnYXB2z3c,0.009297299999991182
warteg rava,4,8,-6.2495841,106.8513794,"jl. pancoran timur raya no.54f, rt.6/rw.8, pengadegan, kota jakarta selatan",ChIJL_-fTLDzaS4RrwSr0GG_lDY,0.01650709999999389
warteg kowantara jaksel,4.4,13,-6.2465069,106.8570923,"jl. pengadegan utara no.6a, rt.7/rw.2, cikoko, kota jakarta selatan",ChIJZRk7j6XzaS4RiqZ1XOtDkSM,0.019142800000000015
warteg emak,4.6,11,-6.222114899999999,106.8409979,"jl. menteng pulo ii no.8, rt.16/rw.12, menteng dalam, kota jakarta selatan",ChIJddVfNPPzaS4RKVPQVOTT8gs,0.021343600000000684
warteg latifah,3.9,61,-6.245214499999999,106.8308268,"jl. mampang prapatan iv, rt.15/rw.4, mampang prpt., kota jakarta selatan",ChIJTXvhJ8XzaS4RHQma6XlEioI,0.02755690000000577
warteg barokah,0,0,-6.2190124,106.8379213,"jl. menteng atas sel. gg. 2 no.5, rt.4/rw.5, menteng atas, kota jakarta selatan",ChIJY0fmC531aS4RSyHk65ODHDU,0.027522699999999567
