nama_tempat,rating_tempat,user_ratings_total,latitude,longitude,alamat_tempat,place_id,distance
warteg kharisma bahari,4.2,156,-6.2443246,106.78054569999999,"warteg kharisma bahari 18 jl.ciputat raya no.30 rt.03 rw.07, rt.3/rw.4, kby. lama utara, kota jakarta selatan",ChIJA4lMQyzxaS4RpfbgphsypcQ,0.020607500000007658
warteg bahari ibu lia,4.8,8,-6.2358547999999985,106.76974969999999,"jl. h. amsar no.7, rt.12/rw.5, cipulir, kota jakarta selatan",ChIJzbnWunjxaS4RoJljZ4gouvk,0.011611700000006664
warteg agung jaya,4.9,7,-6.2279684999999985,106.786927,"jalan rawa simprug iii rt 006 rw 005 # 12 grogol selatan, rt.5/rw.5, grogol sel., dki jakarta",ChIJ3USPoTDxaS4RJNNLe1oEBhk,0.0
wahyoo warteg galieh,4.5,29,-6.2206362,106.7815267,"v, jl. kebon nanas, rt.4/rw.10, grogol utara, kota jakarta selatan",ChIJizc1cC3xaS4RifGoIUaUOQA,0.0
warteg kharisma bahari,4.0,4,-6.2203588,106.7816176,"jl. panjang no.8, rt.7/rw.10, grogol utara, kota jakarta selatan",ChIJTSdrby3xaS4Ry8UPA0jQ4fk,0.0
warteg jaya sedia. sp .soto ayam.dll.,0.0,0,-6.2202499000000016,106.78128390000002,"jl. panjang no.30, rt.5/rw.10, grogol utara, kota jakarta selatan",ChIJk_Xway3xaS4Rcx2N_iUCOpM,0.0
warteg aji jaya,0.0,0,-6.2203031,106.781368,"jl. panjang no.30, rt.5/rw.10, grogol utara, kota jakarta selatan",ChIJ1-2ubi3xaS4RAD7SooFWKBg,0.0
warteg embem kharisma,0.0,0,-6.2203588,106.7816176,"jl. panjang no.8, rt.7/rw.10, grogol utara, kota jakarta selatan",ChIJjw0LpwLxaS4RLuKNH2ajN4M,0.0
warteg jihan,5.0,1,-6.2361656,106.75586799999999,"jl. pratama no.3, rt.2/rw.6, petukangan sel., kota jakarta selatan",ChIJ0cRjdcPwaS4RwEQ00gtcVYk,0.01466700000001264
warteg ceria 1,4.6,27,-6.2284045,106.7532555,"jl. palem i no.8, rt.8/rw.3, petukangan utara, kota jakarta selatan",ChIJsSb-29_xaS4R9HX-8PFWuuE,0.00429340000000078
warteg kharisma bahari,4.8,55,-6.2441263,106.76328909999998,"jl. ulujami raya no.8, rt.2/rw.2, ulujami, kota jakarta selatan",ChIJQ9pYvebwaS4RCBLwS9V3uMk,0.0
warteg bahari 108,0.0,0,-6.237954299999998,106.7636277,"jl. ciledug raya no.2, rt.1/rw.3, ulujami, kota jakarta selatan",ChIJvz4oxN3waS4REb2BVAlbr6g,0.0
warteg bahari,3.7,3,-6.2177193,106.76676040000001,"jalan pahlawan 1 kelurahan sukabumi selatan kecamatan kebon jeruk, rt.4/rw.5, sukabumi sel., dki jakarta",ChIJKyVWFiv3aS4RwZTA_rPHL7g,0.0
warteg sida mulya,0.0,0,-6.2186565,106.76929650000001,"qqj9+gpm, rt.7/rw.5, south sukabumi, west jakarta city",ChIJse1y5mL3aS4RMB1Tt8iBBak,0.0
warteg ifah,5.0,1,-6.236356,106.76063500000001,"jl. swadarma raya, rt.5/rw.3, ulujami, kota jakarta selatan",ChIJA-izBT7xaS4RZbdUvQVXaK0,0.0
warteg pak kumis,0.0,0,-6.238007400000001,106.7647652,"qq67+qwr, rt.7/rw.5, cipulir, south jakarta city",ChIJefMhG3HxaS4Rl9SHdoIRQuc,0.0
warteg lena,3.9,28,-6.2430857,106.7690678,"qq49+qj8, rt.11/rw.11, north kebayoran lama, south jakarta city",ChIJM1-cuOHwaS4RXNBGBXZ7kas,0.0
warteg al ikhlas / slawi ayu,4.5,2,-6.236918699999999,106.7584081,"jl. ciledug raya no.53, rt.6/rw.4, petukangan utara, kota jakarta selatan",ChIJWTAfM0LxaS4RI6snOB2lGrQ,0.0
"warteg dulur,2",4.7,34,-6.238327,106.7568664,"jl. moh. saidi jl. pesanggrahan raya no.a. 53, rt.2/rw.6, petukangan sel., kota jakarta selatan",ChIJifVv78LwaS4RGAxp1yZfNco,0.0
warteg permata bahari (bude ikmah),5.0,2,-6.2340637,106.75713950000001,"jl. kostrad pusri raya no.1, petukangan utara, pesanggrahan, rt.9/rw.4, petukangan utara, kota jakarta selatan",ChIJCeOrl8TwaS4Rv0cVukcH9kY,0.0
warteg al-ikhlas mas ahmad,0.0,0,-6.237037900000002,106.758315,"jl. ciledug raya no.1-57, rt.6/rw.4, petukangan utara, kota jakarta selatan",ChIJEwU3VOvxaS4RMkvxKa5E4Zc,0.0
warteg bahari 02,5.0,3,-6.225159,106.76338100000001,"jl. kp. baru 5 no.44, rt.4/rw.2, ulujami, kota jakarta selatan",ChIJV0H0QtHwaS4RM4LCySp_nkk,0.02482939999999445
warteg bahari 19,5.0,1,-6.2278687999999995,106.76060790000001,"jl. swadarma raya, rt.1/rw.2, ulujami, kota jakarta selatan",ChIJyx2TRtDwaS4RkbNcoX-XhOM,0.019346499999994826
warteg jaya bahari,4.4,8,-6.228554099999998,106.75735149999998,"jl. palem raya no.50, rt.7/rw.8, petukangan utara, kota jakarta selatan",ChIJTTa7_qfxaS4RGNU2Sf2seDU,0.015404799999997996
warteg asri,5.0,1,-6.2272779,106.7528639,"jl. masjid darul falah, rt.8/rw.3, petukangan utara, kota jakarta selatan",ChIJjcZf1cjwaS4RLCYWt3YmfBE,0.0182664000000079
warteg sederhana,4.3,15,-6.2245623,106.76295990000001,"jl. kp. baru 5 no.2, rt.7/rw.2, ulujami, kota jakarta selatan",ChIJddJpYdHwaS4RT34iPH2cgJo,0.0250049999999975
warteg berkah slawi ayu,5.0,1,-6.2259718,106.76370520000002,"jalan kampung baru 3 (50 meter dari gapura) ulujami pesanggrahan, rt.3/rw.2, ulujami, dki jakarta",ChIJbcrjO9HwaS4RHl0lM4HYv28,0.02434080000000272
warteg permata bahari,4.5,48,-6.228282800000001,106.7571826,"jl. palem raya no.33, rt.7/rw.8, petukangan utara, kota jakarta selatan",ChIJm2GAv8_waS4REK-eCg6R_q8,0.015507199999992059
warteg lestari 2,5.0,1,-6.2262694000000005,106.77115159999998,"jalan h thohir rt 02 rw 04 no 51a kebon jeruk, rt.2/rw.4, sukabumi sel., dki jakarta",ChIJrY7Y4SnxaS4RwhUNDhDO_nw,0.0
warteg barokah pak rohkmani,0.0,0,-6.2264412,106.76976950000001,"jl. persatuan no.1, rt.1/rw.4, grogol sel., kota jakarta selatan",ChIJQ0TdC6LxaS4R6Uu_y40Y_ts,0.0
warteg kharisma bahari,0.0,0,-6.228973000000001,106.77153600000001,"jl. panjang cidodol no.2, rt.5/rw.13, sukabumi sel., kota jakarta selatan",ChIJacp_7OfxaS4Ru_0AAzvYeK4,0.0
warteg nabilah,4.2,36,-6.226505299999999,106.7689875,"jl. persatuan no.24a, rt.1/rw.7, grogol sel., kota jakarta selatan",ChIJu9zJS9bwaS4R3BhFKXsYi58,0.0
warteg surya kencana,4.4,101,-6.230512000000001,106.77183590000001,"jl. panjang cidodol no.15, rt.5/rw.13, grogol sel., kota jakarta selatan",ChIJNV_HlCfxaS4R0jAyY7YYX74,0.0
warteg cahaya,0.0,0,-6.2242006,106.76794579999999,"south sukabumi, west jakarta city",ChIJqYf21dXwaS4Rnsc3dJxpwUI,0.0
wahyoo warteg,0.0,0,-6.2189422,106.77878490000002,"north grogol, south jakarta city",ChIJ3WN40izxaS4RcmUdH9YDDDU,0.0
warteg barokah,5.0,4,-6.2378864,106.76971929999999,"jl. ciledug raya no.9, rt.2/rw.5, cipulir, kota jakarta selatan",ChIJR9Aokt_waS4RFASO0A1o0m8,0.017462800000002332
warteg bahari kembar,5.0,2,-6.2394446,106.77085919999999,"jl. al mubarok 1 no.10, rt.1/rw.1, cipulir, kota jakarta selatan",ChIJQzXRASDxaS4RuL0MAhxie_k,0.0170445000000008
warteg bahari 107,4.4,28,-6.238039499999998,106.7684813,"jl. ciledug raya, rt.14/rw.6, cipulir, kota jakarta selatan",ChIJRZd9t9_waS4Re0g731DM18M,0.01607170000000213
warteg ibu sri,4.0,2,-6.2324347000000015,106.757139,"jl. kostrad raya no.22, rt.3/rw.5, petukangan utara, kota jakarta selatan",ChIJ7xnQ4cTwaS4RVxsvx2SQCmo,0.019653000000007914
wahyoo warteg bahari,4.3,19,-6.2434033,106.76289170000001,"jalan ulujami raya no.1, rt.12 rw.04, pesanggrahan, rt.13, ulujami, kota jakarta selatan",ChIJQYuA7ObwaS4RTbxGoYXJ2p4,0.005118299999994136
warteg bahari jaya,4.0,4,-6.237693900000001,106.76261799999999,"jalan ciledug raya rt 02 rw 03 # 5 a, ulu jami, pesanggrahan, rt.2/rw.3, ulujami, kota jakarta selatan",ChIJA_lqt93waS4RrdFIIWOSqmM,0.010553999999999952
warteg 85,0.0,0,-6.2459052,106.75134540000002,"jl. manunggal 2, rt.12/rw.2, petukangan sel., kota jakarta selatan",ChIJM0FubezwaS4Rpo4gtXy579g,0.011976099999998269
warteg mustika bahari,5.0,1,-6.236555999999998,106.75371580000001,"jl. moh. jani no.46, rt.1/rw.3, petukangan utara, kota jakarta selatan",ChIJi24W6cPwaS4Ri1-GpH8--BI,0.018954900000009545
warteg renanda,4.4,25,-6.2489672,106.76358640000001,"jalan ulujami raya, gang warga, rt. 002 / rw. 007, ulujami, rt.2/rw.7, ulujami, kota jakarta selatan",ChIJFafvvuTwaS4R5ysHp25beTQ,0.0033268999999904736
warteg bahari,4.6,13,-6.248623299999998,106.7535,"jl. damai raya no.5b, rt.1/rw.2, petukangan sel., kota jakarta selatan",ChIJ4WB1ce7waS4Ri9pic22ii9Q,0.009493400000000207
warteg barokah,5.0,10,-6.2348848,106.7572031,"jl. kostrad raya no.89, rt.7/rw.4, petukangan utara, kota jakarta selatan",ChIJYVdKYMPwaS4RvorLOQ4gPYo,0.017138800000005894
warteg slawi ayu,4.3,13,-6.2443290000000005,106.763217,"jalan raya rt 003 rw 015, jalan ulujami raya, ulujami, pesanggrahan, rt.13, ulujami, kota jakarta selatan",ChIJB3pjmObwaS4Rys9l5-KL3kk,0.004517899999994413
warteg kharisma bahari,4.0,1,-6.2470742,106.75195670000001,"jl. damai raya no.6, rt.3/rw.5, petukangan sel., kota jakarta selatan",ChIJ03G5MOzwaS4RHW3f__avpS0,0.010195800000009749
warteg kharisma bahari,3.3,3,-6.243720400000001,106.7725298,"rt08/rw09, jl. peninggaran raya no.50, rt.8/rw.11, kby. lama utara, kota jakarta selatan",ChIJ-ynsJLDxaS4RaFG9NL6U46w,0.014439299999996713
warteg jaya bahari,0.0,0,-6.2312822,106.7605672,"jl. swadarma raya no.45, rt.3/rw.3, srengseng, kota jakarta selatan",ChIJ2XSUg2_xaS4R48nTL5YtJdQ,0.017377300000006812
warteg ibu sri,4.9,10,-6.2342768,106.76077269999999,"jalan swadarma, rt.14/rw.3, ulujami, kota jakarta selatan",ChIJkUo-ZNvwaS4R3jvOoCxzP1o,0.01417719999999978
warteg kharisma bahari,4.0,18,-6.2371212,106.758175,"jl. ciledug raya, rt.1/rw.6, petukangan sel., kota jakarta selatan",ChIJLTaOKMPwaS4RW1J9AZ20kHw,0.013930500000009616
warteg makmu,5.0,1,-6.2416718,106.78001450000001,"jl. kh. mas'ud, rt.1/rw.1, cipulir, kota jakarta selatan",ChIJaVIkUxjxaS4RIeJt5SI2qTQ,0.0239725999999898
warteg nur rizki,4.2,36,-6.2326023,106.756096,"jl. duku rt004, rt.9/rw.5, petukangan utara, kota jakarta selatan",ChIJJ90pxEnxaS4RvwPDUlrCg_w,0.02052840000000433
warteg salfa,4.3,22,-6.2399499,106.76356100000001,"jl. perdatam i no.1, rt.7/rw.5, ulujami, kota jakarta selatan",ChIJO08QWOfwaS4RQhd1QBTKzDI,0.009240999999992285
warteg barokah,3.3,9,-6.2390301,106.7526336,"jl. sabar raya, rt.4, petukangan sel., kota jakarta selatan",ChIJGzXz88HwaS4RNWg94FylJ3M,0.017563000000007992
warteg hikmah,5.0,4,-6.2268193,106.7785308,"jl. tabah no.7, rt.5/rw.10, grogol sel., kota jakarta selatan",ChIJlbaFGy_xaS4R0Umlw1V_qxg,0.0
warteg berkah merintis tanpa batas,4.4,11,-6.2255829999999985,106.7798811,"jl. limo no.10, rt.1/rw.10, grogol sel., kota jakarta selatan",ChIJcRWrjC7xaS4RmkS4xghmzsU,0.0
warteg gandasari,4.4,18,-6.2257807000000005,106.78095549999999,"jl. limo no.22, rt.1/rw.2, grogol utara, kota jakarta selatan",ChIJIakoSC7xaS4R6oSAffpFsA0,0.0
warteg putrabahari,4.3,10,-6.2255729,106.77464479999999,"jl. assirot no.10, rt.5/rw.1, grogol sel., kota jakarta selatan",ChIJswjlEynxaS4R0HuT1w1sB2k,0.0
warteg hello bahari,4.8,11,-6.225492999999998,106.77644209999998,"jl assirot no.12 rt006/01, rt.6/rw.1, grogol sel., kota jakarta selatan",ChIJDWlSt_fxaS4R0pO5s-a8zrs,0.0
warteg aneka pepea,0.0,0,-6.2252089999999995,106.77457690000001,"jl. assirot no.5, rt.5/rw.1, grogol sel., kota jakarta selatan",ChIJa4Qi-d_xaS4RRVRPQCo_tbY,0.0
warteg najwa/awa,5.0,1,-6.225598000000001,106.77515349999999,"jl. assirot, rt.12/rw.1, grogol sel., kota jakarta selatan",ChIJ61ngPSnxaS4RPiAn6VizTQ0,0.0
warteg sari mukti,0.0,0,-6.2256072,106.7738827,"jl. assirot no.5, rt.10/rw.3, grogol sel., kota jakarta selatan",ChIJE4SFDCnxaS4RbSE-vPZj2P4,0.0
warteg karomah,4.0,2,-6.2264327,106.78390390000001,"jl. rawa simprug i no.8, rt.3/rw.5, grogol sel., kota jakarta selatan",ChIJ-6EkPzDxaS4RwouYHojimvY,0.0
warteg bahari,3.4,5,-6.2304439999999985,106.78536100000001,"jl. rawa simprug ix b no.7, rt.6/rw.9, grogol sel., kota jakarta selatan",ChIJPyls_jrxaS4RmyaV7fGd8Cw,0.0
warteg papa mewek,4.7,7,-6.2290866,106.77896080000001,"jl. raya kby. lama no.19, rt.4/rw.10, grogol sel., kota jakarta selatan",ChIJuyherAnxaS4R2jnK4dzWD_g,0.0
warteg barokah limo,5.0,2,-6.2262129,106.785473,"jl. limo no.8, rt.3/rw.9, grogol sel., kota jakarta selatan",ChIJjQjlJvnxaS4RDVurz_jmooY,0.0
ajisaka warteg 2,0.0,0,-6.2302007,106.7795838,"jl. tepekong, rt.6/rw.11, grogol sel., kota jakarta selatan",ChIJK0D9sU_xaS4RwE5P_MDqmBY,0.0
warteg sumber barokah,4.4,7,-6.2297937,106.745621,"rt.01/rw.007, north petukangan, south jakarta city",ChIJs6P3F_PxaS4RL4ALMicUL2s,0.0
warteg berkah,5.0,2,-6.2326267,106.7488403,"qp8x+wgw, rt.6/rw.2, north petukangan, south jakarta city",ChIJpfY6CsfwaS4RUbsp5U0qqVw,0.0
warteg tasya,3.3,3,-6.2259400000000005,106.744173,"jl. h. mukhtar no.4, rt.12/rw.11, petukangan utara, kota jakarta selatan",ChIJjR4cYrbwaS4RZlME4CumzXE,0.0
warteg rizqi,5.0,2,-6.228905200000001,106.74442069999999,"jl. amd x, rt.9/rw.1, petukangan utara, kota jakarta selatan",ChIJY3I4n7fwaS4RrDJwQGQe33k,0.0
warteg restu bahari,5.0,1,-6.2274888,106.743362,"jl. amd x, rt.10/rw.1, petukangan utara, kota jakarta selatan",ChIJwyHL4rbwaS4Rw4pDtjJ3NiI,0.0
warteg pojok,0.0,0,-6.225625,106.747326,"jl. h. muchtar raya no.27-21, rt.5/rw.11, petukangan utara, kota jakarta selatan",ChIJOdkU48nwaS4RM9meORPFy6A,0.0
wahyoo warteg karomah,3.8,6,-6.226157,106.741394,"jalan muhtar raya # 81 a, rt.10/rw.1, petukangan utara, pesanggrahan, rt.10/rw.1, petukangan utara, kota jakarta selatan",ChIJKWmot7bwaS4RCIrsL08hGOU,0.0
warteg dua putri,4.3,24,-6.233057,106.74468390000001,"gg. sawo no.1, rt.003/rw.012, petukangan utara, kota jakarta selatan",ChIJIZ1J-rjwaS4RE3YWszQAjlU,0.0
warteg riah 63,5.0,7,-6.2300169,106.74968359999998,"jl. amd manunggal v no.28, rt.6/rw.10, petukangan utara, kota jakarta selatan",ChIJV9MFaybxaS4RHWaHsKMcQT4,0.0
warteg wulandari bahari,0.0,0,-6.2339065,106.744847,"jl. h. muchtar raya no.54, rw.1, petukangan utara, kota jakarta selatan",ChIJqZUA6LjwaS4RtQSzErtHyw8,0.0
warteg permata bahari,4.3,4,-6.23021,106.745658,"jalan haji mukhtar raya rt 05 rw 01, petukangan utara, pesanggrahan, rt.5/rw.1, petukangan utara, kota jakarta selatan",ChIJ5_ieH7jwaS4RGwADZE38lqA,0.0
warteg arsa bahari,0.0,0,-6.2258716,106.74536,"north petukangan, south jakarta city",ChIJFR5lbLbwaS4Rju9WUqx6Wsc,0.0
warteg barokah,4.0,1,-6.2355171999999985,106.75145790000002,"jl. masjid darul fallah, rt.12/rw.3, petukangan utara, kota jakarta selatan",ChIJSWnZN8HwaS4RXyobdW8Ye5U,0.0
warteg rizky,0.0,0,-6.2311217,106.7520328,"jl. masjid darul fallah no.23, rt.3/rw.3, petukangan utara, kota jakarta selatan",ChIJ30ny92PxaS4R0ZGlTg0tOYI,0.0
warteg doyok,4.2,23,-6.2324582,106.74566019999999,"jl. h. sulaiman, rt.11/rw.1, petukangan utara, dki jakarta",ChIJuRzgwLjwaS4RefQz-5XZTCk,0.0
warteg kurnia jaya,0.0,0,-6.2295029999999985,106.744491,"jl. amd x blok a 28 rt002/rw006, rt.7/rw.1, petukangan utara, kota jakarta selatan",ChIJkeZSkt7xaS4RBgbmJLfxyWg,0.0
warteg permata bahari,4.4,46,-6.233694,106.75152800000001,"jl masjid daarul fallah rt 04 rw 02 petukangan utara pesanggrahan, rt.4/rw.2, petukangan utara, kota jakarta selatan",ChIJ1zRYlcbwaS4RW7u7D3IVp8I,0.0
warteg mamoka bahari 08,4.6,191,-6.2363846,106.74524650000001,"jl. ciledug raya no.73a, rt.1/rw.1, petukangan utara, kota jakarta selatan",ChIJTce6I_vxaS4RjhaMPyeNc4I,0.0
warteg tarnity,5.0,5,-6.2356387,106.7489751,"gg. h. kasan misin no.12, rt.10/rw.2, petukangan utara, kota jakarta selatan",ChIJf37Ira_xaS4RFOV19mcfLdI,0.0
warteg danesa,3.0,1,-6.230055,106.749633,"jalan amd v rt 06 rw 10 nomor 28 s kelurahan kecamatan pesanggrahan, rt.6, petukangan utara, dki jakarta",ChIJcwl41sfwaS4R1UsLPB-3j9s,0.0
warteg ella jaya,4.4,7,-6.2361599000000005,106.74491100000002,"jl. h. sulaiman, petukangan utara, kota jakarta selatan",ChIJ2VBTPL_waS4RVdmThoyBoxM,0.0
warteg ayu,3.5,8,-6.2310620000000005,106.75208899999998,"jl. masjid darul fallah no.2a, rt.7/rw.3, petukangan utara, kota jakarta selatan",ChIJl03mEsbwaS4R3FaLaDdDgP0,0.0
warteg panorama bahari,0.0,0,-6.2362267,106.74696899999999,"jl. ciledug raya no.1c, rt.10/rw.2, petukangan utara, kota jakarta selatan",ChIJbWZxX7_waS4RGF_MzKsW3l8,0.0
warteg mas wage,0.0,0,-6.2272044,106.7482778,"2, jl. pemuda no.42, rt.2/rw.11, petukangan utara, kota jakarta selatan",ChIJpd3fBUbxaS4RiZ8ILiolfoE,0.0
warteg sabillah,0.0,0,-6.2358553,106.7452321,"jl. h. sulaiman, rt.2/rw.1, petukangan utara, kota jakarta selatan",ChIJq3j5Ob_waS4Ri7zUGs6ue0M,0.0
warteg cahaya bahari,5.0,1,-6.236193900000001,106.743068,"jl. h. muchtar raya, rt.1/rw.002, petukangan utara, kota jakarta selatan",ChIJ93WPITDxaS4RCBljNbP1AZU,0.0
warteg citra jaya,4.5,4,-6.236224299999999,106.7469389,"jl. ciledug raya no.1c, rt.10/rw.2, petukangan utara, kota jakarta selatan",ChIJiR8MX7_waS4RX8fD2vnomrI,0.0
warteg elis,0.0,0,-6.268886500000002,106.7726844,"jl. h. naimun rt. 02/11 no. 39, rt.11/rw.11, pd. pinang, kota jakarta selatan",ChIJx-Jm8dHxaS4ROmPq5bjMofk,0.0
warteg asli bu taripah,0.0,0,-6.2664953,106.7745249,"jl. h. muhi, rt.1/rw.4, pd. pinang, kota jakarta selatan",ChIJa7CBQ6zxaS4RrwIFHNEzIAQ,0.0
warteg soto ayam,0.0,0,-6.268796900000001,106.7729631,"jl. h. naimun no.33, rt.11/rw.11, pd. pinang, kota jakarta selatan",ChIJ3VTacq3xaS4RUihpG9oLATg,0.0
wahyoo warteg joko,0.0,0,-6.2624594999999985,106.7749874,"003, jl. pd. pinang,, rt.1/rw.2, pd. pinang, kota jakarta selatan",ChIJ1XSE0WvxaS4RkbR4TBMYz3Q,0.0
warteg smea,4.3,3,-6.263447999999999,106.77484140000001,"jl. ciputat raya, rt.2/rw.2, pd. pinang, kota jakarta selatan",ChIJfV-3wavxaS4ROHfcxFH2YRg,0.0
warteg tiara jaya,4.7,17,-6.265464799999998,106.7785939,"jl. pondok pinang perak raya. rt.12/ rw.03, kebayoran lama, rt.12/rw.3, pd. pinang, kota jakarta selatan",ChIJdcVwcZTxaS4Rhl5oJ6RRbLY,0.0
warteg ijo warjo,3.7,10,-6.260221,106.7696814,"jl. ikpn bintaro, rt.2/rw.12, bintaro, kota jakarta selatan",ChIJzyC0VlXwaS4R_4XUcfDP4e4,0.0
warteg shakila jaya,4.5,11,-6.267599099999999,106.7747848,"jl. ciputat raya, rt.1/rw.11, pd. pinang, kota jakarta selatan",ChIJo2SLtK3xaS4RUn6BPuMmAaM,0.0
warteg,5.0,2,-6.2369629,106.7751159,"qq7g+629, rt.2/rw.4, cipulir, south jakarta city",ChIJqVE2hLrxaS4Ra8uSgAFfTts,0.0
warteg wahyu,3.5,2,-6.2342441,106.77835209999999,"jalan kebon mangga ii rt 004 rw 003 # 4, rt.1/rw.7, cipulir, kota jakarta selatan",ChIJm9NMdiTxaS4RDYbReO4ar5A,0.0
warteg salma,4.7,3,-6.2370510999999995,106.78298079999999,"jalan mangga tengah, rt.08/rw.3, rt.3/rw.1, cipulir, kota jakarta selatan",ChIJlfWCufHxaS4RRaoFVqaQjGo,0.0
warteg kowantara jaksel,4.8,21,-6.2299117,106.77893020000002,"jl. kebayoran lama raya rt 04/10 no 26 kebayoran lama jakarta selatan, rt.3/rw.11, grogol sel., kota jakarta selatan",ChIJpfYsmiXxaS4RDQajfPs9du4,0.0
warteg putrabahari,4.4,111,-6.229489999999998,106.77677539999999,"jl. cidodol raya, rt.3/rw.11, grogol sel., kota jakarta selatan",ChIJy6ta_CXxaS4RfydUlbQcTPk,0.0
warteg portugal 2,5.0,1,-6.2363095,106.773627,"no 7 c, jl. kebon mangga i no.2, rt.9/rw.4, kby. lama sel., kota jakarta selatan",ChIJVVVVVSDxaS4Rugzt2do8Ppo,0.0
warteg geboy,5.0,5,-6.237018,106.7736686,"jl. cipulir ii no.30, rt.4/rw.4, cipulir, kota jakarta selatan",ChIJe7Q8qyHxaS4RXjDKskxCMn8,0.0
warteg budhe,0.0,0,-6.235517099999999,106.7830314,"jl. jiban, rt.8/rw.1, grogol sel., kota jakarta selatan",ChIJO2PQyDzxaS4RLAyuJKAVU1c,0.0
warteg 09,0.0,0,-6.2298174999999985,106.7797899,"jl. raya kby. lama no.18cd, rt.4/rw.10, grogol sel., kota jakarta selatan",ChIJr0jAdiXxaS4R7QICv73mH0o,0.0
warteg 24 jam marisah,3.6,11,-6.23766,106.77666599999999,"jl. ciledug raya, rt.6/rw.2, cipulir, kota jakarta selatan",ChIJK-3JFxrxaS4RzmEHGx_eP88,0.0
warteg warung makan tegal,0.0,0,-6.2354414,106.77353740000001,"jl. cipulir i no.1, rt.4/rw.8, cipulir, kota jakarta selatan",ChIJwZaXnnzxaS4RzXUkzE8x3Nw,0.0
warteg sederhana,5.0,1,-6.2290871,106.7789612,"jl. raya kby. lama no.19, rt.4/rw.10, grogol sel., kota jakarta selatan",ChIJK7bBfkvxaS4RSj8BA7bN760,0.0
warteg bahari,0.0,0,-6.235712400000001,106.77267340000002,"jl. cipulir i no.28, rt.7/rw.4, cipulir, kota jakarta selatan",ChIJ06pU6CDxaS4RjOgnbiOnuoE,0.0
warteg barokah,5.0,2,-6.2362479,106.78393200000001,"jl. nasional 12, rt.5/rw.1, kby. lama utara, kota jakarta selatan",ChIJm92c4DzxaS4R3xzQMk6XG4o,0.0
warteg pos tiga 24jam,4.6,58,-6.2365797,106.7796257,"no.27 rt03/rw02, jl. kebon mangga iii, rt.3/rw.2, cipulir, kota jakarta selatan",ChIJg1dBACPxaS4RZb7RDh_Xjl4,0.0
warteg piah yanto,5.0,1,-6.2346001,106.77555790000001,"jl. kangkung no.7, rt.13/rw.3, cipulir, kota jakarta selatan",ChIJ_ZFCR-bxaS4R_tkGxoGiWlQ,0.0
warteg slawi ayu,0.0,0,-6.2343363,106.7788186,"jl. kebon mangga i no.10, rt.1/rw.1, cipulir, kota jakarta selatan",ChIJMyMWhiPxaS4R_wppE6W0Nok,0.0
warteg kamilah 24,5.0,5,-6.2366416,106.7830503,"jl. mesjid al huda, rt.5/rw.1, kby. lama utara, kota jakarta selatan",ChIJMbHqPObxaS4R1AHf-Ow2y1Y,0.0
warteg pesona bahari,5.0,2,-6.2373351999999995,106.7822683,"jl. st. jl. raya kby. lama no.50, rt.3/rw.1, kby. lama utara, kota jakarta selatan",ChIJz8qvIrLxaS4RibpygJYqAlA,0.0
warteg barokah,3.7,17,-6.2383864,106.77212250000001,"jl. seskoal no.11, rt.6/rw.11, cipulir, kota jakarta selatan",ChIJ5W4bGCDxaS4RqZ0KAKyp5os,0.0
warteg tuk-mumbul,0.0,0,-6.2318231,106.7801545,"jl. raya kby. lama, rt.1/rw.11, grogol sel., kota jakarta selatan",ChIJ3xtf-yTxaS4RG8HGimhP9fQ,0.0
warteg kamilah,0.0,0,-6.2366285,106.7830575,"jl. mesjid al huda, rt.5/rw.1, kby. lama utara, kota jakarta selatan",ChIJm6G0V_XxaS4R2Nr604B8MQw,0.0
warteg kharisma bahari,4.4,53,-6.235531099999998,106.77354059999999,"jl. cipulir i no.1, rt.4/rw.8, cipulir, kota jakarta selatan",ChIJH8DRK6nxaS4R0TXrI4rKxPA,0.0
warteg putra pertama,3.5,2,-6.2285074,106.7844666,"rt 001 rw 009 # 5 kebayoran lama, jl. rawa simprug iii, rt.2/rw.5, grogol sel., dki jakarta",ChIJ45graDDxaS4R8I_wY7GX_yQ,0.0
warteg bahari velbak,5.0,1,-6.239328400000001,106.7850884,"komplek perkantoran kebayoran baru mall, jl. kebayoran baru no.4, rt.4/rw.7, gunung, kota jakarta selatan",ChIJc_XjEL_xaS4R-Ll2yi00gt4,0.0
warteg bakti ibu bahari,0.0,0,-6.2382193,106.7729206,"jl. ciledug raya no.40, rt.6/rw.11, cipulir, kota jakarta selatan",ChIJMxKl_fDxaS4R8M41iuRtJiU,0.0
aneka warteg sih bendul,0.0,0,-6.2390959000000015,106.7850065,"jl. kebayoran baru, rt.4/rw.7, kby. lama utara, kota jakarta selatan",ChIJcV101hfxaS4Rdi_NAY9SheM,0.0
warteg permata,0.0,0,-6.240144099999998,106.78057350000002,"pasar kebayoran lama, jl. ciputat raya, rt.3/rw.1, cipulir, kota jakarta selatan",ChIJpbpQaRjxaS4Rt574k3xGfgw,0.0
warteg raji,5.0,1,-6.2403518,106.7832983,"jl. sultan iskandar muda no.4, rt.4/rw.2, kby. lama utara, kota jakarta selatan",ChIJ2REnAdzxaS4RLlNuk6BRH8M,0.0
warteg putra bahari,4.3,6,-6.275917099999999,106.76254490000001,"jl. rc. veteran raya no.18c, rt.3/rw.11, bintaro, kota jakarta selatan",ChIJMeJPJUnwaS4RZv0msu-l2_o,0.008781099999991326
warteg kharisma bahari,4.4,167,-6.2709031,106.759327,"jl. kesehatan raya no.5, rt.8/rw.11, bintaro, kota jakarta selatan",ChIJOxca_E_waS4RF5U-w0C0D3A,0.0054920000000047145
warteg bahari,3.8,26,-6.2545519999999994,106.76359,"jl ulujami raya rt009, rt.1/rw.2, rw001, kota jakarta selatan",ChIJPeJhsf_xaS4RIRhBtphrPOM,0.015122099999989482
warteg selera,4.6,52,-6.2596738,106.75679450000001,"rt.5/rw.3, pesanggrahan, south jakarta city",ChIJgwkmxffwaS4RsdhWEczzCJA,0.013212600000005459
warteg mustika bahari.,5.0,4,-6.281388799999998,106.76169440000001,"jl. rempoa raya no.5, rt.1/rw.5, bintaro, kota jakarta selatan",ChIJxyBrzTfwaS4RqGJgS54UGiw,0.013610300000006958
warteg kharisma bahari,4.5,214,-6.2847653,106.7683648,"jl. h. saikin no.25, rt.15/rw.8, pd. pinang, kota jakarta selatan",ChIJXQGIkDTwaS4RZbf3UL9O0C4,0.023449199999997283
warteg bu mi,4.8,5,-6.2647407,106.76722079999999,"pqp8+4v5, rt.9/rw.3, bintaro, south jakarta city",ChIJ9xq_e1TwaS4Rs3ntcSMg2t4,0.008564200000000355
warteg permata bahari,3.0,1,-6.255408200000001,106.76337609999999,"gg. al. barkah, rt.10/rw.1, pesanggrahan, kota jakarta selatan",ChIJm9fCXfnwaS4REvUs9gvAU-k,0.014051999999998621
warteg bahari,3.9,35,-6.2688245999999985,106.7729791,"jl. h. naimun no.39, rt.11/rw.11, pd. pinang, kota jakarta selatan",ChIJia7LCK3xaS4RwjBhS0ggBdc,0.012122799999996658
warteg indah jaya 2,4.4,75,-6.264345,106.7749519,"jl. ciputat raya, rt.6/rw.1, pd. pinang, kota jakarta selatan",ChIJ83kTjavxaS4RpJk1GwTlV28,0.016691000000001566
warteg mulya jaya,0.0,0,-6.2559947,106.7631338,"jl. ulujami raya, rt.10/rw.2, pesanggrahan, kota jakarta selatan",ChIJRQqGafnwaS4RfBPm6WrQIRw,0.013223200000002322
warteg kharisma bahari,4.4,157,-6.2790653,106.77233909999998,"jl. ciputat raya no.4, rt.1/rw.7, pd. pinang, kota jakarta selatan",ChIJ0YFq87rxaS4R8vKxvM3wWZo,0.021723499999993123
warteg sejati,4.3,3,-6.2732193,106.75984869999999,"jl. cemp. v, rt.6/rw.11, bintaro, kota jakarta selatan",ChIJtWRfdk_waS4Rj3ZitYEvLTo,0.007286499999997531
warteg kirana bahari,3.7,15,-6.2851607000000005,106.76143959999999,"rt 01 rw 13 kelurahan kecamatan pesanggrahan, jl. mawar raya, rt.1/rw.13, bintaro, dki jakarta",ChIJiQQBJjfwaS4RzH7V-x-Fics,0.01763700000000057
warteg,0.0,0,-6.2524215,106.7645101,"jl. ulujami raya, rt.6/rw.1, pesanggrahan, kota jakarta selatan",ChIJUxllf_vwaS4RbGeCs67VkJE,0.018172699999992048
warteg talifah,0.0,0,-6.266496599999999,106.77454109999998,"jl. h. muhi, rt.1/rw.4, pd. pinang, kota jakarta selatan",ChIJ26qMQ6zxaS4RcN443usyteE,0.014128599999989609
warteg pojok bahari,4.4,26,-6.276413099999999,106.7623318,"jl. cempaka raya, rt.4/rw.11, bintaro, kota jakarta selatan",ChIJgSz4JEnwaS4RotmC2-m-gK8,0.009063999999995076
warteg khaerunnisa,5.0,1,-6.2584474000000005,106.76300990000001,"jl. bintaro permai iii no.19, rt.2/rw.9, bintaro, kota jakarta selatan",ChIJSzzue47xaS4R72CQQEfZYSE,0.010646599999996731
warteg putra bahari,3.5,2,-6.2824082,106.76141909999998,"jl. pahlawan, rt.1/rw.5, rempoa, kota jakarta selatan",ChIJ2xx9sTfwaS4RQyKf_mP_pis,0.014905000000005941
warteg omber tegal bahari,4.6,34,-6.2783164000000005,106.7622121,"jl. rempoa raya, rempoa, kota jakarta selatan",ChIJv_llqUnwaS4R4sDCqjjVWhI,0.010847599999995516
warteg panorama bahari,5.0,2,-6.2726934000000005,106.76400859999998,"jl. rc. veteran raya no.4, rt.2/rw.11, bintaro, kota jakarta selatan",ChIJxcA5Qu_xaS4RpDV_t0b3Fxg,0.007021099999993119
warteg sederhana,4.3,8,-6.2579667,106.756346,"jalan indah depan komplek kodam rt 05 rw 03 kelurahan pesanggrahan kecamatan pesanggrahan, rt.5/rw.3, pesanggrahan, dki jakarta",ChIJ__NuqffwaS4RsSCe7xFTalc,0.015368200000009937
warteg sido untung,4.4,23,-6.255338999999998,106.7663995,"jl. masjid al muflihun no.10, rt.2/rw.10, bintaro, kota jakarta selatan",ChIJh49up_7waS4R8SCzr0XMHT4,0.01714460000000262
wahyoo warteg indah jaya,0.0,0,-6.2704663,106.7751062,"rt.1/rw.12, pd. pinang, kota jakarta selatan",ChIJJboUev7xaS4ROqyM5lpv8rM,0.015891599999992678
warteg kharimah,5.0,1,-6.265037299999999,106.7750814,"jl. ciputat raya no.54, rt.9/rw.11, pd. pinang, kota jakarta selatan",ChIJNY3WCqzxaS4RSwW6x_06Np8,0.016128200000002483
warteg kharisma bahari,4.5,82,-6.2700209000000005,106.7579196,"bintaro sector 1, jl. rw. papan no.4, rt.4/rw.6, bintaro, kota jakarta selatan",ChIJ17qMsFrwaS4RiICZkBoi6Fo,0.006017200000009382
warteg nayla,0.0,0,-6.276731,106.76214109999998,"jl. cempaka raya no.6, rt.4/rw.11, bintaro, kota jakarta selatan",ChIJPXPrKn7xaS4RmKLGTZnYUM4,0.009191199999990296
warteg sma n 86,4.1,7,-6.262503,106.76078190000001,"jl. bintaro permai iv no.36, rt.8/rw.9, bintaro, kota jakarta selatan",ChIJlxqMulfwaS4R2AG6sFuYKVk,0.006396000000005842
warteg rw,4.3,24,-6.2495685,106.7637129,"jl. ulujami raya no.42c, rt.4/rw.1, pesanggrahan, kota jakarta selatan",ChIJzZxps-TwaS4Rg-N2MPS4DGg,0.02022849999999821
warteg kharisma bahari bintaro permai kodam,4.5,30,-6.2572769,106.7600304,"seberang apartemen bintaro park view, jl. bintaro permai raya no.32, rt.5/rw.3, pesanggrahan, kota jakarta selatan",ChIJFZ63z_nwaS4R8lyO0PJxczw,0.012373599999998321
warteg si kembar cempaka,5.0,3,-6.273314599999999,106.76000239999999,"jl. cemp. v no.6, rt.7/rw.11, bintaro, south jakarta city",ChIJuUAOdE_waS4R8CKuysFh3Mk,0.0072280999999989595
warteg rizky,4.7,18,-6.2651569,106.75708370000001,"jl. bintaro utara, rt.10/rw.8, bintaro, kota jakarta selatan",ChIJlW8KjFnwaS4RSWyA4FhaT4o,0.007440300000007838
warteg barokah,0.0,0,-6.2641086999999995,106.758581,"jl. bintaro permai iv, rt.14/rw.6, bintaro, kota jakarta selatan",ChIJBTs93lnwaS4RZZ7ZIEcFD9U,0.0069911999999963115
warteg jaya bahari,4.4,7,-6.2665967,106.77104369999999,"jl. h. muhi no.5, rt.10/rw.4, pd. pinang, kota jakarta selatan",ChIJ62pRyazxaS4RxptYLo_9z0E,0.010531100000003235
warteg putra bahari,4.0,1,-6.2866480000000005,106.77610659999999,"rt.11/rw.10, pd. pinang, kota jakarta selatan",ChIJr2IRIszxaS4R9MxYT5oXRLk,0.0
warteg,4.0,6,-6.290341799999998,106.7789122,"jl. h. ilyas no.8, rt.9/rw.7, lb. bulus, kota jakarta selatan",ChIJN51qKM7xaS4Ru9z8lvw-Tus,0.0
warteg sarapada i,5.0,1,-6.2870623,106.7712987,"jalan ciputat raya # 7, rt.6/rw.7, pondok pinang, kebayoran lama, rt.6/rw.7, pd. pinang, kota jakarta selatan",ChIJmUh0xszxaS4RG-50-lg2fX4,0.0
warteg sari rasa,0.0,0,-6.289006400000001,106.7727716,"jl. ps. jum'at jl. lebak bulus raya no.45b, rt.9/rw.7, pd. pinang, kota jakarta selatan",ChIJLdj0gLnxaS4R5M2B11ByVmI,0.0
warteg mulya bahari,5.0,1,-6.2903324000000005,106.7707445,"jl. batan jl. adiaksa raya no.1, rt.1/rw.2, lb. bulus, kota jakarta selatan",ChIJWci8VM3xaS4Rd9MuqfXmo3s,0.0
warteg ridho ibu,4.8,6,-6.2905935999999985,106.7706668,"jl. lebak bulus raya no.1, rt.10/rw.9, lb. bulus, kota jakarta selatan",ChIJaySBTc3xaS4R_nLOHSxV02c,0.0
warteg kharisma bahari,4.7,6,-6.2893864,106.77787350000001,"jl. adiaksa raya no.38b, rt.11/rw.7, lb. bulus, kota jakarta selatan",ChIJh4ZkqnLxaS4RO9YXtBLTqlQ,0.0
warteg adinda,2.0,1,-6.2884769999999985,106.771174,"jalan ciputat raya pasar jumat rt 09 rw 07, pondok pinang, kebayoran lama, rt.9/rw.7, pd. pinang, kota jakarta selatan",ChIJk6UVMc3xaS4RkkyPBnAINNE,0.0
warteg bahari,0.0,0,-6.2830008999999984,106.77031000000001,"jl. pupan no.5, rt.9/rw.8, pd. pinang, kota jakarta selatan",ChIJBUxuKDXwaS4R8eCUfyKirVk,0.0
warteg batan,4.3,22,-6.2917568,106.7713953,"jl. lebak bulus raya, rt.8/rw.2, lb. bulus, kota jakarta selatan",ChIJ241VhNTxaS4RkNy6x9hXlSI,0.0
warteg mekarsari lebakbulus,0.0,0,-6.290250899999998,106.7709481,"jl. lebak bulus raya no.25, rt.1/rw.2, lb. bulus, kota jakarta selatan",ChIJuyDwnNnxaS4RG2rJ1b3v3Do,0.0
warteg langka-langka,5.0,1,-6.2928652000000005,106.78225060000001,"pq4j+vw2, rt.5/rw.1, lebak bulus, south jakarta city",ChIJ-2TiF3nxaS4RXenRCufpo8c,0.0
warteg kharisma bahari,0.0,0,-6.2480297,106.7784328,"rt.4/rw.1, kby. lama utara, kota jakarta selatan",ChIJySWrgOPxaS4RWxlBB1OXCyM,0.0
warteg bude,5.0,1,-6.258171,106.7807351,"tanah kusir 4, rt.6/rw.9, kby. lama sel., kota jakarta selatan",ChIJAVcg37XxaS4R9MJi5PH9HBM,0.0
warteg raji,4.3,4,-6.2583739000000005,106.78248290000002,"jl. tanah kusir ii no.9, rt.3/rw11/rw.9, kby. lama sel., kota jakarta selatan",ChIJUT0qYJfxaS4RWNnA0Jb0FOI,0.0
wahyoo warteg hidayah,0.0,0,-6.249195599999998,106.7826033,"jl. bungur ii no.57, rt.2/rw.2, kby. lama sel., kota jakarta selatan",ChIJ-X5OABDxaS4RtSLrS7TkDtw,0.0
warteg citra bahari,3.6,10,-6.253381,106.77606999999999,"jalan bintaro raya tanah kusir, rt.2/rw.10, kebayoran lama selatan, kebayoran lama, rt.11/rw.10, kby. lama sel., kota jakarta selatan",ChIJo7yAjAPxaS4Rj1TMzLIGzlE,0.0
warteg slawi ayu,4.6,60,-6.2553325,106.7760395,"jl. johari no.1, rt.10/rw.10, kby. lama sel., kota jakarta selatan",ChIJdUouTgHxaS4RkjXb5A6rWb4,0.0
warteg bendi jaya,4.2,181,-6.2529184,106.7735524,"jl. bendi raya no.15, rt.3/rw.10, kby. lama utara, kota jakarta selatan",ChIJt7N-TQLxaS4RNZXLjgEk-Ws,0.0
warteg abdul,0.0,0,-6.257321599999999,106.77549540000001,"jl. ismail blok ismail 4 no.25, rt.9/rw.10, kby. lama sel., kota jakarta selatan",ChIJy8jBfDfxaS4Rf83dogM-Kno,0.0
warteg barokah,4.8,4,-6.247303899999999,106.7797712,"jl. bungur, rt.4/rw.1, kby. lama utara, kota jakarta selatan",ChIJwahg_BrxaS4RNRojSe6S7EQ,0.0
warteg irma,0.0,0,-6.2532492999999985,106.77788020000001,"jl. ciputat raya no.2, rt.11/rw.11, kby. lama utara, kota jakarta selatan",ChIJTe_1agTxaS4RTRdADsChwg4,0.0
warteg ainun jaya 1 - tanah kusir,4.3,17,-6.254917900000001,106.77765990000002,"jl. ciputat raya jl. tanah kusir no.47, rt.13/rw.1, kby. lama sel., kota jakarta selatan",ChIJFdYstSrxaS4RDR2FalWmrFE,0.0
warteg bahari,5.0,1,-6.2474397,106.7788875,"jl. ciputat raya no.321, rt.4/rw.1, kby. lama utara, kota jakarta selatan",ChIJVbkZBRvxaS4RUROZvIFxQRw,0.0
warteg kowantara banten,4.0,2,-6.2580538,106.77740590000002,"jl. ciputat raya, rt.4/rw.10, kby. lama sel., kota jakarta selatan",ChIJiQc7OgfxaS4RjV7EuovH5dI,0.0
warteg jaya,4.4,8,-6.255217299999999,106.76754550000001,"jl. masjid al muflihun no.3, rt.3/rw.10, bintaro, kota jakarta selatan",ChIJ-R4lh_7waS4RjiHPWe-xzQA,0.0
warteg portugal,4.2,17,-6.2580774,106.7773531,"jl. ciputat raya, rt.4/rw.10, kby. lama sel., kota jakarta selatan",ChIJ93oZOgfxaS4RPF6_rk3M1P4,0.0
warteg mardo tillah,4.1,7,-6.24794,106.77839209999999,"jl. ciputat raya, rt.2/rw.10, kby. lama utara, kota jakarta selatan",ChIJNbVKPxvxaS4RG5wcTLAfo54,0.0
