nama_tempat,rating_tempat,user_ratings_total,latitude,longitude,alamat_tempat,place_id,distance
warteg bahari 02,5,3,-6.225159,106.763381,"jl. kp. baru 5 no.44, rt.4/rw.2, ulujami, kota jakarta selatan",ChIJV0H0QtHwaS4RM4LCySp_nkk,0.02482939999999445
warteg barokah,4,1,-6.235517199999999,106.7514579,"jl. masjid darul fallah, rt.12/rw.3, petukangan utara, kota jakarta selatan",ChIJSWnZN8HwaS4RXyobdW8Ye5U,0.011433099999996976
warteg barokah,5,4,-6.2378864,106.7697193,"jl. ciledug raya no.9, rt.2/rw.5, cipulir, kota jakarta selatan",ChIJR9Aokt_waS4RFASO0A1o0m8,0.018440300000004406
warteg bahari,3.8,26,-6.254552,106.76359,"jl ulujami raya rt009, rt.1/rw.2, rw001, kota jakarta selatan",ChIJPeJhsf_xaS4RIRhBtphrPOM,0.01973379999999203
warteg selera,4.6,52,-6.2596738,106.7567945,"rt.5/rw.3, pesanggrahan, south jakarta city",ChIJgwkmxffwaS4RsdhWEczzCJA,0.018060099999996027
warteg bahari kembar,5,2,-6.2394446,106.7708592,"jl. al mubarok 1 no.10, rt.1/rw.1, cipulir, kota jakarta selatan",ChIJQzXRASDxaS4RuL0MAhxie_k,0.01802200000000287
warteg rizky,0,0,-6.2311217,106.7520328,"jl. masjid darul fallah no.23, rt.3/rw.3, petukangan utara, kota jakarta selatan",ChIJ30ny92PxaS4R0ZGlTg0tOYI,0.015253700000006809
warteg bahari,0,0,-6.2357124,106.7726734,"jl. cipulir i no.28, rt.7/rw.4, cipulir, kota jakarta selatan",ChIJ06pU6CDxaS4RjOgnbiOnuoE,0.023568400000001155
warteg bahari 19,5,1,-6.2278688,106.7606079,"jl. swadarma raya, rt.1/rw.2, ulujami, kota jakarta selatan",ChIJyx2TRtDwaS4RkbNcoX-XhOM,0.019346499999994826
warteg bahari 107,4.4,28,-6.238039499999999,106.7684813,"jl. ciledug raya, rt.14/rw.6, cipulir, kota jakarta selatan",ChIJRZd9t9_waS4Re0g731DM18M,0.017049200000004205
warteg barokah,3.7,17,-6.2383864,106.7721225,"jl. seskoal no.11, rt.6/rw.11, cipulir, kota jakarta selatan",ChIJ5W4bGCDxaS4RqZ0KAKyp5os,0.020343499999992964
warteg mamoka bahari 08,4.6,191,-6.2363846,106.7452465,"jl. ciledug raya no.73a, rt.1/rw.1, petukangan utara, kota jakarta selatan",ChIJTce6I_vxaS4RjhaMPyeNc4I,0.016777100000008538
warteg permata bahari,3,1,-6.2554082,106.7633761,"gg. al. barkah, rt.10/rw.1, pesanggrahan, kota jakarta selatan",ChIJm9fCXfnwaS4REvUs9gvAU-k,0.020376100000000008
warteg ibu sri,4,2,-6.232434700000001,106.757139,"jl. kostrad raya no.22, rt.3/rw.5, petukangan utara, kota jakarta selatan",ChIJ7xnQ4cTwaS4RVxsvx2SQCmo,0.011311699999993152
wahyoo warteg bahari,4.3,19,-6.2434033,106.7628917,"jalan ulujami raya no.1, rt.12 rw.04, pesanggrahan, rt.13, ulujami, kota jakarta selatan",ChIJQYuA7ObwaS4RTbxGoYXJ2p4,0.007886799999995198
warteg sumber barokah,4.4,7,-6.2297937,106.745621,"rt.01/rw.007, north petukangan, south jakarta city",ChIJs6P3F_PxaS4RL4ALMicUL2s,0.022993500000001887
warteg berkah,5,2,-6.2326267,106.7488403,"qp8x+wgw, rt.6/rw.2, north petukangan, south jakarta city",ChIJpfY6CsfwaS4RUbsp5U0qqVw,0.01694120000000421
warteg bahari jaya,4,4,-6.2376939,106.762618,"jalan ciledug raya rt 02 rw 03 # 5 a, ulu jami, pesanggrahan, rt.2/rw.3, ulujami, kota jakarta selatan",ChIJA_lqt93waS4RrdFIIWOSqmM,0.011531500000002026
warteg 85,0,0,-6.2459052,106.7513454,"jl. manunggal 2, rt.12/rw.2, petukangan sel., kota jakarta selatan",ChIJM0FubezwaS4Rpo4gtXy579g,0.007952399999996196
warteg jaya bahari,4.4,8,-6.228554099999999,106.7573515,"jl. palem raya no.50, rt.7/rw.8, petukangan utara, kota jakarta selatan",ChIJTTa7_qfxaS4RGNU2Sf2seDU,0.015404799999997998
warteg mulya jaya,0,0,-6.2559947,106.7631338,"jl. ulujami raya, rt.10/rw.2, pesanggrahan, kota jakarta selatan",ChIJRQqGafnwaS4RfBPm6WrQIRw,0.020720300000003355
warteg tasya,3.3,3,-6.22594,106.744173,"jl. h. mukhtar no.4, rt.12/rw.11, petukangan utara, kota jakarta selatan",ChIJjR4cYrbwaS4RZlME4CumzXE,0.028295199999998744
warteg mustika bahari,5,1,-6.236555999999999,106.7537158,"jl. moh. jani no.46, rt.1/rw.3, petukangan utara, kota jakarta selatan",ChIJi24W6cPwaS4Ri1-GpH8--BI,0.008136400000007704
warteg renanda,4.4,25,-6.2489672,106.7635864,"jalan ulujami raya, gang warga, rt. 002 / rw. 007, ulujami, rt.2/rw.7, ulujami, kota jakarta selatan",ChIJFafvvuTwaS4R5ysHp25beTQ,0.014145399999992314
warteg asri,5,1,-6.2272779,106.7528639,"jl. masjid darul falah, rt.8/rw.3, petukangan utara, kota jakarta selatan",ChIJjcZf1cjwaS4RLCYWt3YmfBE,0.0182664000000079
warteg bahari,4.6,13,-6.248623299999999,106.7535,"jl. damai raya no.5b, rt.1/rw.2, petukangan sel., kota jakarta selatan",ChIJ4WB1ce7waS4Ri9pic22ii9Q,0.008515899999998133
warteg rw,4.3,24,-6.2495685,106.7637129,"jl. ulujami raya no.42c, rt.4/rw.1, pesanggrahan, kota jakarta selatan",ChIJzZxps-TwaS4Rg-N2MPS4DGg,0.014873199999999365
warteg barokah,5,10,-6.2348848,106.7572031,"jl. kostrad raya no.89, rt.7/rw.4, petukangan utara, kota jakarta selatan",ChIJYVdKYMPwaS4RvorLOQ4gPYo,0.00892569999999715
warteg,0,0,-6.2524215,106.7645101,"jl. ulujami raya, rt.6/rw.1, pesanggrahan, kota jakarta selatan",ChIJUxllf_vwaS4RbGeCs67VkJE,0.018523399999993195
warteg restu bahari,5,1,-6.2274888,106.743362,"jl. amd x, rt.10/rw.1, petukangan utara, kota jakarta selatan",ChIJwyHL4rbwaS4Rw4pDtjJ3NiI,0.0275573999999974
warteg jaya,4.4,8,-6.2552173,106.7675455,"jl. masjid al muflihun no.3, rt.3/rw.10, bintaro, kota jakarta selatan",ChIJ-R4lh_7waS4RjiHPWe-xzQA,0.02435459999999523
warteg slawi ayu,4.3,13,-6.244329,106.763217,"jalan raya rt 003 rw 015, jalan ulujami raya, ulujami, pesanggrahan, rt.13, ulujami, kota jakarta selatan",ChIJB3pjmObwaS4Rys9l5-KL3kk,0.009137799999995089
warteg sederhana,4.3,15,-6.2245623,106.7629599,"jl. kp. baru 5 no.2, rt.7/rw.2, ulujami, kota jakarta selatan",ChIJddJpYdHwaS4RT34iPH2cgJo,0.0250049999999975
warteg permata bahari,4.4,46,-6.233694,106.751528,"jl masjid daarul fallah rt 04 rw 02 petukangan utara pesanggrahan, rt.4/rw.2, petukangan utara, kota jakarta selatan",ChIJ1zRYlcbwaS4RW7u7D3IVp8I,0.013186200000008697
warteg khaerunnisa,5,1,-6.2584474,106.7630099,"jl. bintaro permai iii no.19, rt.2/rw.9, bintaro, kota jakarta selatan",ChIJSzzue47xaS4R72CQQEfZYSE,0.023049099999997935
warteg kharisma bahari,4,1,-6.2470742,106.7519567,"jl. damai raya no.6, rt.3/rw.5, petukangan sel., kota jakarta selatan",ChIJ03G5MOzwaS4RHW3f__avpS0,0.008510100000007625
warteg kharisma bahari,3.3,3,-6.243720400000001,106.7725298,"rt08/rw09, jl. peninggaran raya no.50, rt.8/rw.11, kby. lama utara, kota jakarta selatan",ChIJ-ynsJLDxaS4RaFG9NL6U46w,0.017841999999999913
warteg sari mukti,0,0,-6.2256072,106.7738827,"jl. assirot no.5, rt.10/rw.3, grogol sel., kota jakarta selatan",ChIJE4SFDCnxaS4RbSE-vPZj2P4,0.03488290000000038
warteg berkah slawi ayu,5,1,-6.2259718,106.7637052,"jalan kampung baru 3 (50 meter dari gapura) ulujami pesanggrahan, rt.3/rw.2, ulujami, dki jakarta",ChIJbcrjO9HwaS4RHl0lM4HYv28,0.024340800000002716
warteg tarnity,5,5,-6.2356387,106.7489751,"gg. h. kasan misin no.12, rt.10/rw.2, petukangan utara, kota jakarta selatan",ChIJf37Ira_xaS4RFOV19mcfLdI,0.013794400000006313
warteg jaya bahari,0,0,-6.2312822,106.7605672,"jl. swadarma raya no.45, rt.3/rw.3, srengseng, kota jakarta selatan",ChIJ2XSUg2_xaS4R48nTL5YtJdQ,0.01589239999999581
warteg sido untung,4.4,23,-6.255338999999999,106.7663995,"jl. masjid al muflihun no.10, rt.2/rw.10, bintaro, kota jakarta selatan",ChIJh49up_7waS4R8SCzr0XMHT4,0.023330300000003135
warteg ibu sri,4.9,10,-6.2342768,106.7607727,"jalan swadarma, rt.14/rw.3, ulujami, kota jakarta selatan",ChIJkUo-ZNvwaS4R3jvOoCxzP1o,0.013103300000002704
warteg sederhana,4.3,8,-6.2579667,106.756346,"jalan indah depan komplek kodam rt 05 rw 03 kelurahan pesanggrahan kecamatan pesanggrahan, rt.5/rw.3, pesanggrahan, dki jakarta",ChIJ__NuqffwaS4RsSCe7xFTalc,0.01590449999999155
warteg ella jaya,4.4,7,-6.2361599,106.744911,"jl. h. sulaiman, petukangan utara, kota jakarta selatan",ChIJ2VBTPL_waS4RVdmThoyBoxM,0.017337300000000333
wahyoo warteg karomah,3.8,6,-6.226157,106.741394,"jalan muhtar raya # 81 a, rt.10/rw.1, petukangan utara, pesanggrahan, rt.10/rw.1, petukangan utara, kota jakarta selatan",ChIJKWmot7bwaS4RCIrsL08hGOU,0.03085720000000247
warteg kharisma bahari,4,18,-6.2371212,106.758175,"jl. ciledug raya, rt.1/rw.6, petukangan sel., kota jakarta selatan",ChIJLTaOKMPwaS4RW1J9AZ20kHw,0.007661199999993151
warteg portugal 2,5,1,-6.2363095,106.773627,"no 7 c, jl. kebon mangga i no.2, rt.9/rw.4, kby. lama sel., kota jakarta selatan",ChIJVVVVVSDxaS4Rugzt2do8Ppo,0.02392490000000347
warteg nur rizki,4.2,36,-6.2326023,106.756096,"jl. duku rt004, rt.9/rw.5, petukangan utara, kota jakarta selatan",ChIJJ90pxEnxaS4RvwPDUlrCg_w,0.010101099999998198
warteg ayu,3.5,8,-6.231062,106.752089,"jl. masjid darul fallah no.2a, rt.7/rw.3, petukangan utara, kota jakarta selatan",ChIJl03mEsbwaS4R3FaLaDdDgP0,0.01525720000000419
warteg bendi jaya,4.2,181,-6.2529184,106.7735524,"jl. bendi raya no.15, rt.3/rw.10, kby. lama utara, kota jakarta selatan",ChIJt7N-TQLxaS4RNZXLjgEk-Ws,0.028062599999998383
warteg permata bahari,4.5,48,-6.2282828,106.7571826,"jl. palem raya no.33, rt.7/rw.8, petukangan utara, kota jakarta selatan",ChIJm2GAv8_waS4REK-eCg6R_q8,0.01550719999999206
warteg salfa,4.3,22,-6.2399499,106.763561,"jl. perdatam i no.1, rt.7/rw.5, ulujami, kota jakarta selatan",ChIJO08QWOfwaS4RQhd1QBTKzDI,0.010218499999994357
