nama_tempat,rating_tempat,user_ratings_total,latitude,longitude,alamat_tempat,place_id,distance
warteg wagetun,4.3,14,-6.271634400000001,106.81533700000001,"jl. kemang raya no.95 e, rt.1/rw.2, bangka, kota jakarta selatan",ChIJh867ronxaS4Rc0hjpvuWHW8,0.012258199999997109
warteg kar1mah bahari,4.7,3,-6.260486299999998,106.8232763,"jl. kemang timur no.21, rt.5/rw.4, bangka, kota jakarta selatan",ChIJ-SQ7eSvyaS4RTa4L3WszsgE,0.0
warteg jayabahari,4.4,104,-6.2579525999999985,106.8233462,"jl. kemang utara no.55, rt.2/rw.4, bangka, kota jakarta selatan",ChIJp9qMq9TzaS4R3a846-2OsiY,0.0
warteg 234,4.2,10,-6.2583754,106.82053,"warteg 234 no. 234, jalan. bungur dalam kemang utara, rt.1/rw.5, bangka, kota jakarta selatan",ChIJGRbq1CryaS4RLMvYTWYF13Q,0.0
warteg mojo,0.0,0,-6.2532745,106.82212820000001,"jl. bangka ix c, rt.10/rw.10, pela mampang, kota jakarta selatan",ChIJwZtNINTzaS4R29tJ4u1-P3U,0.0
dapur warteg,5.0,1,-6.257915799999999,106.82218290000002,"jl. kemang sel. no.49a, rt.2/rw.4, bangka, kota jakarta selatan",ChIJEw8bjjjzaS4RoYkGbq5jlZk,0.0
warteg darmo,5.0,2,-6.251923499999998,106.82125959999999,"jl. bangka, rt.10/rw.10, pela mampang, kota jakarta selatan",ChIJBQWMmNbzaS4RcczX4-mhAxo,0.0
warteg moro seneng,5.0,2,-6.2533395999999986,106.822051,"jl. bangka ix c no.37, rt.12/rw.10, pela mampang, kota jakarta selatan",ChIJp4WW9drzaS4RXMgnBLXXcyw,0.0
warteg slawi ayu,4.1,12,-6.251524300000002,106.8236075,"jl. bangka ix no.49, rt.8/rw.10, pela mampang, kota jakarta selatan",ChIJEfkqNdHzaS4R34pjpXPkJo0,0.0
warteg b9,4.5,44,-6.2519250999999985,106.8212432,"jl. bangka ix, rt.7/rw.10, pela mampang, kota jakarta selatan",ChIJx2e4jNbzaS4RYh1aTTtZG2U,0.0
warteg rezkq,5.0,2,-6.258972,106.78963429999999,"jl. h. zainuddin no.27-7, rt.5/rw.14, gandaria utara, kota jakarta selatan",ChIJE_-oVybxaS4R2kNkeOhgJiU,0.0
warteg garasi,0.0,0,-6.2635533,106.78921869999999,"jl. h. nawi raya no.18, rt.7/rw.10, gandaria utara, kota jakarta selatan",ChIJ133lTqHxaS4RUECgmlCD1h8,0.0
warteg minah,4.2,20,-6.2847472999999985,106.81906529999999,"jl. ampera raya no.4a, rt.1/rw.6, ragunan, kota jakarta selatan",ChIJkYmc6x3yaS4RqZV67z9_CEM,0.0
warteg bahari,0.0,0,-6.287696700000001,106.82342720000001,"jl. hankam no.rt.5, rt.8/rw.11, ragunan, kota jakarta selatan",ChIJzb7lNIjzaS4RN5d-ACBV1BQ,0.0
warteg b 464 s,5.0,1,-6.285446899999998,106.8186179,"jalan ampera raya no.10, rt.8/rw.2, cilandak timur, pasar minggu, rt.8/rw.2, cilandak tim., kota jakarta selatan",ChIJ73ANkh3yaS4RbT5kf2OMn1M,0.0
warteg ellya,4.5,112,-6.279879999999999,106.81812099999999,"jl. madrasah no.7, rt.5/rw.6, cilandak tim., kota jakarta selatan",ChIJEd0jgMvvaS4R_0_i9wEeWik,0.0
warteg podoworo,3.0,1,-6.2881446,106.82483789999999,"jalan taman rt 001 rw 006 ragunan, jl. margasatwa bar., rt.6/rw.1, ragunan, dki jakarta",ChIJfyE8aRvyaS4R6c6Jt_g30VU,0.0
warteg danny,4.0,5,-6.2817843999999985,106.824179,"jl. pekayon, rt.2/rw.3, ragunan, kota jakarta selatan",ChIJ0-wZLhnyaS4R1bOnEU9msWk,0.0
makmur restaurant,4.4,51,-6.287111899999998,106.825406,"jl. taman margasatwa raya no.16, rt.4/rw.11, ragunan, kota jakarta selatan",ChIJ45sNFRvyaS4ROMnssJC0o4w,0.0
warteg kharisma elegant cab warung jati,4.5,328,-6.289969200000002,106.8240129,"jl. marga satwa raya no no.16, rt.5/rw.1, ragunan, kota jakarta selatan",ChIJd9d3xQnvaS4RatGPrzFuWSo,0.0
warteg kharisma bahari elegant cabang warung jati,4.6,9,-6.2900239000000004,106.8239837,"jl. taman margasatwa raya no.16, rt.5/rw.1, ragunan, kota jakarta selatan",ChIJ4bLuWNDzaS4R_g-TIrV3VHc,0.0
wahyoo.warteg alif bahari,4.6,44,-6.2816467000000005,106.82311899999999,"jl. pekayon no.2, rt.9/rw.3, ragunan, kota jakarta selatan",ChIJ9Swrth7yaS4Rec3AeV4nKck,0.0
warteg bagas,5.0,1,-6.2854185,106.81866940000002,"jl. ampera raya no.8, rt.8/rw.2, cilandak tim., kota jakarta selatan",ChIJbW6H-pXzaS4Rp5tD4DxCJ8M,0.0
warteg mulya bahari,4.3,301,-6.2637941,106.7908567,"jl. h. nawi raya no.73, rt.6, gandaria utara, kota jakarta selatan",ChIJVZgWeqHxaS4RaoBtJDqp_zY,0.011672599999990927
warteg bu turah,4.4,31,-6.2613799000000006,106.802347,"jakarta selatan, rt.6/rw.2, cipete utara, kota jakarta selatan",ChIJIwFTrZ3xaS4R8yZkk2Jr6pU,0.015859899999999705
warteg mandiri,4.1,10,-6.266043,106.808127,"jl. duren tiga raya no.48, rt.4/rw.1, duren tiga, kota jakarta selatan",ChIJyyDNSszzaS4RNwTh3ojM5zc,0.016976800000001013
warteg mamoka,4.5,191,-6.2719347,106.7965176,"pqhw+6jc, rt.1/rw.4, south gandaria, south jakarta city",ChIJQ-4iYQ3xaS4ROc90Y7wg3QQ,0.002128900000004208
warteg selaras bahari,4.7,3,-6.2643499999999985,106.79774499999999,"jl. nangka, rt.2/rw.5, cipete utara, kota jakarta selatan",ChIJ41bAP_jxaS4Rf50QI4ZoMsA,0.008287800000008616
warteg barokah,3.8,15,-6.258563,106.802274,"no 18, jalan kirai, rt.10/rw.4, cipete utara, kota jakarta selatan",ChIJK_7-mZ3xaS4RG3fPlGRAtKc,0.018603799999999282
warteg selera,4.0,1,-6.2610981,106.7910983,"jl. hidup baru no.30, rt.12/rw.3, gandaria utara, kota jakarta selatan",ChIJ1ZlaW6DxaS4Ro0zW8V-AUa0,0.014126999999995782
warteg jaya bahari,4.5,49,-6.2666981,106.80377320000001,"jl. abdul majid raya, rt.11/rw.7, cipete utara, kota jakarta selatan",ChIJPc4q_ZrxaS4Rnb65HJWKVAM,0.011967899999996591
warteg anda,5.0,2,-6.2724509999999984,106.803327,"jl. asem dua no.14, rt.1/rw.6, cipete sel., kota jakarta selatan",ChIJ5zKjrDvxaS4RUyfQwcS7jZc,0.00945459999999798
warteg citrajaya bahari,4.1,12,-6.259934500000001,106.7962051,"jl. gotong royong i no.1, rt.4/rw.6, gandaria utara, kota jakarta selatan",ChIJ9fn8wp_xaS4Rnr_xEDKeXI0,0.011163399999995605
warteg selera,4.6,13,-6.260402999999998,106.7970268,"jl. rs. fatmawati raya no.1, rt.2/rw.1, cipete utara, kota jakarta selatan",ChIJzRY0eXXxaS4RDvXmGhnQD4Y,0.01151660000000021
warteg mamoka bahari,4.4,72,-6.2662996999999985,106.78984969999999,"jl. madrasah no.5, rt.6/rw.1, gandaria sel., kota jakarta selatan",ChIJPxS216vxaS4RWxXpeHm7L1A,0.010173999999993022
warteg zahra,4.2,17,-6.2524679,106.79459750000001,"jl. petogogan i no.20a, rt.1/rw.11, gandaria utara, kota jakarta selatan",ChIJkTt21XLxaS4RJPViggvKqAg,0.01925800000000244
warteg 46,5.0,2,-6.2642370000000005,106.7935285,"jl. h. nawi raya no.46a, rt.6/rw.2, gandaria sel., kota jakarta selatan",ChIJBYMb-KHxaS4RKc7vu-v5SVg,0.008557900000004004
warteg rahayu,0.0,0,-6.260065699999998,106.80069099999999,"jl. damai raya no.20, rt.1/rw.2, cipete utara, kota jakarta selatan",ChIJv4vg6J3xaS4RatIsR5-Eu4w,0.015518100000003088
warteg kharisma bahari 16,4.5,16,-6.2602297999999985,106.79097050000001,"cilandak, jl. h. salim 1 no.3, rt.8/rw.10, gandaria utara, dki jakarta",ChIJDdcAxKDxaS4R_DT2xRvkiFk,0.015123099999997612
warteg restu ibu,5.0,1,-6.2706906999999985,106.79728829999999,"jl. rs. fatmawati raya no.234, rt.1/rw.4, gandaria sel., kota jakarta selatan",ChIJMe6GgpfxaS4RiahGZqvF6BA,0.0016556000000074178
warteg rohmadi,0.0,0,-6.2671835,106.79425590000001,"jl. komp. depag no.19, rt.7/rw.3, gandaria sel., kota jakarta selatan",ChIJFemleJjxaS4RUI3pXCOhVdM,0.004884000000001443
warteg mekar jaya (wmj),3.0,2,-6.270124,106.79727,"jl. rs. fatmawati raya no.8-1, rt.1/rw.4, gandaria sel., kota jakarta selatan",ChIJv83Pi4fxaS4R5cjVT7Qyq0U,0.002038799999999341
warteg kharisma bahari,4.4,179,-6.260070100000001,106.8057715,"jl. h. jian no.32, rt.7/rw.3, cipete utara, kota jakarta selatan",ChIJx8p0Sp3xaS4R-_IldqY_PHc,0.020594200000006783
warteg annisa,3.5,2,-6.2705804,106.79624879999999,"jalan mangga nomor 8d, rt.4/rw.4, gandaria sel., kota jakarta selatan",ChIJ0TDKwGEfai4RQBj94PZtAUw,0.000561200000002593
warteg 168,4.0,2,-6.263635499999999,106.79454040000002,"jl. h. nawi raya, rt.2/rw.7, gandaria utara, kota jakarta selatan",ChIJBW6EWZ_xaS4Roq_1K9LQ7ps,0.0081474999999962
warteg kharisma bahari,5.0,8,-6.2677365,106.79674209999999,"jl. madrasah no.1a, rt.3/rw.3, gandaria sel., kota jakarta selatan",ChIJQ4JQ1Q_xaS4R_aKPjG7C_sQ,0.0038984000000050756
warteg ben jaya,3.5,6,-6.2671015,106.7941082,"jl. madrasah no.4, rt.7/rw.3, gandaria sel., kota jakarta selatan",ChIJ8T2QgaLxaS4Rh4tD2TBG0Us,0.005113700000000776
warteg kharisma,4.2,30,-6.270607999999998,106.79571499999999,"samping philips, jl. mangga no.5, rt.5/rw.3, gandaria sel., kota jakarta selatan",ChIJo6qq6pfxaS4Rn4QKuHY7PCU,3.999999966808332e-07
warteg niki 4,4.7,18,-6.274515,106.79789,"jl. rs. fatmawati raya, rt.14/rw.4, cipete sel., kota jakarta selatan",ChIJ3498KJTxaS4RcG5SKCjpSEk,0.006081599999998133
warteg kharisma bahari,4.4,206,-6.2582684,106.7932268,"jl. karya utama no.6, gandaria utara, kota jakarta selatan",ChIJx1eskX_xaS4R07OKpVGmurM,0.014828199999997516
warteg cita rasa 3,4.0,9,-6.2638568,106.794299,"no. 051, jl. h. nawi raya, rt.7/rw.7, gandaria utara, kota jakarta selatan",ChIJLaE9Vp_xaS4RXEZZp3K0has,0.00816760000000194
warteg putra bahari,4.7,6,-6.254445599999999,106.79518689999999,"jl. petogogan ii no.30a, rt.9/rw.5, pulo, kota jakarta selatan",ChIJe2cWC9bxaS4RVkwIlFDegZI,0.01669089999999418
warteg kharisma bahari,0.0,0,-6.264571,106.799726,"jl. abdul majid raya, rt.13/rw.2, cipete utara, kota jakarta selatan",ChIJNyMYqAPxaS4R7gNXNMCSNY4,0.0100478000000086
warteg murah meriah,4.0,5,-6.2668583,106.8019914,"jl. abdul majid raya no.30, rt.11/rw.2, cipete sel., kota jakarta selatan",ChIJYxvXSJrxaS4R-Sgik59q2Nk,0.010025900000007582
wahyoo warteg sebelah gg haji miad,4.8,10,-6.2667242,106.80409009999998,"jl. abdul majid raya no.3, rt.11/rw.7, cipete sel., kota jakarta selatan",ChIJuU9W4prxaS4Ry-10NNDr1Hk,0.012258699999998512
warteg kharisma bahari 24,4.6,57,-6.2609493999999986,106.796151,"jl. hidup baru, rt.9/rw.6, gandaria utara, kota jakarta selatan",ChIJuQHgkZ_xaS4RhJK7eLjYLoE,0.010094399999997172
warteg latifah,4.6,42,-6.2571283,106.8169117,"prv8+4qv, rt.5/rw.1, bangka, south jakarta city",ChIJc-5_wn_xaS4RRhfzbFQQ6B8,0.0
warteg bejo,4.5,114,-6.258194599999999,106.8134351,"jl. kemang i no.12, rt.10/rw.1, bangka, kota jakarta selatan",ChIJZVTwuK_xaS4RHEFvuzuSxyw,0.0
warteg kharisma bahari,4.4,134,-6.2641376,106.8090111,"jl. khm. naim iii no.11, rt.5/rw.9, cipete utara, kota jakarta selatan",ChIJ32eNfYTxaS4RPMzLYLN43zk,0.0
warteg kharisma bahari,4.3,3,-6.2571620999999995,106.8184548,"jl. kemang barat no.16, rt.6/rw.5, bangka, kota jakarta selatan",ChIJOxi72bzzaS4RlvjFPBNt4kc,0.0
warteg mojo,3.9,15,-6.2517871,106.8170368,"jl. bangka ix no.100, rt.3/rw.12, pela mampang, kota jakarta selatan",ChIJNdOYjH3xaS4Rk1oL3l1tnB0,0.0
warteg jippo,4.5,6,-6.257980799999999,106.80719429999999,"jl. anggur v, rt.3/rw.3, cipete utara, kota jakarta selatan",ChIJOSU7EnjxaS4R_IVdjn8r26A,0.0
simpang raya rm warteg kecil,4.6,14,-6.2572807,106.81616399999999,"jl. kemang utara, rt.4/rw.1, bangka, kota jakarta selatan",ChIJ6ZkBlX_xaS4RHQ5_31o7o94,0.0
warteg sederhana,4.4,48,-6.264538000000001,106.8089784,"jl. khm. naim iii b no.11, rt.7/rw.9, cipete utara, kota jakarta selatan",ChIJMWiYWoTxaS4R7M_b64dog7Y,0.0
warteg abil jaya,4.3,36,-6.251912799999999,106.8179044,"jl. bangka ix, rt.3/rw.12, pela mampang, kota jakarta selatan",ChIJbWYTINbzaS4R30dW265Wz7s,0.0
warteg asih,4.6,55,-6.287616000000001,106.809292,"jl. nis no.32, rt.9/rw.3, cilandak tim., kota jakarta selatan",ChIJWQqmRYXxaS4R7CAIOdaA5Ag,0.0
warteg,0.0,0,-6.2893219,106.8066429,"jl. swadaya no.16a, rt.2/rw.1, cilandak bar., kota jakarta selatan",ChIJeYO0IDrxaS4RzjAiFuMYOtg,0.0
wahyoo warteg bmj,5.0,1,-6.2891726,106.8030902,"pr63+86p, rt.7/rw.1, west cilandak, south jakarta city",ChIJ_3Z-_XjxaS4RT3bKsAq4fAY,0.0
warteg idola,4.5,86,-6.249302200000001,106.78377379999999,"jl. bungur ii, rt.4/rw.2, kby. lama sel., dki jakarta",ChIJ75L4HhDxaS4RgYOwHHC9nog,0.0
wahyoo warteg hidayah,0.0,0,-6.249195599999998,106.7826033,"jl. bungur ii no.57, rt.2/rw.2, kby. lama sel., kota jakarta selatan",ChIJ-X5OABDxaS4RtSLrS7TkDtw,0.0
warteg barokah,4.8,4,-6.247303899999999,106.7797712,"jl. bungur, rt.4/rw.1, kby. lama utara, kota jakarta selatan",ChIJwahg_BrxaS4RNRojSe6S7EQ,0.0
warteg ana,5.0,3,-6.2488310999999985,106.78436210000001,"jalan bungur ii rw003, rt.4/rw.12, kby. lama sel., kec. kby. lama, kota jakarta selatan, dki jakarta12240, rt.5/rw.2, kby. lama sel., kota jakarta selatan",ChIJLdK__YTxaS4RnAEzfcP6EOg,0.0
warteg mubarok,4.3,11,-6.2499981,106.79005690000001,"jl. antena ii no.17, rt.3/rw.8, kramat pela, kota jakarta selatan",ChIJMRQqlw3xaS4RAbC3wsz1ewQ,0.0
warteg (wahyoo) enno,5.0,4,-6.2498542,106.7915148,"jl. radio dalam raya no.2, rt.14/rw.2, gandaria utara, kota jakarta selatan",ChIJn2kcbrrxaS4RrbmUrkJi46s,0.0
warteg kharisma,4.3,13,-6.246765099999998,106.7882461,"jl. jatayu no.rt.7, rt.8/rw.3, south kebayoran lama, south jakarta city",ChIJwTFnhBHxaS4RUnkcZqdgsTI,0.0
wahyoo warteg berkah bahari,5.0,1,-6.2532236,106.78424650000001,"jl. praja no.dalam, rt.5/rw.5, south kebayoran lama, south jakarta city",ChIJydRgLtzxaS4RhDc26tp6fU0,0.0
wahyoo warteg sederhana,4.4,16,-6.2579637,106.7897662,"jl. minang kramat no.1b, rt.2/rw.14, gandaria utara, kota jakarta selatan",ChIJzzW9PwrxaS4RdKXd702mxKs,0.0
warteg waluyo,4.2,11,-6.2599342,106.78451670000001,"jl. kopro banjir, rt.7/rw.11, kby. lama sel., kota jakarta selatan",ChIJ1Z8Ij6fxaS4Rw9PgmuWtJbs,0.0
warteg raji,4.3,4,-6.2583739000000005,106.78248290000002,"jl. tanah kusir ii no.9, rt.3/rw11/rw.9, kby. lama sel., kota jakarta selatan",ChIJUT0qYJfxaS4RWNnA0Jb0FOI,0.0
warteg tono,3.9,32,-6.260771099999999,106.78531059999999,"jl. tanah kusir no.09, rt.10/rw.11, kby. lama sel., kota jakarta selatan",ChIJCcdCn6fxaS4RYkFXDuUBQXU,0.0
warteg munawar,4.5,17,-6.2598405,106.7852074,"jl. dwijaya iv, rt.7/rw.11, kby. lama sel., kota jakarta selatan",ChIJ48rKg6fxaS4RdVX2uuxZPIQ,0.0
warteg selasih,5.0,2,-6.2568402,106.7857907,"jl. taman radio dalam vii, rt.13/rw.11, gandaria utara, kota jakarta selatan",ChIJT0T3qQnxaS4RHNgaUwtW9r8,0.0
warteg kharisma bahari - kostrad,4.5,19,-6.2533197,106.7852406,"jl. darma putra raya jl. swadaya no.51, rt.9/rw.5, kby. lama sel., kota jakarta selatan",ChIJ78_ZKA_xaS4RjhU79awBWnI,0.0
warteg citra bahari,3.6,10,-6.253381,106.77606999999999,"jalan bintaro raya tanah kusir, rt.2/rw.10, kebayoran lama selatan, kebayoran lama, rt.11/rw.10, kby. lama sel., kota jakarta selatan",ChIJo7yAjAPxaS4Rj1TMzLIGzlE,0.0
warteg dewi,4.6,17,-6.259367,106.7829055,"jl. tanah kusir ii no.9 rt009/rw009, rt.11/rw.9, kby. lama sel., kota jakarta selatan",ChIJ24TL8y7xaS4Rwwv4UwE3Hok,0.0
warteg m j,4.4,15,-6.260880299999998,106.78881840000001,"jl. radio dalam raya no.88, rt.3/rw.11, gandaria utara, kota jakarta selatan",ChIJHQ3F06DxaS4R5gBp0MQxEnw,0.0
warteg ainun jaya 1 - tanah kusir,4.3,17,-6.254917900000001,106.77765990000002,"jl. ciputat raya jl. tanah kusir no.47, rt.13/rw.1, kby. lama sel., kota jakarta selatan",ChIJFdYstSrxaS4RDR2FalWmrFE,0.0
warteg slawi ayu,4.6,60,-6.2553325,106.7760395,"jl. johari no.1, rt.10/rw.10, kby. lama sel., kota jakarta selatan",ChIJdUouTgHxaS4RkjXb5A6rWb4,0.0
wahyoo warteg mekarsari,4.5,79,-6.2522474,106.78330530000001,"dalam k nomor, jl. praja no.40, rt.7/rw.5, kby. lama sel., kota jakarta selatan",ChIJNS1Wdg_xaS4RQUMIMTYVufw,0.0
warteg irma,0.0,0,-6.2532492999999985,106.77788020000001,"jl. ciputat raya no.2, rt.11/rw.11, kby. lama utara, kota jakarta selatan",ChIJTe_1agTxaS4RTRdADsChwg4,0.0
warteg dewi,5.0,3,-6.262671399999999,106.7855896,"jl. margaguna raya a no.9, rt.4/rw.15, gandaria utara, kota jakarta selatan",ChIJxyiN96bxaS4R-q2adJP7T-8,0.0
warteg portugal,4.2,17,-6.2580774,106.7773531,"jl. ciputat raya, rt.4/rw.10, kby. lama sel., kota jakarta selatan",ChIJ93oZOgfxaS4RPF6_rk3M1P4,0.0
warteg bahari,5.0,6,-6.278468699999999,106.7932845,"jl. bahari i no.62, rt.10/rw.7, gandaria sel., kota jakarta selatan",ChIJg3ksjvDxaS4R_qssV7JJYx4,0.017734300000003422
warteg pratama 03,4.5,8,-6.2798251,106.79534309999998,"jl. terogong raya no.15, rt.11/rw.7, gandaria sel., kota jakarta selatan",ChIJOxnknzbxaS4R2bQU7UbrqHk,0.014319300000003919
warteg kharisma bahari / tasripin,4.4,118,-6.2780903,106.8049547,"jl. cipete raya no.1a, rt.8/rw.4, cipete sel., kota jakarta selatan",ChIJ92bavZLxaS4RuyRU7t5bjv4,0.021971899999996047
warteg poncol,0.0,0,-6.275475900000001,106.79305729999999,"pqfv+r63, rt.3/rw.7, south gandaria, south jakarta city",ChIJ9XsywdPxaS4RH1wimCW4GR4,0.020954299999999648
warteg sarapada 4 ibu,4.2,69,-6.2781813999999985,106.8079133,"jl. cipete raya no.61, rt.9/rw.4, cipete sel., kota jakarta selatan",ChIJiZAGPI3xaS4RhKCoGnkNB9E,0.024839399999995848
warteg hidayah,4.4,19,-6.2884959999999985,106.8070396,"jl. pangeran antasari gg. swadaya iii, rt.1/rw.1, cilandak bar., kota jakarta selatan",ChIJo4IhF_DxaS4R6ClUf1MaOcY,0.013651099999996141
warteg mpr,4.4,54,-6.2843849999999986,106.80663290000001,"jl. m.p.r iii no.dalam, rt.12/rw.13, cilandak bar., kota jakarta selatan",ChIJcbdCnQ_xaS4RmrM1BqjXTjs,0.017355399999996912
warteg family xii,3.4,5,-6.2797983,106.7953642,"jl. terogong raya, rt.11/rw.6, gandaria sel., dki jakarta",ChIJJU0fyurxaS4RLeWPtnbBhFo,0.014325000000005694
warteg dua putri,4.8,5,-6.276285499999998,106.7915426,"jl. poncol no.14, rt.3/rw.7, gandaria sel., kota jakarta selatan",ChIJH0gbjmTxaS4RlFGzY_SiaPY,0.02165940000000166
warteg romlah,4.9,7,-6.2795252,106.7931048,"pqcv+56q, rt.9/rw.7, south gandaria, south jakarta city",ChIJic_sobDxaS4RjDi_vEIOkDg,0.016857500000005743
warteg aw,5.0,2,-6.2849900000000005,106.80655949999999,"jln mpr 3 dalam no34, jl. m.p.r iii dalam no.dalam, rt.2/rw.13, cilandak bar., kota jakarta selatan",ChIJhbqPfJnxaS4RpwayWTz8Ba4,0.016677000000005826
warteg brambang salam,4.5,4,-6.2892605999999995,106.80305179999999,"jl. cilandak tengah ii no.10, rt.3/rw.1, cilandak bar., kota jakarta selatan",ChIJKwtXf-_xaS4RMB6kW-c9w-s,0.008898700000004922
warteg hafis,4.4,16,-6.2797992,106.79389479999999,"jl. terogong i no.32, rt.8/rw.10, cilandak bar., kota jakarta selatan",ChIJJzISAcDxaS4R0ZaAMqbxYgc,0.015793499999996463
warteg aw,3.7,3,-6.284375000000002,106.80647830000001,"12, jl. m.p.r. iii dalam no.dalam, rt.2/rw.13, cilandak bar., kota jakarta selatan",ChIJp3vHnFHxaS4RYYWNIi15R6Q,0.017210799999993753
warteg,4.4,175,-6.2730144,106.8148675,"jl. kemang sel., rt.5/rw.6, cipete sel., kota jakarta selatan",ChIJwTeEN4bxaS4RuMOTs5rkpNI,0.0
warteg pusri,4.3,74,-6.2685656,106.81854550000001,"jl. kemang dalam x, rt.5/rw.2, bangka, kota jakarta selatan",ChIJB2v5ByjyaS4ROSpxhg8l-Gg,0.0
warteg rizal bahari sedia soto ayam,5.0,2,-6.271609099999999,106.8102877,"jl. jaya no.71, rt.1/rw.7, cipete sel., kota jakarta selatan",ChIJf9Li4I7xaS4R7lu2AE0Lquk,0.0
warteg yayu,4.4,8,-6.2728693999999985,106.80968100000001,"jl. puri sakti i no.26a, rt.2/rw.7, cipete sel., kota jakarta selatan",ChIJCbKCjY7xaS4Rq_MXqOSXik8,0.0
warteg rofiq,4.9,9,-6.2779121,106.81577549999999,"jl. benda dalam no.16c, rt.6/rw.4, cilandak tim., kota jakarta selatan",ChIJbwekxIrxaS4RxnyZ7wN_crA,0.0
warteg citra bahari,3.3,3,-6.267001899999999,106.8115929,"jalan haji abdul majid, rt.6/rw.7, cipete sel., kota jakarta selatan",ChIJ6yqP2YXxaS4R8AJUoEswT1U,0.0
warteg kholifah,5.0,1,-6.270166000000001,106.80896399999999,"jl. manunggal juang no.1, rt.2/rw.3, cipete sel., kota jakarta selatan",ChIJTW4uAObxaS4RztgSpLTVsBs,0.0
warteg dedi,5.0,2,-6.267091400000001,106.8132925,"prm7+587, rt.7/rw.2, bangka, south jakarta city",ChIJpX9E6XLxaS4Rn-JzgszYZB0,0.0
warteg baru,4.2,52,-6.306978,106.81671399999999,"jl. saco ragunan no.96, rt.10/rw.8, ragunan, kota jakarta selatan",ChIJE5KA-4bvaS4RX085812pVWg,0.0
warteg imam,5.0,2,-6.3105538,106.815925,"jl. raya cilandak kko no.28, rt.14/rw.8, ragunan, kota jakarta selatan",ChIJlVbUbgjuaS4RBAVy3n3vuKI,0.0
warteg pemalang,4.6,14,-6.3112659,106.8088413,"jl. margasatwa no.49, rt.1/rw.7, pd. labu, kota jakarta selatan",ChIJwb2SAMbvaS4RYdRGroSlcd0,0.0
wahyoo warteg jaya,5.0,4,-6.3158223,106.7826123,"jl. karang tengah raya no.60 a, lb. bulus, kota jakarta selatan",ChIJZWOB_znuaS4RzYR4RVEdMUc,0.0
warteg srikandi sedia soto ayam,0.0,0,-6.3083,106.78128500000001,"jl. pertanian raya, rt.2/rw.4, lb. bulus, kota jakarta selatan",ChIJQdt9bC_uaS4R-5ZBEwGyj24,0.0
wahyoo warteg rizqy,4.8,4,-6.304796800000001,106.78184499999999,"rt.4/rw.4, lebak bulus, south jakarta city",ChIJZZ_DP9bxaS4R_NShEgveXHk,0.0
warteg mamoka bahari,4.0,4,-6.3052965,106.78173190000001,"jl. karang tengah raya no.35, rt.6/rw.4, lb. bulus, kota jakarta selatan",ChIJMZV4stTvaS4RiIvrQMCLZhA,0.0
warteg karisma bahari,0.0,0,-6.3102111,106.78564879999999,"jl. h. irin no.67, rt.2/rw.8, lb. bulus, kota jakarta selatan",ChIJjb2U1iTuaS4Rgty7TvkR5IM,0.01325410000000371
warteg bunda bahari,4.0,1,-6.3004840999999985,106.7769246,"lebak bulus indah no.134, rt.3/rw.4, lb. bulus, kota jakarta selatan",ChIJ14rbbLDxaS4RwVlTRaMmy3s,0.0051971000000001774
warteg bdn,4.5,4,-6.280281,106.79958570000001,"pq9x+vrp, rt.10/rw.11, west cilandak, south jakarta city",ChIJWUq0u0_xaS4RiyQ-DFBvI7Y,0.0
warteg kharisma,5.0,2,-6.2874355999999985,106.79470859999999,"jl. bni raya no.8, rt.3/rw.8, cilandak bar., kota jakarta selatan",ChIJrXBCLOjxaS4RGu2DYgciRXE,0.0
warung soto (warteg setia),0.0,0,-6.2869052000000005,106.7957146,"no., jl. rumah sakit fatmawati no.205, rw.3, bar., cilandak, rt.1/rw.3, cilandak bar., kota jakarta selatan",ChIJcUR-PerxaS4R9JgfT4TI_9A,0.0
warteg mitra,4.3,24,-6.284200900000001,106.7960637,"jl. rs. fatmawati raya no.42, rt.5/rw.3, cilandak bar., kota jakarta selatan",ChIJqfacI-rxaS4Rvo6xe2dB7rc,0.0
warteg putri,3.8,8,-6.2824088,106.7929264,"jl. terogong raya no.11, rt.6/rw.10, cilandak bar., kota jakarta selatan",ChIJe364HMDxaS4RNNuG2xHYqSU,0.0
warteg makmur jaya,4.7,19,-6.2874843,106.7926104,"jl. kh muhasyim i no.3b, rt.4/rw.6, cilandak bar., kota jakarta selatan",ChIJ3VME9cLxaS4R_PPBee3UESI,0.0
warteg barokah,0.0,0,-6.2814209000000005,106.7916717,"jl.terogong iii no.75, rt.10/rw.10, cilandak bar., kota jakarta selatan",ChIJhYS0UcDxaS4RZ1YUQNOsLmE,0.0
warteg putra jaya,0.0,0,-6.2838807,106.79613549999999,"rt.5/rw.3, cilandak bar., kota jakarta selatan",ChIJoRntWVvxaS4RpHA8tSTOAb4,0.0
warteg subsidi bahari,5.0,1,-6.288671,106.795258,"2, jl. rs. fatmawati raya no.46, rt.3/rw.5, cilandak bar., kota jakarta selatan",ChIJyXVMvbHxaS4RKZYR0GRSpRw,0.0
warteg kharisma 24 jam,0.0,0,-6.289103099999999,106.7908216,"jl. kh muhasim raya blok m, jl. buntu no.8, rt.9/rw.6, cilandak bar., kota jakarta selatan",ChIJVYT-EYHxaS4RhFtiRNTjrZU,0.0
warteg kharisma bahari,3.7,3,-6.2847235,106.7882284,"jl. terogong raya, rt.3/rw.6, cilandak bar., kota jakarta selatan",ChIJF_MZq8bxaS4RqeiKJGsMGmA,0.0
warteg kharisma,4.3,6,-6.2810843,106.7918122,"jl.terogong iii no.5, rt.10/rw.10, cilandak bar., kota jakarta selatan",ChIJUY7AXcDxaS4RG-PJJgclL8I,0.0
warteg wisma bahari,4.5,2,-6.2839109,106.7904247,"3, jl. h. batong raya no.2a, rt.3/rw.6, west cilandak, south jakarta city",ChIJXzYyLdLxaS4RDmaDQmq1ICk,0.0
warteg barokah,5.0,1,-6.2901203,106.79545309999999,"jl. rs. fatmawati raya no.14, rt.7/rw.5, cilandak bar., kota jakarta selatan",ChIJZ3j1nAjxaS4RDiFlX2ckp74,0.0
warteg bu sri,0.0,0,-6.2895699999999986,106.79264479999999,"jl. kh muhasim iv, rt.11/rw.5, cilandak bar., kota jakarta selatan",ChIJGyMIk_TxaS4RM8vXx4sGRaw,0.0
warteg sarapada i,5.0,1,-6.2870623,106.7712987,"jalan ciputat raya # 7, rt.6/rw.7, pondok pinang, kebayoran lama, rt.6/rw.7, pd. pinang, kota jakarta selatan",ChIJmUh0xszxaS4RG-50-lg2fX4,0.0
warteg kharisma bahari,4.5,214,-6.2847653,106.7683648,"jl. h. saikin no.25, rt.15/rw.8, pd. pinang, kota jakarta selatan",ChIJXQGIkDTwaS4RZbf3UL9O0C4,0.0
warteg adinda,2.0,1,-6.2884769999999985,106.771174,"jalan ciputat raya pasar jumat rt 09 rw 07, pondok pinang, kebayoran lama, rt.9/rw.7, pd. pinang, kota jakarta selatan",ChIJk6UVMc3xaS4RkkyPBnAINNE,0.0
warteg ikhlas,4.4,5,-6.2902429999999985,106.767519,"rt 008 rw 02, jl. ciputat raya, pd. pinang, kota jakarta selatan",ChIJw-aqfTLwaS4RON8UGf0Fbyo,0.0
warteg mulya bahari,5.0,1,-6.2903324000000005,106.7707445,"jl. batan jl. adiaksa raya no.1, rt.1/rw.2, lb. bulus, kota jakarta selatan",ChIJWci8VM3xaS4Rd9MuqfXmo3s,0.0
warteg kharisma bahari,4.4,157,-6.2790653,106.77233909999998,"jl. ciputat raya no.4, rt.1/rw.7, pd. pinang, kota jakarta selatan",ChIJ0YFq87rxaS4R8vKxvM3wWZo,0.0
warteg mustika bahari.,5.0,4,-6.281388799999998,106.76169440000001,"jl. rempoa raya no.5, rt.1/rw.5, bintaro, kota jakarta selatan",ChIJxyBrzTfwaS4RqGJgS54UGiw,0.0
warteg ridho ibu,4.8,6,-6.2905935999999985,106.7706668,"jl. lebak bulus raya no.1, rt.10/rw.9, lb. bulus, kota jakarta selatan",ChIJaySBTc3xaS4R_nLOHSxV02c,0.0
warteg omber tegal bahari,4.6,34,-6.2783164000000005,106.7622121,"jl. rempoa raya, rempoa, kota jakarta selatan",ChIJv_llqUnwaS4R4sDCqjjVWhI,0.0
warteg bahari,0.0,0,-6.2830008999999984,106.77031000000001,"jl. pupan no.5, rt.9/rw.8, pd. pinang, kota jakarta selatan",ChIJBUxuKDXwaS4R8eCUfyKirVk,0.0
warteg andini,0.0,0,-6.3113595999999985,106.7917283,"jl. h. ipin, rt.2/rw.1, pd. labu, kota jakarta selatan",ChIJj5_2Iz3uaS4RbvcGth9kyt8,0.0
warteg indra jaya bahar,5.0,2,-6.3092514,106.79206740000001,"jl. h. muslim, rt.6/rw.10, pd. labu, kota jakarta selatan",ChIJg8PXwiLuaS4RyEUpFP6gxuI,0.0
warteg joko,4.0,2,-6.3090989,106.79433459999998,"jl. pinang raya no.68-69, rt.2/rw.1, pd. labu, kota jakarta selatan",ChIJcx9VbHHvaS4R7ha_aiOVVUs,0.0
warteg laksana,4.6,14,-6.311044799999999,106.78500279999999,"jl. karang tengah i no.34, rt.1/rw.8, lb. bulus, kota jakarta selatan",ChIJTzXO1jruaS4RM4izdp0-M5s,0.015585499999998476
warteg ibu,4.7,16,-6.2965966999999985,106.7918274,"jl. lb. bulus i, rt.4/rw.4, cilandak bar., kota jakarta selatan",ChIJ2fjtR97xaS4REdq2Ou6rVeU,0.016412399999998332
warteg bahari,0.0,0,-6.311878500000001,106.79451170000002,"jl. margasatwa no.27-10, rt.4/rw.1, pd. labu, kota jakarta selatan",ChIJUbX9mu7vaS4RHtT4wU-6okA,0.006910299999999482
warteg jaya bahari,4.1,21,-6.310669499999999,106.78099879999999,"jl. karang tengah raya no.83, rt.1/rw.3, lb. bulus, kota jakarta selatan",ChIJJ_ZbFjDuaS4RqDArDnb6e_w,0.019214199999993298
warteg bahari,4.5,2,-6.3039394999999985,106.78171210000001,"no.10,, daerah khusus ibukota jkt ,indonesia, jl. karang tengah raya, rt.6/rw.4, lb. bulus, kota jakarta selatan",ChIJ-Vz9kCjuaS4REwLyGfI7rIo,0.019184900000007943
warteg indahbahari,5.0,1,-6.310272599999999,106.78681770000001,"jl. h. gandun no.58, rt.4/rw.8, lb. bulus, kota jakarta selatan",ChIJXTncSTvuaS4R2jP09neRqdQ,0.012998400000000744
wahyoo warteg bahari,0.0,0,-6.296751599999999,106.7866842,"jl. lb. bulus i no.rt.6, rt.15/rw.4, cilandak bar., kota jakarta selatan",ChIJ0a203j7xaS4RNtTQ6w2uQVM,0.021400700000005383
warteg bu nur,4.3,7,-6.3054727999999995,106.79591409999998,"jalan pondok labu raya no.1 4 10 pondok labu kecamatan cilandak kota jakarta selatan daerah khusus ibukota jakarta, rt.1/rw.1, pd. labu, kota jakarta selatan",ChIJi6JjDCLuaS4RCt9FCSfn1Jc,0.003449599999995279
warteg iffa,4.6,18,-6.3118728,106.81301979999999,"jl. moh. kahfi 1 no.6, rt.2/rw.6, jagakarsa, kota jakarta selatan",ChIJjV7t2wjuaS4R3vakJG9toeE,0.020056100000005902
warteg barokah,5.0,1,-6.311190900000001,106.79296140000001,"jl. h. ipin no.10, rt.7/rw.1, pd. labu, kota jakarta selatan",ChIJEbZIOz3uaS4RVxx1kwzXDB0,0.007773000000004694
warteg jaya,0.0,0,-6.303166200000001,106.7813295,"jl. karang tengah, rt.6/rw.4, lb. bulus, kota jakarta selatan",ChIJsQ-MkCjuaS4RZ8oj9pBOIYc,0.020340800000002268
warteg sari,2.7,6,-6.311108,106.781066,"jl. karang tengah raya no.97, rt.1/rw.3, lb. bulus, kota jakarta selatan",ChIJ_XisGDDuaS4Rz-o_ldh05YA,0.01958550000000514
warteg qy,4.4,55,-6.3131629999999985,106.80151699999999,"jl. margasatwa no.75, rt.1/rw.2, pd. labu, kota jakarta selatan",ChIJo997IhHuaS4RfzkuUR6EPYw,0.009843500000003223
wahyoo warteg nurul,4.1,7,-6.312822799999998,106.78152959999998,"jl. karang tengah raya, rt.4/rw.3, lb. bulus, kota jakarta selatan",ChIJ8c_4ZDDuaS4RftHPt7V3nQw,0.02083670000000115
warteg kharisma bahari,4.2,19,-6.3130834999999985,106.8002643,"jl. margasatwa no.42, rt.10/rw.2, pd. labu, kota jakarta selatan",ChIJWS7Vd57vaS4RRfJEMM5_XSM,0.008511299999994115
warteg helmi jaya,4.1,16,-6.3169,106.811675,"# jagakarsa, jl. moh. kahfi 1 no.7, rt.1/rw.6, jagakarsa, kota jakarta selatan",ChIJYyyZeQzuaS4RMuuYfzI4nhE,0.023738499999994108
warteg family,4.9,7,-6.310898,106.7855493,"jl. karang tengah i no.24, rt.3/rw.8, lb. bulus, kota jakarta selatan",ChIJ3UUzyTruaS4Rzg-hdaClrXk,0.01489220000000113
warteg pratama 05,3.0,2,-6.3131632999999985,106.7967608,"jl. pangkalan jani blok a no.3, rt.2/rw.5, pd. labu, kota jakarta selatan",ChIJNa4TqxfuaS4RbklhhFsWgQY,0.005945999999998897
warteg ojo lali cilandak,4.6,68,-6.310656400000001,106.8134351,"jl. margasatwa, rt.1/rw.6, jagakarsa, kota jakarta selatan",ChIJ73z5lQjuaS4Re-XgIblPmRM,0.01925500000000735
warteg mbak armalah,5.0,3,-6.3102684999999985,106.79714140000002,"jalan i 002 no 49, gg. rw. no.1, rt.3/rw.2, pd. pinang, kota jakarta selatan",ChIJGYtjmRfuaS4RNMB6kBulHGo,0.0026705999999991907
warteg mitra,4.8,5,-6.291395,106.802194,"jalan cilandak tengah iv no. 14c rt.003/001, rt.3/rw.1, cilandak bar., kota jakarta selatan",ChIJvx31k13xaS4Rm_CEsaEukh8,0.02125549999999965
warteg berkah jaya,4.0,6,-6.304846400000001,106.7816945,"jl. karang tengah raya no.6, rt.6/rw.4, lb. bulus, kota jakarta selatan",ChIJQSoFpSjuaS4R3uPOqYmdk4c,0.018295600000000082
warteg kharisma bahari,4.3,31,-6.313765000000001,106.781774,"jl. karang tengah raya no.59, rt.8/rw.6, lb. bulus, kota jakarta selatan",ChIJzUiQhDDuaS4RqDEd_dBs0lE,0.021534500000003117
warteg sakinah,5.0,1,-6.306642,106.81401969999999,"jl. raya cilandak kko, rt.14/rw.5, ragunan, kota jakarta selatan",ChIJXeOV8AbuaS4RiEBZOI5Epgc,0.017834200000002017
warteg kharisma bahari,4.3,3,-6.310971899999998,106.81347579999999,"jl. margasatwa bar. no.6, rt.6/rw.6, jagakarsa, kota jakarta selatan",ChIJKf6IDyjvaS4R29bnWOziC44,0.01961120000000527
warteg joko,0.0,0,-6.311706,106.79469340000001,"jl. margasatwa no.10, rt.4/rw.1, pd. labu, kota jakarta selatan",ChIJ67JSYT3uaS4RURp2G8LKVSo,0.006556100000000953
warteg ayu,4.5,35,-6.3108314000000005,106.7937468,"jl. rs. fatmawati raya no.41, rt.3/rw.1, pd. labu, kota jakarta selatan",ChIJFaK6UD3uaS4RbcMIiQ-DwKI,0.006628100000006576
warteg mulia murah meriah,5.0,2,-6.3116086,106.79007460000001,"jl. h. ipin no.23, rt.2/rw.8, pd. labu, kota jakarta selatan",ChIJ19YlwDzuaS4R659ACvbp9O4,0.011077500000003404
warteg nur,4.6,23,-6.3042615999999985,106.80315420000001,"jl. pinang kalijati, rt.11/rw.9, pd. labu, kota jakarta selatan",ChIJZzPihxzuaS4RCJEAkDLbPR0,0.009349099999994335
warteg sami asih,4.2,6,-6.2965582,106.78866000000001,"jl. lb. bulus i no.57, rt.6/rw.4, cilandak bar., kota jakarta selatan",ChIJyTk0yt7xaS4RiY0drl8OjpM,0.019618300000007416
warteg kharisma bahari,4.1,43,-6.3095972,106.79000970000001,"jl. h. ipin, rt.13/rw.1, pd. labu, kota jakarta selatan",ChIJv9zuNCPuaS4Re742xuYK1DQ,0.009131000000001777
warteg sinar bahari,0.0,0,-6.310129799999999,106.78711070000001,"jl. h. gandun jl. karang tengah raya no.23, rt.4/rw.8, lb. bulus, kota jakarta selatan",ChIJqUDQYr_vaS4RafqSst68A5I,0.012562599999999868
warteg resa,4.2,5,-6.307239,106.8139324,"jl. raya cilandak kko, rt.2/rw.7, ragunan, kota jakarta selatan",ChIJjWD8WAbuaS4RtyfwcnikgPM,0.017149899999997942
warteg ben wareg,3.9,7,-6.324368,106.81134750000001,"jl. moh. kahfi 1 no.59b, rt.1/rw.4, jagakarsa, kota jakarta selatan",ChIJ09sDP7HvaS4RTfwloMTKAy4,0.030878999999996107
warteg kharisma bahari sedia soto ayam,3.9,14,-6.3053629,106.79858200000001,"jl. swakarya bawah no.13, rt.3/rw.9, pd. labu, kota jakarta selatan",ChIJvd_lNRnuaS4RluCLdhdhu00,0.0036755999999948936
warteg nur hikmah,5.0,1,-6.30181,106.795029,"jl. wijaya kusuma, rt.8/rw.06, pd. labu, kota jakarta selatan",ChIJ7XJbbFXvaS4R52Yy4cveS6s,0.00799750000000099
warteg citra sari,4.3,153,-6.2973101,106.8034148,"jl. cilandak permai raya, rt.6/rw.2, cilandak bar., kota jakarta selatan",ChIJm_Bx_uLxaS4RHQkTq7aFOVA,0.016561199999998166
warteg jaya abadi,5.0,1,-6.3110678,106.78659009999998,"jl. karang tengah i no.8, rt.3/rw.8, lb. bulus, kota jakarta selatan",ChIJ3X6B5RrvaS4REeHIe8OG4og,0.014021200000002844
warteg teteh,0.0,0,-6.3061573,106.8021652,"jl. pinang kalijati no.12, rt.8/rw.9, pd. labu, kota jakarta selatan",ChIJe3RDjiXvaS4RF0tOsqwu10k,0.0064644000000040345
warteg kharisma bahari,0.0,0,-6.3053762,106.79863619999999,"jl. swakarya bawah no.c no.13, rt.3/rw.9, pd. labu, kota jakarta selatan",ChIJX_PQ0UfvaS4R04cdglh6B7o,0.0037165000000030095
warteg timbul jaya,4.3,7,-6.2966758999999985,106.8154811,"jl. raya cilandak kko, rt.1/rw.5, ragunan, kota jakarta selatan",ChIJuWquB__xaS4RYDo6gb4GQAk,0.02926169999999928
warteg bae,4.4,25,-6.3158330000000005,106.816268,"4, jl. kav. polri no.82, rt.4/rw.6, jagakarsa, kota jakarta selatan",ChIJkamVPwruaS4RzYcWLWi1RZY,0.02726449999999314
warteg kharisma bahari pd labu,1.0,1,-6.3011485,106.7946462,"jl. rs. fatmawati raya no.66, rt.8/rw.1, pd. labu, kota jakarta selatan",ChIJVSngG0LvaS4RYxv34Vtor34,0.009041799999997656
warteg langgeng,4.1,21,-6.3031215,106.7848034,"jl. gn. balong, rt.8, lb. bulus, kota jakarta selatan",ChIJAaVeUibuaS4Rde2y9g13_z8,0.01691159999999936
warteg mitra,5.0,1,-6.289324,106.80192,"jl. cilandak tengah raya, rt.2/rw.1, cilandak bar., kota jakarta selatan",ChIJpeh2ueXxaS4RcRkr1GzS7ZI,0.02305249999999504
warteg putra bahari,4.0,1,-6.2866480000000005,106.77610659999999,"rt.11/rw.10, pd. pinang, kota jakarta selatan",ChIJr2IRIszxaS4R9MxYT5oXRLk,0.0
warteg,4.0,6,-6.290341799999998,106.7789122,"jl. h. ilyas no.8, rt.9/rw.7, lb. bulus, kota jakarta selatan",ChIJN51qKM7xaS4Ru9z8lvw-Tus,0.0
warteg kharisma,5.0,1,-6.294282599999999,106.78232209999999,"jl. h. baun no.32, rt.3/rw.1, lb. bulus, kota jakarta selatan",ChIJExeV30HxaS4R3sckrKZ1O9Q,0.0
warteg langka-langka,5.0,1,-6.2928652000000005,106.78225060000001,"pq4j+vw2, rt.5/rw.1, lebak bulus, south jakarta city",ChIJ-2TiF3nxaS4RXenRCufpo8c,0.0
warteg mulya bahari,0.0,0,-6.2893979999999985,106.7778279,"jl. adiaksa raya no.32, rt.7/rw.7, lb. bulus, kota jakarta selatan",ChIJXYC4VEbxaS4R2QJdZPryuus,0.0
warteg kharisma,0.0,0,-6.3234607,106.8151781,"jl. durian, rt.8/rw.4, jagakarsa, kota jakarta selatan",ChIJeThsjQ3vaS4RnDZURKKg1bs,0.0
warteg bu emi,0.0,0,-6.3252728,106.8057393,"jl. manggis no.8a, rt.1/rw.1, ciganjur, kota jakarta selatan",ChIJx8kFFfXvaS4RSMSvpW_eriI,0.0
warteg bdn bahari,0.0,0,-6.3250474,106.8109797,"jl. moh. kahfi 1 blok manggis no.4g, rt.1/rw.4, jagakarsa, kota jakarta selatan",ChIJQWdI5tvvaS4RR3cMEIy4yxs,0.0
warteg putra,0.0,0,-6.324612000000001,106.81145,"gang # 2 jalan muhamad kafi 1 jagakarsa, ceremai blok cermai no.7, rt.1/rw.4, jagakarsa, dki jakarta",ChIJafA0-nPuaS4Rqv1ixxwhKwU,0.0
warteg kharisma,5.0,1,-6.3226055,106.8112879,"jl. moh. kahfi 1 no.94, rt.8/rw.4, jagakarsa, kota jakarta selatan",ChIJWci_gnPuaS4RKiG5boiFGPs,0.0
warteg rizky,5.0,3,-6.3290326,106.80546470000002,"jl. benda ujung, rt.3/rw.1, ciganjur, kota jakarta selatan",ChIJb4QL3W_uaS4Rts1Cd3o0w_s,0.0
warteg cahaya,3.3,9,-6.318906500000001,106.8108338,"jl. moh. kahfi 1, rt.3/rw.4, jagakarsa, kota jakarta selatan",ChIJa7mLvgzuaS4RL2NJfR9V6_s,0.0
warteg hikmah,0.0,0,-6.320214599999999,106.81072350000001,"jl. moh. kahfi 1, rt.3/rw.4, jagakarsa, kota jakarta selatan",ChIJPZm-S3PuaS4RxXp1GC-8yro,0.0
warteg mekar sari bahari,5.0,1,-6.324570099999999,106.8114807,"jl. muhamad kafi 1 blok manggis no.4, rt.1/rw.4, jagakarsa, kota jakarta selatan",ChIJzeg3-nPuaS4REvJpT0Y-unQ,0.0
wahyoo warteg kharisma bahari,0.0,0,-6.322535299999998,106.81115559999999,"jl. moh. kahfi 1 no.28-94, rt.3/rw.4, jagakarsa, kota jakarta selatan",ChIJwWJw8OfvaS4R-UPNKEK3TjE,0.0
warteg citr sari,4.4,36,-6.2948572,106.8108821,"jl. jaha no.12, rt.4/rw.1, cilandak tim., kota jakarta selatan",ChIJa26PDvzxaS4RPcEvbwGIn2o,0.0
warteg utama,4.2,82,-6.295514499999999,106.81616890000001,"jl. raya cilandak kko, rt.1/rw.5, ragunan, kota jakarta selatan",ChIJ4U64F__xaS4R2ativ9F8Jy8,0.0
warteg nur hikmah,4.0,1,-6.301049600000002,106.81460929999999,"jl. raya cilandak kko, rt.13/rw.5, ragunan, kota jakarta selatan",ChIJO9XpswHuaS4RjQrzMM0SY5Y,0.0
warteg subsidi,5.0,1,-6.292541,106.810897,"jl. pam lama no.48, rt.2/rw.1, cilandak tim., kota jakarta selatan",ChIJD5CtJL_xaS4RaxCzYI7-O6k,0.0
warteg asli,4.4,5,-6.3012311,106.82139620000001,"jl. harsono rm no.4, rt.4/rw.7, ragunan, kota jakarta selatan",ChIJNQYRBf_taS4RXOd3dpbTlgk,0.0
warteg kutilang,4.0,15,-6.3017788,106.8141985,"jl. raya cilandak kko no.42, rt.1/rw.8, ragunan, kota jakarta selatan",ChIJCyDeqQHuaS4RlkDAlsYsXY4,0.0
warteg bahtiar,5.0,1,-6.302946400000001,106.8209253,"jl. harsono rm, rt.8/rw.4, ragunan, kota jakarta selatan",ChIJd14Kzf3taS4R-QUTJX4Ohe4,0.0
warteg kali restu,4.4,18,-6.300179,106.8212584,"jl. harsono rm no.4, rt.4/rw.7, ragunan, kota jakarta selatan",ChIJGazCc__taS4RMgJi_zm4ZH4,0.0
warteg sukasari ragunan,4.5,14,-6.3032897000000006,106.8209314,"jalan harsono rm samping, gg hj.noin no.8, rt.8/rw.4, ragunan, kota jakarta selatan",ChIJI2B4jP7taS4Rw_MtxpMnvWg,0.0
warteg danti,0.0,0,-6.302419599999999,106.8144034,"jl. raya cilandak kko no.5, rt.1/rw.5, ragunan, kota jakarta selatan",ChIJh_dbBAHuaS4RMyPMT22f9bI,0.0
