nama_tempat,rating_tempat,user_ratings_total,latitude,longitude,alamat_tempat,place_id,distance
warteg ibu mukrim,4.4,9,-6.2294415,106.8078555,"jalan tebet barat raya no 71 a rt 15 rw 01, gang keamanan no.2, rt.7/rw.3, senayan, dki jakarta",ChIJtTxgoVrxaS4RIcILCJ94784,0.015173399999991233
warteg bahari,4.3,8,-6.243084899999999,106.8036004,"rt.5/rw.2, melawai, kota jakarta selatan",ChIJnR10wNHxaS4RW1jJIolVFBg,0.007940700000001577
warteg gaspoll,4.6,37,-6.23992,106.811888,"santa modern market, lantai 2 no. 171-172, rt.5/rw.4, petogogan, kota jakarta selatan",ChIJox4BmHnxaS4R391rlmpggsA,0.003511800000000065
warteg putra bahari,4.3,4,-6.2456577,106.819603,"rt.2/rw.3, pela mampang, kota jakarta selatan",ChIJVVVVaNjzaS4RyixQLFrqka8,0.012790300000006916
warteg,4.2,10,-6.238093900000001,106.8271921,"jl. gatot subroto no.23, rt.2/rw.2, kuningan bar., kota jakarta selatan",ChIJkX-lW93zaS4R14XAXTz3ayU,0.0206420000000076
warteg bu yanti,4.8,12,-6.245361,106.8274283,"jl. mampang prapatan iv, rt.5/rw.5, mampang prpt., kota jakarta selatan",ChIJnUe14trzaS4RXKiE7Rit_eo,0.02031890000000036
warteg saleh jaya,4.6,21,-6.244921,106.810186,"jalan petogogan ii no.30p, pulo, rt.9/rw.5, petogogan, kota jakarta selatan",ChIJeVL2pHTxaS4RiuAtQ7S6Qkg,0.0031911999999945095
warteg jayabahari,4.4,104,-6.257952599999999,106.8233462,"jl. kemang utara no.55, rt.2/rw.4, bangka, kota jakarta selatan",ChIJp9qMq9TzaS4R3a846-2OsiY,0.02882840000000897
warteg barokah,3.8,15,-6.258563,106.802274,"no 18, jalan kirai, rt.10/rw.4, cipete utara, kota jakarta selatan",ChIJK_7-mZ3xaS4RG3fPlGRAtKc,0.024745199999999024
warteg latifah,4.5,87,-6.2479931,106.8283968,"jl. mampang prapatan viii, rt.2/rw.2, tegal parang, kota jakarta selatan",ChIJ3ROwC9DzaS4Rtjta9p9Pkrk,0.02391949999999987
warteg nojo jaya,4.3,52,-6.2464479,106.8187618,"jl. bangka ii no.44b, rt.1/rw.3, pela mampang, kota jakarta selatan",ChIJx7Z8btjzaS4RPtfQJN3azZ0,0.012739300000010445
warteg nojo jaya,4.1,130,-6.2369222,106.8169473,"jl. rengas 3 no.1, rt.7/rw.2, rw. bar., kota jakarta selatan",ChIJe36y7V_xaS4Rg4XGMfLfIX0,0.01156889999999855
warteg nojo jaya ciragil,4.2,113,-6.2374415,106.8093958,"jl. cikatomas no.12, rt.5/rw.1, rw. bar., kota jakarta selatan",ChIJSfF6m13xaS4RA4-iuuueqIg,0.005633099999989177
warteg bahari jaya,0,0,-6.2390041,106.8188734,"jl. kapten tendean, rt.6/rw.5, kuningan bar., kota jakarta selatan",ChIJ-RZCiKvzaS4RtAav75WND64,0.011413100000004839
warteg bahari,4.1,17,-6.2580227,106.8280144,"jl. warung buncit raya no.36, rt.1/rw.2, duren tiga, kota jakarta selatan",ChIJS-zbdi3yaS4RocYBNmpdJpw,0.03356670000000683
warteg dj,4.6,18,-6.22937,106.821576,"jl. guru mughni no.9, rt.2/rw.5, kuningan, kuningan tim., kota jakarta selatan",ChIJ-zMdEOPzaS4RsP1D_W1cffk,0.02374979999999649
warteg zahra,4.2,17,-6.2524679,106.7945975,"jl. petogogan i no.20a, rt.1/rw.11, gandaria utara, kota jakarta selatan",ChIJkTt21XLxaS4RJPViggvKqAg,0.026326600000001754
warteg citrajaya bahari,4.1,12,-6.259934500000001,106.7962051,"jl. gotong royong i no.1, rt.4/rw.6, gandaria utara, kota jakarta selatan",ChIJ9fn8wp_xaS4Rnr_xEDKeXI0,0.0321856000000027
warteg kembang,4.1,148,-6.2269406,106.8218963,"jl. guru mughni jl. sd no.21, rt.5/rw.1, kuningan, kuningan tim., kota jakarta selatan",ChIJfeXGxPzzaS4Ra8mJIOI6C5w,0.026499500000009668
warteg bahari,4.4,5,-6.2436783,106.8259957,"jl. mampang prapatan ii, rt.1/rw.5, mampang prpt., kota jakarta selatan",ChIJgeVMl9vzaS4RYj_nLr2mHlI,0.01720360000001353
warteg bahari 11,5,5,-6.230938,106.823469,"jl. komp. tni (auri) no.11, rt.3/rw.3, kuningan, kuningan tim., kota jakarta selatan",ChIJxw7cHCzzaS4Rtw7d-RgE6ak,0.02407480000000639
warteg latifah,4.6,42,-6.2571283,106.8169117,"prv8+4qv, rt.5/rw.1, bangka, south jakarta city",ChIJc-5_wn_xaS4RRhfzbFQQ6B8,0.021569600000011846
warteg idola,3.5,4,-6.253014599999999,106.8254423,"prwg+q5w, rt.1/rw.6, duren tiga, south jakarta city",ChIJT_bXYdHzaS4R27unIxkFFeE,0.02598650000001168
warteg darmo,5,2,-6.251923499999999,106.8212596,"jl. bangka, rt.10/rw.10, pela mampang, kota jakarta selatan",ChIJBQWMmNbzaS4RcczX4-mhAxo,0.020712700000010464
warteg rizky,3.8,9,-6.229686,106.8225727,"jalan perintis rt.2/rw.5, rt.3/rw.5, kuningan, kuningan tim., kota jakarta selatan",ChIJq15KFOPzaS4RRIvf0vROEU4,0.024430499999998467
warteg xii mutiara bahari,4.8,6,-6.2456644,106.8155586,"rt.1/rw.11, pela mampang, kota jakarta selatan",ChIJ-1nXV2LxaS4RZv5LRU6mKHY,0.008752600000009103
warteg berkah,4.5,21,-6.2451104,106.7937817,"jalan barito, rt.3/rw.1, kramat pela, kota jakarta selatan",ChIJ_fAfNhPxaS4RO0NcipMGV5A,0.01978489999999944
warteg slawi ayu,4.1,12,-6.251524300000001,106.8236075,"jl. bangka ix no.49, rt.8/rw.10, pela mampang, kota jakarta selatan",ChIJEfkqNdHzaS4R34pjpXPkJo0,0.022661400000001386
warteg mojo,3.9,15,-6.2517871,106.8170368,"jl. bangka ix no.100, rt.3/rw.12, pela mampang, kota jakarta selatan",ChIJNdOYjH3xaS4Rk1oL3l1tnB0,0.016353500000002796
warteg kharisma bahari,4.4,179,-6.260070100000001,106.8057715,"jl. h. jian no.32, rt.7/rw.3, cipete utara, kota jakarta selatan",ChIJx8p0Sp3xaS4R-_IldqY_PHc,0.022754799999991526
warteg jaya bahari,4.6,5,-6.241229,106.8177995,"jl. bangka raya no.10, rt.2/rw.1, pela mampang, kota jakarta selatan",ChIJVYhx2GHxaS4R8ZbmSUf-62k,0.008114300000010566
warteg indah,3,1,-6.2541101,106.8270521,"jalan warung buncit no.3, rt.2/rw.5, duren tiga, kota jakarta selatan",ChIJ0f0ONtLzaS4RZqTDc9Qa_T4,0.028691800000009593
warteg bejo,4.5,114,-6.258194599999999,106.8134351,"jl. kemang i no.12, rt.10/rw.1, bangka, kota jakarta selatan",ChIJZVTwuK_xaS4RHEFvuzuSxyw,0.019159300000011648
warteg kharisma bahari,4.3,3,-6.2571621,106.8184548,"jl. kemang barat no.16, rt.6/rw.5, bangka, kota jakarta selatan",ChIJOxi72bzzaS4RlvjFPBNt4kc,0.02314650000000462
warteg yana,5,2,-6.2466969,106.8259189,"jl. mampang prpt. raya no.70 d, rt.9/rw.3, tegal parang, kota jakarta selatan",ChIJiTxjb9rzaS4REM1n7VAkszE,0.020145400000011193
warteg jaya,3,1,-6.237504,106.814933,"#, jl. birah ii no.4, rt.6/rw.6, rw. bar., kota jakarta selatan",ChIJy_TP0l_xaS4RN33VNof7puc,0.008972799999999559
warteg jippo,4.5,6,-6.257980799999999,106.8071943,"jl. anggur v, rt.3/rw.3, cipete utara, kota jakarta selatan",ChIJOSU7EnjxaS4R_IVdjn8r26A,0.019242699999988844
warteg kharisma bahari,4.4,206,-6.2582684,106.7932268,"jl. karya utama no.6, gandaria utara, kota jakarta selatan",ChIJx1eskX_xaS4R07OKpVGmurM,0.03349779999999747
warteg khasanah,4.7,9,-6.2481751,106.8258505,"jl. mampang prapatan vii no.28, rt.8/rw.008, tegal parang, kota jakarta selatan",ChIJ1Wwwm9DzaS4R6U2I1ns6Ld0,0.02155520000000788
warteg timbul jaya 4,4.1,13,-6.2494235,106.817759,"no.23, jl. bangka raya no.8, rt.2/rw.12, pela mampang, kota jakarta selatan",ChIJ6QThX33xaS4RyXnW6W5LXYY,0.014712100000001449
warteg putra bahari,4.7,6,-6.254445599999999,106.7951869,"jl. petogogan ii no.30a, rt.9/rw.5, pulo, kota jakarta selatan",ChIJe2cWC9bxaS4RVkwIlFDegZI,0.02771489999999055
warteg 12,0,0,-6.2456501,106.8154862,"gg. amal iv no.2, rt.1/rw.11, pela mampang, kota jakarta selatan",ChIJKZzQV2LxaS4RN0Z4QmRSX78,0.008665900000001336
warteg bangka 2,4.4,113,-6.2438636,106.819218,"jl. bangka ii no.rt.12, rt.12/rw.1, pela mampang, kota jakarta selatan",ChIJyzDruNjzaS4RBaMrsK3v6lU,0.010611200000012921
warteg della,4.3,3,-6.2298787,106.8214684,"jl. peltu rahmat sidup, rt.2/rw.2, karet semanggi, kota jakarta selatan",ChIJi1MQBuPzaS4RIoo3vQ60NW4,0.023133500000003693
warteg mini,0,0,-6.2434274,106.824083,"gg. h. mujimi no.60, rt.7/rw.6, mampang prpt., kota jakarta selatan",ChIJbxGTLxLzaS4RrhRkakxv8SE,0.015040000000007936
warteg prapanca,4.1,30,-6.256294,106.8048685,"jl. prapanca raya no.91, rt.9/rw.8, cipete utara, kota jakarta selatan",ChIJBbc-nXfxaS4RVBK2JIHWvPQ,0.019881699999998226
warteg jayabahari,4.1,41,-6.2484527,106.8227321,"jl. pd. jaya raya no.2, rt.9/rw.6, pela mampang, kota jakarta selatan",ChIJCxIlW9fzaS4RnOInyy0Jgpc,0.01871440000000213
warteg bahari h. abdul ghani,4.7,3,-6.2465945,106.823206,"6, jl. kh. marzuki ishaq no.7, rt.6/rw.3, tegal parang, kota jakarta selatan",ChIJNyjub13zaS4RphNs0TCmKW8,0.01733010000000501
warteg kowantara jaksel,5,1,-6.241513299999999,106.8177321,"jl. bangka raya no.1, rt.2/rw.5, pela mampang, kota jakarta selatan",ChIJz4Xl2GHxaS4RmiyEQ3wPx7U,0.007762600000004838
warteg mampang,5,3,-6.2481457,106.8276962,"jl. mampang prapatan viii no.14, rt.1/rw.2, tegal parang, kota jakarta selatan",ChIJFRdfcE3zaS4RRO1B9GXY9Zo,0.02337150000001209
warteg b9,4.5,44,-6.251925099999999,106.8212432,"jl. bangka ix, rt.7/rw.10, pela mampang, kota jakarta selatan",ChIJx2e4jNbzaS4RYh1aTTtZG2U,0.0206979000000036
warteg berkah jaya,0,0,-6.242133700000001,106.8201452,"jl. bangka i a no.18, rt.5/rw.9, pela mampang, jakarta",ChIJz3KxaWnzaS4RE3VmXvN8OeI,0.009808500000006326
warteg anindya,4.7,3,-6.2409514,106.8211758,"jl. pd. karya, rt.2/rw.9, pela mampang, kota jakarta selatan",ChIJ7caTMqbzaS4RK-zKmDq8XSk,0.011768200000009443
warteg slawiayu,5,1,-6.236124299999999,106.8157183,"blok s, jl. senayan, rt.5/rw.6, rw. bar., kota jakarta selatan",ChIJxxTspF_xaS4RSg0lD1RiMWA,0.011137800000004638
warteg kar1mah bahari,4.7,3,-6.260486299999999,106.8232763,"jl. kemang timur no.21, rt.5/rw.4, bangka, kota jakarta selatan",ChIJ-SQ7eSvyaS4RTa4L3WszsgE,0.031292200000009096
warteg panorama bahari,3.9,12,-6.2542138,106.7947083,"jl. petogogan ii no.40, rt.9/rw.5, petogogan, kota jakarta selatan",ChIJx80-Ra3xaS4RC4o2zH0fL1A,0.027961699999999645
warteg kirana bahari,4.5,24,-6.234984,106.818697,"jl. poncol jaya no.20, rt.9/rw.4, kuningan bar., kota jakarta selatan",ChIJt0NuzuHzaS4Rq7gif9mfGWs,0.015256800000003956
warteg putri barokah,5,3,-6.2466874,106.8289468,"jl. mampang prapatan vi, rt.8/rw.2, tegal parang, kota jakarta selatan",ChIJSalwt9rzaS4Rebe67f7j1XE,0.0231638000000034
warteg sederhana ayu,5,1,-6.2470232,106.8263803,"81,, jl. mampang prapatan v no.6, rt.2/rw.2, tegal parang, kota jakarta selatan",ChIJ7RORY9rzaS4RGhNui566lJs,0.020933100000003257
warteg 234,4.2,10,-6.2583754,106.82053,"warteg 234 no. 234, jalan. bungur dalam kemang utara, rt.1/rw.5, bangka, kota jakarta selatan",ChIJGRbq1CryaS4RLMvYTWYF13Q,0.026435000000011755
