nama_tempat,rating_tempat,user_ratings_total,latitude,longitude,alamat_tempat,place_id,distance
warteg bahari,4.3,8,-6.243084899999999,106.8036004,"rt.5/rw.2, melawai, kota jakarta selatan",ChIJnR10wNHxaS4RW1jJIolVFBg,0.02871689999999738
warteg bu turah,4.4,31,-6.2613799,106.802347,"jakarta selatan, rt.6/rw.2, cipete utara, kota jakarta selatan",ChIJIwFTrZ3xaS4R8yZkk2Jr6pU,0.0158928999999981
warteg mulya bahari,4.3,301,-6.2637941,106.7908567,"jl. h. nawi raya no.73, rt.6, gandaria utara, kota jakarta selatan",ChIJVZgWeqHxaS4RaoBtJDqp_zY,0.006816800000007284
warteg barokah,4.8,4,-6.247303899999999,106.7797712,"jl. bungur, rt.4/rw.1, kby. lama utara, kota jakarta selatan",ChIJwahg_BrxaS4RNRojSe6S7EQ,0.020758900000001468
warteg mamoka,4.5,191,-6.2719347,106.7965176,"pqhw+6jc, rt.1/rw.4, south gandaria, south jakarta city",ChIJQ-4iYQ3xaS4ROc90Y7wg3QQ,0.02061830000000242
warteg poncol,0,0,-6.2754759,106.7930573,"pqfv+r63, rt.3/rw.7, south gandaria, south jakarta city",ChIJ9XsywdPxaS4RH1wimCW4GR4,0.020699200000001916
warteg selaras bahari,4.7,3,-6.264349999999999,106.797745,"jl. nangka, rt.2/rw.5, cipete utara, kota jakarta selatan",ChIJ41bAP_jxaS4Rf50QI4ZoMsA,0.014261000000006518
warteg barokah,3.8,15,-6.258563,106.802274,"no 18, jalan kirai, rt.10/rw.4, cipete utara, kota jakarta selatan",ChIJK_7-mZ3xaS4RG3fPlGRAtKc,0.013002999999997655
warteg selera,4,1,-6.2610981,106.7910983,"jl. hidup baru no.30, rt.12/rw.3, gandaria utara, kota jakarta selatan",ChIJ1ZlaW6DxaS4Ro0zW8V-AUa0,0.004362400000002431
warteg jaya bahari,4.5,49,-6.2666981,106.8037732,"jl. abdul majid raya, rt.11/rw.7, cipete utara, kota jakarta selatan",ChIJPc4q_ZrxaS4Rnb65HJWKVAM,0.022637299999995975
warteg kharisma bahari,4.2,156,-6.2443246,106.7805457,"warteg kharisma bahari 18 jl.ciputat raya no.30 rt.03 rw.07, rt.3/rw.4, kby. lama utara, kota jakarta selatan",ChIJA4lMQyzxaS4RpfbgphsypcQ,0.022963699999994702
warteg mandiri,4.1,10,-6.266043,106.808127,"jl. duren tiga raya no.48, rt.4/rw.1, duren tiga, kota jakarta selatan",ChIJyyDNSszzaS4RNwTh3ojM5zc,0.026335999999999693
warteg zahra,4.2,17,-6.2524679,106.7945975,"jl. petogogan i no.20a, rt.1/rw.11, gandaria utara, kota jakarta selatan",ChIJkTt21XLxaS4RJPViggvKqAg,0.010330999999997204
warteg citrajaya bahari,4.1,12,-6.259934500000001,106.7962051,"jl. gotong royong i no.1, rt.4/rw.6, gandaria utara, kota jakarta selatan",ChIJ9fn8wp_xaS4Rnr_xEDKeXI0,0.00830559999999636
warteg selera,4.6,13,-6.260402999999999,106.7970268,"jl. rs. fatmawati raya no.1, rt.2/rw.1, cipete utara, kota jakarta selatan",ChIJzRY0eXXxaS4RDvXmGhnQD4Y,0.009595799999997823
warteg citra bahari,3.6,10,-6.253381,106.77607,"jalan bintaro raya tanah kusir, rt.2/rw.10, kebayoran lama selatan, kebayoran lama, rt.11/rw.10, kby. lama sel., kota jakarta selatan",ChIJo7yAjAPxaS4Rj1TMzLIGzlE,0.01838299999999471
warteg 46,5,2,-6.264237,106.7935285,"jl. h. nawi raya no.46a, rt.6/rw.2, gandaria sel., kota jakarta selatan",ChIJBYMb-KHxaS4RKc7vu-v5SVg,0.009931499999994209
warteg jaya bahari,4.4,23,-6.24587,106.7844251,"jl. taman gandaria, rt.9/rw.6, kby. lama utara, kota jakarta selatan",ChIJqwf67hDxaS4Rlz_dZoKL-fs,0.01753889999999192
warteg mamoka bahari,4.4,72,-6.266299699999999,106.7898497,"jl. madrasah no.5, rt.6/rw.1, gandaria sel., kota jakarta selatan",ChIJPxS216vxaS4RWxXpeHm7L1A,0.00831540000000519
warteg kharisma bahari 16,4.5,16,-6.260229799999999,106.7909705,"cilandak, jl. h. salim 1 no.3, rt.8/rw.10, gandaria utara, dki jakarta",ChIJDdcAxKDxaS4R_DT2xRvkiFk,0.0033663000000005994
warteg restu ibu,5,1,-6.270690699999999,106.7972883,"jl. rs. fatmawati raya no.234, rt.1/rw.4, gandaria sel., kota jakarta selatan",ChIJMe6GgpfxaS4RiahGZqvF6BA,0.02014500000000563
warteg indah jaya 2,4.4,75,-6.264345,106.7749519,"jl. ciputat raya, rt.6/rw.1, pd. pinang, kota jakarta selatan",ChIJ83kTjavxaS4RpJk1GwTlV28,0.021191699999992153
warteg mekar jaya (wmj),3,2,-6.270124,106.79727,"jl. rs. fatmawati raya no.8-1, rt.1/rw.4, gandaria sel., kota jakarta selatan",ChIJv83Pi4fxaS4R5cjVT7Qyq0U,0.019559999999998468
warteg rohmadi,0,0,-6.2671835,106.7942559,"jl. komp. depag no.19, rt.7/rw.3, gandaria sel., kota jakarta selatan",ChIJFemleJjxaS4RUI3pXCOhVdM,0.01360539999999677
warteg bowo,4.8,8,-6.241123,106.791073,"jl. tebah ii no.115, rt.14/rw.3, gunung, kota jakarta selatan",ChIJnft4VK_xaS4RDM-zRemp4Ss,0.018151399999999818
warteg annisa,3.5,2,-6.2705804,106.7962488,"jalan mangga nomor 8d, rt.4/rw.4, gandaria sel., kota jakarta selatan",ChIJ0TDKwGEfai4RQBj94PZtAUw,0.018995200000001766
warteg kharisma bahari,4.4,179,-6.260070100000001,106.8057715,"jl. h. jian no.32, rt.7/rw.3, cipete utara, kota jakarta selatan",ChIJx8p0Sp3xaS4R-_IldqY_PHc,0.018007600000007784
warteg 168,4,2,-6.263635499999999,106.7945404,"jl. h. nawi raya, rt.2/rw.7, gandaria utara, kota jakarta selatan",ChIJBW6EWZ_xaS4Roq_1K9LQ7ps,0.010341900000002013
warteg waluyo,4.2,11,-6.2599342,106.7845167,"jl. kopro banjir, rt.7/rw.11, kby. lama sel., kota jakarta selatan",ChIJ1Z8Ij6fxaS4Rw9PgmuWtJbs,0.0072160999999999476
wahyoo warteg sederhana,4.4,16,-6.2579637,106.7897662,"jl. minang kramat no.1b, rt.2/rw.14, gandaria utara, kota jakarta selatan",ChIJzzW9PwrxaS4RdKXd702mxKs,0.00010409999999616559
warteg idola,4.5,86,-6.2493022,106.7837738,"jl. bungur ii, rt.4/rw.2, kby. lama sel., dki jakarta",ChIJ75L4HhDxaS4RgYOwHHC9nog,0.014757999999993388
warteg kharisma bahari,5,8,-6.2677365,106.7967421,"jl. madrasah no.1a, rt.3/rw.3, gandaria sel., kota jakarta selatan",ChIJQ4JQ1Q_xaS4R_aKPjG7C_sQ,0.016644600000003784
warteg berkah,4.5,21,-6.2451104,106.7937817,"jalan barito, rt.3/rw.1, kramat pela, kota jakarta selatan",ChIJ_fAfNhPxaS4RO0NcipMGV5A,0.01687269999999952
warteg m j,4.4,15,-6.260880299999999,106.7888184,"jl. radio dalam raya no.88, rt.3/rw.11, gandaria utara, kota jakarta selatan",ChIJHQ3F06DxaS4R5gBp0MQxEnw,0.0038605000000000445
warteg niki 4,4.7,18,-6.274515,106.79789,"jl. rs. fatmawati raya, rt.14/rw.4, cipete sel., kota jakarta selatan",ChIJ3498KJTxaS4RcG5SKCjpSEk,0.024570999999996346
warteg kharisma,4.2,30,-6.270607999999999,106.795715,"samping philips, jl. mangga no.5, rt.5/rw.3, gandaria sel., kota jakarta selatan",ChIJo6qq6pfxaS4Rn4QKuHY7PCU,0.018489000000001532
warteg ben jaya,3.5,6,-6.2671015,106.7941082,"jl. madrasah no.4, rt.7/rw.3, gandaria sel., kota jakarta selatan",ChIJ8T2QgaLxaS4Rh4tD2TBG0Us,0.013375699999997437
warteg raji,4.3,4,-6.2583739,106.7824829,"jl. tanah kusir ii no.9, rt.3/rw11/rw.9, kby. lama sel., kota jakarta selatan",ChIJUT0qYJfxaS4RWNnA0Jb0FOI,0.0076895999999919695
warteg jippo,4.5,6,-6.257980799999999,106.8071943,"jl. anggur v, rt.3/rw.3, cipete utara, kota jakarta selatan",ChIJOSU7EnjxaS4R_IVdjn8r26A,0.017414900000010114
warteg cita rasa 3,4,9,-6.2638568,106.794299,"no. 051, jl. h. nawi raya, rt.7/rw.7, gandaria utara, kota jakarta selatan",ChIJLaE9Vp_xaS4RXEZZp3K0has,0.010321799999996273
warteg bahari,3.9,35,-6.268824599999999,106.7729791,"jl. h. naimun no.39, rt.11/rw.11, pd. pinang, kota jakarta selatan",ChIJia7LCK3xaS4RwjBhS0ggBdc,0.027644099999996286
warteg kharisma bahari,3.3,3,-6.243720400000001,106.7725298,"rt08/rw09, jl. peninggaran raya no.50, rt.8/rw.11, kby. lama utara, kota jakarta selatan",ChIJ-ynsJLDxaS4RaFG9NL6U46w,0.031583799999997275
warteg tono,3.9,32,-6.260771099999999,106.7853106,"jl. tanah kusir no.09, rt.10/rw.11, kby. lama sel., kota jakarta selatan",ChIJCcdCn6fxaS4RYkFXDuUBQXU,0.0072590999999935235
warteg kharisma bahari,4.4,206,-6.2582684,106.7932268,"jl. karya utama no.6, gandaria utara, kota jakarta selatan",ChIJx1eskX_xaS4R07OKpVGmurM,0.0036612000000006972
warteg makmu,5,1,-6.2416718,106.7800145,"jl. kh. mas'ud, rt.1/rw.1, cipulir, kota jakarta selatan",ChIJaVIkUxjxaS4RIeJt5SI2qTQ,0.026147700000006324
warteg kharisma bahari - kostrad,4.5,19,-6.2533197,106.7852406,"jl. darma putra raya jl. swadaya no.51, rt.9/rw.5, kby. lama sel., kota jakarta selatan",ChIJ78_ZKA_xaS4RjhU79awBWnI,0.009273700000004936
warteg putra bahari,4.7,6,-6.254445599999999,106.7951869,"jl. petogogan ii no.30a, rt.9/rw.5, pulo, kota jakarta selatan",ChIJe2cWC9bxaS4RVkwIlFDegZI,0.008942700000008408
warteg kharisma bahari,0,0,-6.264571,106.799726,"jl. abdul majid raya, rt.13/rw.2, cipete utara, kota jakarta selatan",ChIJNyMYqAPxaS4R7gNXNMCSNY4,0.016463000000007888
warteg murah meriah,4,5,-6.2668583,106.8019914,"jl. abdul majid raya no.30, rt.11/rw.2, cipete sel., kota jakarta selatan",ChIJYxvXSJrxaS4R-Sgik59q2Nk,0.021015700000006632
wahyoo warteg sebelah gg haji miad,4.8,10,-6.2667242,106.8040901,"jl. abdul majid raya no.3, rt.11/rw.7, cipete sel., kota jakarta selatan",ChIJuU9W4prxaS4Ry-10NNDr1Hk,0.022980299999996845
warteg slawi ayu,4.6,60,-6.2553325,106.7760395,"jl. johari no.1, rt.10/rw.10, kby. lama sel., kota jakarta selatan",ChIJdUouTgHxaS4RkjXb5A6rWb4,0.016462000000003307
warteg raji,4.6,5,-6.246399299999999,106.7845764,"jl. duku raya no.12, rt.9/rw.9, kby. lama utara, kota jakarta selatan",ChIJYSz1fBfxaS4Rc5smXxQqVBo,0.016858299999993775
warteg bendi jaya,4.2,181,-6.2529184,106.7735524,"jl. bendi raya no.15, rt.3/rw.10, kby. lama utara, kota jakarta selatan",ChIJt7N-TQLxaS4RNZXLjgEk-Ws,0.021363199999998805
wahyoo warteg indah jaya,0,0,-6.2704663,106.7751062,"rt.1/rw.12, pd. pinang, kota jakarta selatan",ChIJJboUev7xaS4ROqyM5lpv8rM,0.02715870000000109
warteg munawar,4.5,17,-6.2598405,106.7852074,"jl. dwijaya iv, rt.7/rw.11, kby. lama sel., kota jakarta selatan",ChIJ48rKg6fxaS4RdVX2uuxZPIQ,0.006431699999993157
warteg kharisma bahari 24,4.6,57,-6.260949399999999,106.796151,"jl. hidup baru, rt.9/rw.6, gandaria utara, kota jakarta selatan",ChIJuQHgkZ_xaS4RhJK7eLjYLoE,0.009266399999995123
warteg darmi,3,2,-6.2449431,106.7815609,"jl. gandaria kampung dukuh no. 35 rt 007%2frw 06 kebayoran lama selatan kebayoran lama jakarta selatan dki jakarta, rt.4/rw.4, kby. lama utara, kota jakarta selatan",ChIJg5RnEBrxaS4R_S05Fz9PDNU,0.021329999999996296
warteg prapanca,4.1,30,-6.256294,106.8048685,"jl. prapanca raya no.91, rt.9/rw.8, cipete utara, kota jakarta selatan",ChIJBbc-nXfxaS4RVBK2JIHWvPQ,0.016775900000000732
warteg langgeng jaya,5,1,-6.2669321,106.7924537,"jl. madrasah no.20a, rt.7/rw.1, gandaria sel., kota jakarta selatan",ChIJGWGvWKLxaS4RYSs6UNnMZ9I,0.011551799999996781
warteg kemenangan bahari,4.6,48,-6.242085899999999,106.7813601,"jl. makmur no.#27, rt.4/rw.3, kby. lama utara, kota jakarta selatan",ChIJc-KlwxnxaS4RC6Uj5Frx3RE,0.024387999999999188
