nama_tempat,rating_tempat,user_ratings_total,latitude,longitude,alamat_tempat,place_id,distance
warteg putrabahari,4.4,111,-6.229489999999999,106.7767754,"jl. cidodol raya, rt.3/rw.11, grogol sel., kota jakarta selatan",ChIJy6ta_CXxaS4RfydUlbQcTPk,0
warteg putrabahari,4.3,10,-6.2255729,106.7746448,"jl. assirot no.10, rt.5/rw.1, grogol sel., kota jakarta selatan",ChIJswjlEynxaS4R0HuT1w1sB2k,0
warteg sari mukti,0,0,-6.2256072,106.7738827,"jl. assirot no.5, rt.10/rw.3, grogol sel., kota jakarta selatan",ChIJE4SFDCnxaS4RbSE-vPZj2P4,0
warteg hello bahari,4.8,11,-6.225492999999999,106.7764421,"jl assirot no.12 rt006/01, rt.6/rw.1, grogol sel., kota jakarta selatan",ChIJDWlSt_fxaS4R0pO5s-a8zrs,0
warteg lestari 2,5,1,-6.2262694,106.7711516,"jalan h thohir rt 02 rw 04 no 51a kebon jeruk, rt.2/rw.4, sukabumi sel., dki jakarta",ChIJrY7Y4SnxaS4RwhUNDhDO_nw,0
warteg aneka pepea,0,0,-6.225209,106.7745769,"jl. assirot no.5, rt.5/rw.1, grogol sel., kota jakarta selatan",ChIJa4Qi-d_xaS4RRVRPQCo_tbY,0
warteg barokah pak rohkmani,0,0,-6.2264412,106.7697695,"jl. persatuan no.1, rt.1/rw.4, grogol sel., kota jakarta selatan",ChIJQ0TdC6LxaS4R6Uu_y40Y_ts,0
warteg sederhana,5,1,-6.2290871,106.7789612,"jl. raya kby. lama no.19, rt.4/rw.10, grogol sel., kota jakarta selatan",ChIJK7bBfkvxaS4RSj8BA7bN760,0
warteg kharisma bahari,0,0,-6.228973,106.771536,"jl. panjang cidodol no.2, rt.5/rw.13, sukabumi sel., kota jakarta selatan",ChIJacp_7OfxaS4Ru_0AAzvYeK4,0
warteg najwa/awa,5,1,-6.225598,106.7751535,"jl. assirot, rt.12/rw.1, grogol sel., kota jakarta selatan",ChIJ61ngPSnxaS4RPiAn6VizTQ0,0
warteg kowantara jaksel,4.8,21,-6.2299117,106.7789302,"jl. kebayoran lama raya rt 04/10 no 26 kebayoran lama jakarta selatan, rt.3/rw.11, grogol sel., kota jakarta selatan",ChIJpfYsmiXxaS4RDQajfPs9du4,0
warteg berkah merintis tanpa batas,4.4,11,-6.225582999999999,106.7798811,"jl. limo no.10, rt.1/rw.10, grogol sel., kota jakarta selatan",ChIJcRWrjC7xaS4RmkS4xghmzsU,0
warteg nabilah,4.2,36,-6.226505299999999,106.7689875,"jl. persatuan no.24a, rt.1/rw.7, grogol sel., kota jakarta selatan",ChIJu9zJS9bwaS4R3BhFKXsYi58,0
warteg 09,0,0,-6.229817499999999,106.7797899,"jl. raya kby. lama no.18cd, rt.4/rw.10, grogol sel., kota jakarta selatan",ChIJr0jAdiXxaS4R7QICv73mH0o,0
warteg surya kencana,4.4,101,-6.230512000000001,106.7718359,"jl. panjang cidodol no.15, rt.5/rw.13, grogol sel., kota jakarta selatan",ChIJNV_HlCfxaS4R0jAyY7YYX74,0
warteg cahaya,0,0,-6.2242006,106.7679458,"south sukabumi, west jakarta city",ChIJqYf21dXwaS4Rnsc3dJxpwUI,0
wahyoo warteg,0,0,-6.2189422,106.7787849,"north grogol, south jakarta city",ChIJ3WN40izxaS4RcmUdH9YDDDU,0
warteg sumber barokah,4.4,7,-6.2297937,106.745621,"rt.01/rw.007, north petukangan, south jakarta city",ChIJs6P3F_PxaS4RL4ALMicUL2s,0
warteg tasya,3.3,3,-6.22594,106.744173,"jl. h. mukhtar no.4, rt.12/rw.11, petukangan utara, kota jakarta selatan",ChIJjR4cYrbwaS4RZlME4CumzXE,0
warteg rizqi,5,2,-6.2289052,106.7444207,"jl. amd x, rt.9/rw.1, petukangan utara, kota jakarta selatan",ChIJY3I4n7fwaS4RrDJwQGQe33k,0
warteg restu bahari,5,1,-6.2274888,106.743362,"jl. amd x, rt.10/rw.1, petukangan utara, kota jakarta selatan",ChIJwyHL4rbwaS4Rw4pDtjJ3NiI,0
wahyoo warteg karomah,3.8,6,-6.226157,106.741394,"jalan muhtar raya # 81 a, rt.10/rw.1, petukangan utara, pesanggrahan, rt.10/rw.1, petukangan utara, kota jakarta selatan",ChIJKWmot7bwaS4RCIrsL08hGOU,0
warteg permata bahari,4.3,4,-6.23021,106.745658,"jalan haji mukhtar raya rt 05 rw 01, petukangan utara, pesanggrahan, rt.5/rw.1, petukangan utara, kota jakarta selatan",ChIJ5_ieH7jwaS4RGwADZE38lqA,0
warteg arsa bahari,0,0,-6.2258716,106.74536,"north petukangan, south jakarta city",ChIJFR5lbLbwaS4Rju9WUqx6Wsc,0
warteg kurnia jaya,0,0,-6.229502999999999,106.744491,"jl. amd x blok a 28 rt002/rw006, rt.7/rw.1, petukangan utara, kota jakarta selatan",ChIJkeZSkt7xaS4RBgbmJLfxyWg,0
warteg pojok,0,0,-6.225625,106.747326,"jl. h. muchtar raya no.27-21, rt.5/rw.11, petukangan utara, kota jakarta selatan",ChIJOdkU48nwaS4RM9meORPFy6A,0
warteg doyok,4.2,23,-6.2324582,106.7456602,"jl. h. sulaiman, rt.11/rw.1, petukangan utara, dki jakarta",ChIJuRzgwLjwaS4RefQz-5XZTCk,0
warteg sumber barokah,4.4,7,-6.2297937,106.745621,"rt.01/rw.007, north petukangan, south jakarta city",ChIJs6P3F_PxaS4RL4ALMicUL2s,0
warteg tasya,3.3,3,-6.22594,106.744173,"jl. h. mukhtar no.4, rt.12/rw.11, petukangan utara, kota jakarta selatan",ChIJjR4cYrbwaS4RZlME4CumzXE,0
warteg rizqi,5,2,-6.2289052,106.7444207,"jl. amd x, rt.9/rw.1, petukangan utara, kota jakarta selatan",ChIJY3I4n7fwaS4RrDJwQGQe33k,0
warteg restu bahari,5,1,-6.2274888,106.743362,"jl. amd x, rt.10/rw.1, petukangan utara, kota jakarta selatan",ChIJwyHL4rbwaS4Rw4pDtjJ3NiI,0
warteg pojok,0,0,-6.225625,106.747326,"jl. h. muchtar raya no.27-21, rt.5/rw.11, petukangan utara, kota jakarta selatan",ChIJOdkU48nwaS4RM9meORPFy6A,0
wahyoo warteg karomah,3.8,6,-6.226157,106.741394,"jalan muhtar raya # 81 a, rt.10/rw.1, petukangan utara, pesanggrahan, rt.10/rw.1, petukangan utara, kota jakarta selatan",ChIJKWmot7bwaS4RCIrsL08hGOU,0
warteg permata bahari,4.3,4,-6.23021,106.745658,"jalan haji mukhtar raya rt 05 rw 01, petukangan utara, pesanggrahan, rt.5/rw.1, petukangan utara, kota jakarta selatan",ChIJ5_ieH7jwaS4RGwADZE38lqA,0
warteg arsa bahari,0,0,-6.2258716,106.74536,"north petukangan, south jakarta city",ChIJFR5lbLbwaS4Rju9WUqx6Wsc,0
warteg kurnia jaya,0,0,-6.229502999999999,106.744491,"jl. amd x blok a 28 rt002/rw006, rt.7/rw.1, petukangan utara, kota jakarta selatan",ChIJkeZSkt7xaS4RBgbmJLfxyWg,0
warteg berkah,5,2,-6.2326267,106.7488403,"qp8x+wgw, rt.6/rw.2, north petukangan, south jakarta city",ChIJpfY6CsfwaS4RUbsp5U0qqVw,0
warteg riah 63,5,7,-6.2300169,106.7496836,"jl. amd manunggal v no.28, rt.6/rw.10, petukangan utara, kota jakarta selatan",ChIJV9MFaybxaS4RHWaHsKMcQT4,0
warteg mas wage,0,0,-6.2272044,106.7482778,"2, jl. pemuda no.42, rt.2/rw.11, petukangan utara, kota jakarta selatan",ChIJpd3fBUbxaS4RiZ8ILiolfoE,0
warteg citra bahari,3.6,10,-6.253381,106.77607,"jalan bintaro raya tanah kusir, rt.2/rw.10, kebayoran lama selatan, kebayoran lama, rt.11/rw.10, kby. lama sel., kota jakarta selatan",ChIJo7yAjAPxaS4Rj1TMzLIGzlE,0
warteg slawi ayu,4.6,60,-6.2553325,106.7760395,"jl. johari no.1, rt.10/rw.10, kby. lama sel., kota jakarta selatan",ChIJdUouTgHxaS4RkjXb5A6rWb4,0
warteg bendi jaya,4.2,181,-6.2529184,106.7735524,"jl. bendi raya no.15, rt.3/rw.10, kby. lama utara, kota jakarta selatan",ChIJt7N-TQLxaS4RNZXLjgEk-Ws,0
warteg abdul,0,0,-6.2573216,106.7754954,"jl. ismail blok ismail 4 no.25, rt.9/rw.10, kby. lama sel., kota jakarta selatan",ChIJy8jBfDfxaS4Rf83dogM-Kno,0
warteg barokah,4.8,4,-6.247303899999999,106.7797712,"jl. bungur, rt.4/rw.1, kby. lama utara, kota jakarta selatan",ChIJwahg_BrxaS4RNRojSe6S7EQ,0
warteg irma,0,0,-6.253249299999999,106.7778802,"jl. ciputat raya no.2, rt.11/rw.11, kby. lama utara, kota jakarta selatan",ChIJTe_1agTxaS4RTRdADsChwg4,0
warteg ainun jaya 1 - tanah kusir,4.3,17,-6.2549179,106.7776599,"jl. ciputat raya jl. tanah kusir no.47, rt.13/rw.1, kby. lama sel., kota jakarta selatan",ChIJFdYstSrxaS4RDR2FalWmrFE,0
warteg bahari,5,1,-6.2474397,106.7788875,"jl. ciputat raya no.321, rt.4/rw.1, kby. lama utara, kota jakarta selatan",ChIJVbkZBRvxaS4RUROZvIFxQRw,0
warteg kowantara banten,4,2,-6.2580538,106.7774059,"jl. ciputat raya, rt.4/rw.10, kby. lama sel., kota jakarta selatan",ChIJiQc7OgfxaS4RjV7EuovH5dI,0
warteg jaya,4.4,8,-6.2552173,106.7675455,"jl. masjid al muflihun no.3, rt.3/rw.10, bintaro, kota jakarta selatan",ChIJ-R4lh_7waS4RjiHPWe-xzQA,0
warteg portugal,4.2,17,-6.2580774,106.7773531,"jl. ciputat raya, rt.4/rw.10, kby. lama sel., kota jakarta selatan",ChIJ93oZOgfxaS4RPF6_rk3M1P4,0
warteg mardo tillah,4.1,7,-6.24794,106.7783921,"jl. ciputat raya, rt.2/rw.10, kby. lama utara, kota jakarta selatan",ChIJNbVKPxvxaS4RG5wcTLAfo54,0
