nama_tempat,rating_tempat,user_ratings_total,latitude,longitude,alamat_tempat,place_id,distance
warteg tegal arum,4.5,31,-6.3034449,106.84664540000001,"5, jl. nangka raya no.6, rt.6/rw.5, tj. bar., kota jakarta selatan",ChIJj3L4B4ztaS4R3YjJzdhwTA0,0.006091099999998129
warteg jembatan,0.0,0,-6.3062733,106.83722649999999,"jl. baung no.25 rt 03/01, rt.1/rw.1, lenteng agung, kota jakarta selatan",ChIJF75z3mntaS4RiXahXmyzO-Y,0.013441199999998156
warteg barokah,3.8,5,-6.300972199999999,106.84951840000001,"jl. poltangan raya no.25, rt.4/rw.5, tj. bar., kota jakarta selatan",ChIJN8FmqIntaS4RmhUOj2TnJSM,0.005690800000005325
warteg panorama bahari,4.0,5,-6.3022196,106.8591706,"mvx5+4m7, rt.6/rw.1, gedong, east jakarta city",ChIJ2yTRTIHtaS4RlG0cuV3Iiec,0.012556600000000806
warteg barokah,4.5,8,-6.292517500000001,106.8401126,"komplek batan, jl. raya rawa bambu no.b7, rt07/rw03, pasar minggu, rt.6/rw.6, ps. minggu, kota jakarta selatan",ChIJlUGTkLUI7S0RZ-bGjVZZA50,0.023551300000000275
warteg jaya bahari,4.7,18,-6.303327400000001,106.8492645,"jl. poltangan raya no.60, rt.6/rw.4, tj. bar., kota jakarta selatan",ChIJcZM_AAnzaS4RO6oIxlxsFIo,0.003589499999994139
warteg tiara,0.0,0,-6.303119000000001,106.84791570000002,"jl. nangka raya, rt.6/rw.5, tj. bar., kota jakarta selatan",ChIJR6IuUontaS4RzMZoozSopso,0.005146699999996507
warteg berkah,0.0,0,-6.295611099999999,106.8455165,"east pejaten, south jakarta city",ChIJadWIS3TyaS4RQ8fNJdwz59A,0.015053799999996897
warteg cappucino cincau,3.0,1,-6.3229397,106.830514,"jl. joe klp. tiga no.33, rt.1/rw.3, lenteng agung, kota jakarta selatan",ChIJq2dS-DPtaS4RzdsscwOisk8,0.0
warteg bunda nugi,5.0,1,-6.3143452999999985,106.83814009999999,"jl. raya tj. barat, rt.1/rw.2, lenteng agung, kota jakarta selatan",ChIJq7b2g-vtaS4Rd7zVTXZ99oE,0.0
warteg dm 45,4.4,25,-6.3208913,106.8358179,"jl. raya lenteng agung, rt.11/rw.1, lenteng agung, kota jakarta selatan",ChIJb4kiicHtaS4ReFbrxenjSV8,0.0
warteg lagun rayana,5.0,1,-6.3239804,106.8370068,"jl. buntu no.i, rt.9/rw.2, lenteng agung, kota jakarta selatan",ChIJdYr1NcHtaS4R3FpCRmx-XzM,0.0
warteg pak de,4.8,4,-6.2900315,106.8274773,"jl. nurul iman no.101, rt.6/rw.3, jati padang, kota jakarta selatan",ChIJufApkBLzaS4R_E25Ero3ni4,0.0
warteg barokah,4.2,6,-6.2864494,106.82604340000002,"kompleks bri, jl. warung jati barat no.20, rt.6/rw.5, jati padang, kota jakarta selatan",ChIJb8u_BxvyaS4RUqurz7FUx6Q,0.0
warteg kharisma bahari kebagusan,4.3,3,-6.2976372000000005,106.8264675,"jl. kebagusan raya no.7, rt.5/rw.1, kebagusan, kota jakarta selatan",ChIJEwvIjpTzaS4RTRi0oWSVX9Y,0.0
warteg subur jaya 2,4.0,3,-6.29927,106.83647490000001,"jl. tlk. mandar no.25, rt.3/rw.8, ps. minggu, kota jakarta selatan",ChIJHbzN8fXtaS4RRmPOEu2Fr8Y,0.0
warteg istiqomah,0.0,0,-6.300458900000001,106.8258892,"jl. kebagusan raya no.42, rt.1/rw.7, kebagusan, kota jakarta selatan",ChIJSbn4-_jtaS4RErFfvlzZTRE,0.0
warteg gilar gilar,5.0,1,-6.2986051,106.8400518,"komplek tni al, no. c, kota jkt sel.,, jl. raya tengah no.12, rt.4/rw.8, ps. minggu, kota jakarta selatan",ChIJM9wZXhntaS4RJJvF0-kTGEM,0.0
warteg 3m,4.2,14,-6.300946400000001,106.83208959999999,"jl. kebagusan i no.1, rt.2/rw.1, kebagusan, kota jakarta selatan",ChIJLax7qfftaS4R6iJZiyg2Ok4,0.0
makmur restaurant,4.4,51,-6.287111899999998,106.825406,"jl. taman margasatwa raya no.16, rt.4/rw.11, ragunan, kota jakarta selatan",ChIJ45sNFRvyaS4ROMnssJC0o4w,0.0
warteg tiga putri,5.0,1,-6.298569899999999,106.84008770000001,"jalan rawa bambu kompleks tni al no. 12, rt.4/rw.8, ps. minggu, kota jakarta selatan",ChIJwVkksVftaS4RJ38NU3ki9lc,0.0
warteg gabus raya,4.9,20,-6.2991106000000014,106.8361364,"jl. gabus raya no.5, rt.5/rw.9, ps. minggu, kota jakarta selatan",ChIJM4M--vXtaS4R0Fj_tkXBVJA,0.0
warteg khalimah baru,4.0,2,-6.285267299999999,106.82616580000001,"jl. warung jati barat no.7, rt.3/rw.11, ragunan, kota jakarta selatan",ChIJu4i9zRvyaS4R-1xT8Fi6L9Q,0.0
warteg moro tresno,4.6,12,-6.3007599,106.83059779999999,"jl. kebagusan i no.17, rt.6/rw.1, kebagusan, kota jakarta selatan",ChIJm3A8mvftaS4RdUo9AfG6Ktw,0.0
warteg ayu,0.0,0,-6.300854900000001,106.84092279999999,"jl. tj. bar. lama no.3, rt.3/rw.4, tj. bar., kota jakarta selatan",ChIJpeV8KfXtaS4RC0mPqms3368,0.0
warteg palapa,0.0,0,-6.290949700000001,106.8417544,"jl. palapa timur xi, rt.6/rw.5, ps. minggu, kota jakarta selatan",ChIJ_0KLtEPzaS4RnGrTMo0I2No,0.0
"warteg sabrina_enak,murah,ramah",4.0,1,-6.3007271,106.8321597,"no., jl. kebagusan i no.1, rt.2/rw.1, kebagusan, kota jakarta selatan",ChIJI5YpqfftaS4Rtpw35hnrRK8,0.0
warteg raos eco,4.7,3,-6.301341000000001,106.82633999999999,"jl. kebagusan raya no.rt.8, rt.8/rw.7, ragunan, kota jakarta selatan",ChIJD3b3-_jtaS4RPyoD2caa1Ms,0.0
warteg bahari,4.2,6,-6.2852668,106.84163500000001,"jl. raya ragunan, rt.1/rw.2, ps. minggu, kota jakarta selatan",ChIJOfz10mzyaS4RiCu-WVPEYlk,0.0
warteg husnimubarokah,5.0,5,-6.2926468999999985,106.8424568,"jl. raya tj. barat no.21-18, rt.9/rw.7, pejaten tim., kota jakarta selatan",ChIJXf-_tdPzaS4RLA3G6DtLSR8,0.0
warteg berkah 354,4.5,15,-6.2857078,106.8403001,"jl. raya ragunan, rt.9/rw.4, ps. minggu, kota jakarta selatan",ChIJizyxIBPyaS4RqWqsZLgv_Sc,0.0
warteg pakde,4.5,4,-6.2857987999999985,106.83266809999999,"jl. sebret no.5, rt.5/rw.7, jati padang, kota jakarta selatan",ChIJwX_mARHyaS4Ra-dlOKYby4k,0.0
warteg ibu saroh,4.5,36,-6.2929705,106.83354440000001,"pr4m+rc7, rt.11/rw.6, jati padang, south jakarta city",ChIJU_yaxQ7yaS4RCS3YHajblLY,0.0
warteg diyanah,4.1,48,-6.2954222999999985,106.84149120000001,"jl. poltangan raya no.6, rt.1/rw.10, pejaten tim., kota jakarta selatan",ChIJdaDQ0nTyaS4Rn0FNmWAE7NE,0.0
warteg yanti bahari,5.0,5,-6.2945212,106.83828090000002,"gg. h. umaidi no.3, rt.2/rw.7, ps. minggu, kota jakarta selatan",ChIJ92-YfHzzaS4RtsID77MIxPg,0.0
warteg bahari,4.1,22,-6.2905609999999985,106.836156,"jl aup raya no.19, rt.6/rw.10, ps. minggu, kota jakarta selatan",ChIJHblQxA3yaS4Rvybbh0_ayWo,0.0
wahyoo warteg sederhana ii,0.0,0,-6.2860033999999985,106.8299939,"jl. raya ragunan no.15, rt.2/rw.7, ps. minggu, kota jakarta selatan",ChIJwRa-K4zzaS4RM1ikSMd2MkI,0.0
warteg umi halal tanpa buto ijo ( warteg utama disini di kontrakan),5.0,4,-6.2910033,106.8418023,"jl. palapa xi no.1, rt.6/rw.5, ps. minggu, kota jakarta selatan",ChIJ11fNvKLzaS4R9qg8dw9_pyU,0.0
warteg moncer loro,4.5,39,-6.295261900000001,106.84202320000001,"jl. poltangan raya no.1, rt.2/rw.10, pejaten tim., kota jakarta selatan",ChIJHTyN4XTyaS4R_zH1dHfYa0k,0.0
warteg nusantara bahari,4.7,9,-6.2858082,106.8298345,"jl. raya ragunan no.14 c, rt.2/rw.7, jati padang, kota jakarta selatan",ChIJGRTggBDyaS4RiJXSoWYWRag,0.0
warteg ben jaya,4.3,20,-6.297173799999999,106.8402318,"komplek batan, no. 18, jl. raya rw. bambu, rt.7/rw.7, ps. minggu, kota jakarta selatan",ChIJBYrpwAryaS4RvJgYfb-2lGQ,0.0
warteg jaya bahari,0.0,0,-6.2959948,106.84326159999999,"jl. poltangan raya no.1 a, rt.2/rw.10, pejaten tim., kota jakarta selatan",ChIJy_N0xnvzaS4RXmfV8zt6FW0,0.0
warteg blimbing,4.4,5,-6.2890766,106.82902140000002,"pr6h+9j6, rt.7/rw.3, jati padang, south jakarta city",ChIJu92WUQXyaS4RLrjfDCodW6E,0.0
warteg salihara jaya,0.0,0,-6.2836773,106.83797379999999,"jl. salihara no.4, rt.1/rw.1, jati padang, kota jakarta selatan",ChIJv-WeJvrzaS4RfXSsnFri7Ow,0.0
warteg,5.0,1,-6.292024700000001,106.82883909999998,"jl. raya jatipadang, rt.6/rw.9, jati padang, kota jakarta selatan",ChIJt-IwkAXyaS4RwooxjP6ylBg,0.0
warteg mase,0.0,0,-6.291836900000001,106.8364509,"jl. aup no.2, rt.4/rw.10, ps. minggu, kota jakarta selatan",ChIJtbnq-ejzaS4RZZrhzuiakdY,0.0
wahyoo warteg sinar tegal,5.0,3,-6.2853268999999985,106.839262,"jl. raya ragunan no.54, rt.12/rw.3, ps. minggu, kota jakarta selatan",ChIJCxP0GhPyaS4Rp143ya9oUdY,0.0
warteg dias berkah,5.0,4,-6.294495700000001,106.8279519,"jl. raya jatipadang no.17, rt.6/rw.4, jati padang, south jakarta city",ChIJu4VLunPzaS4RhNVyuGE4hao,0.0
warteg saro jame,5.0,1,-6.2833741,106.8380199,"jl. salihara no.11, rt.1/rw.3, ps. minggu, kota jakarta selatan",ChIJF_zcZhTyaS4RwB4acB3ajWg,0.0
warteg sumber rejeki,5.0,1,-6.283827199999998,106.84410459999998,"terminal pasar minggu jalan raya pasar minggu no. 30 pasar minggu, rt.4/rw.1, ps. minggu, kota jakarta selatan",ChIJb9qSYCvzaS4RiqBMRxBOCtM,0.0
sudi mampir warteg,0.0,0,-6.298184699999998,106.84043989999999,"rt.7/rw.7, west tanjung, south jakarta city",ChIJg8k8pAryaS4R3qDIBEVvOp4,0.0
warteg feri,5.0,1,-6.2877649999999985,106.84333840000001,"jl. pertanian iii, rt.1/rw.5, ps. minggu, kota jakarta selatan",ChIJp3gwZG3yaS4RESV94eNhnZw,0.0
warteg kharisi,4.4,10,-6.283484,106.84424750000001,"jl. raya pasar minggu no.51, rt.2/rw.1, ps. minggu, kota jakarta selatan",ChIJ1Tygh2zyaS4Ryn9K-LsJmfw,0.0
warteg sari rasa,0.0,0,-6.296073000000001,106.84402079999998,"jl. poltangan raya no.27, rt.3/rw.10, pejaten tim., kota jakarta selatan",ChIJ1zkoA3XyaS4RKakzMcb_cG4,0.0
warteg kharunia bahari,0.0,0,-6.2821150999999995,106.838424,"1, jl. salihara no.17, rt.1/rw.10, jati padang, south jakarta city",ChIJ2_HwBCDzaS4RFFXc-0LW78s,0.0
warteg syafaat,4.6,11,-6.2838223,106.83791809999998,"jl. salihara no.2, rt.1/rw.1, jati padang, kota jakarta selatan",ChIJs9n8LbjzaS4RgoVp2Cld8v8,0.0
warteg hj. sopia,0.0,0,-6.297298199999998,106.8401314,"pr3r+33j, rt.7/rw.7, pasar minggu, south jakarta city",ChIJcdmDvwryaS4RSpiIAKS574Q,0.0
warteg,5.0,2,-6.308921,106.84731409999998,"jl. langgar, rt.1/rw.6, tj. bar., kota jakarta selatan",ChIJU-3U-43taS4RdEk-aE_u_wA,0.029786000000001426
warteg 53,5.0,1,-6.3089986,106.8270929,"jl. kebagusan raya, rt.1/rw.6, kebagusan, kota jakarta selatan",ChIJZ3iO0_rtaS4Rd6rPh0DKzL8,0.02352160000000669
warteg ibrajaya2,5.0,2,-6.3265585,106.85247120000001,"mvf2+9xh, rt.3/rw.9, baru, east jakarta city",ChIJEfPk2brtaS4RRvRkV8Bclw8,0.019416599999993345
warteg slawi,5.0,1,-6.310279799999999,106.84684170000001,"jl. h. nawi no.27, rt.2/rw.6, tj. bar., kota jakarta selatan",ChIJpXVFJJLtaS4R35BpKRybAH8,0.027954799999994503
warteg cahaya berkah,4.2,10,-6.3125426,106.846575,"mrpw+xjp, rt.7/rw.6, west tanjung, south jakarta city",ChIJEb_9wULtaS4ROQ_2IiQYmnM,0.02542529999999754
warteg elis,4.5,39,-6.321472699999998,106.83662290000001,"jl. lenteng agung raya no.33b, rt.7/rw.2, lenteng agung, kota jakarta selatan",ChIJo-iW5L7taS4RBLcsK8ImS8Q,0.006543099999991142
warteg jaya,0.0,0,-6.306342,106.8208922,"jl. saco 1 no.12, rt.6/rw.7, ragunan, kota jakarta selatan",ChIJ44joUvztaS4RTnG_i6RBO3c,0.0
warteg asli,4.4,5,-6.3012311,106.82139620000001,"jl. harsono rm no.4, rt.4/rw.7, ragunan, kota jakarta selatan",ChIJNQYRBf_taS4RXOd3dpbTlgk,0.0
warteg memori,0.0,0,-6.3072284000000005,106.8167173,"jl. saco ragunan, rt.10/rw.8, ragunan, kota jakarta selatan",ChIJBfKengfuaS4R3YwTd76RQgU,0.0
warteg baru,4.2,52,-6.306978,106.81671399999999,"jl. saco ragunan no.96, rt.10/rw.8, ragunan, kota jakarta selatan",ChIJE5KA-4bvaS4RX085812pVWg,0.0
warteg sakinah,5.0,1,-6.306642,106.81401969999999,"jl. raya cilandak kko, rt.14/rw.5, ragunan, kota jakarta selatan",ChIJXeOV8AbuaS4RiEBZOI5Epgc,0.0
warteg bahtiar,5.0,1,-6.302946400000001,106.8209253,"jl. harsono rm, rt.8/rw.4, ragunan, kota jakarta selatan",ChIJd14Kzf3taS4R-QUTJX4Ohe4,0.0
warteg resa,4.2,5,-6.307239,106.8139324,"jl. raya cilandak kko, rt.2/rw.7, ragunan, kota jakarta selatan",ChIJjWD8WAbuaS4RtyfwcnikgPM,0.0
warteg kutilang,4.0,15,-6.3017788,106.8141985,"jl. raya cilandak kko no.42, rt.1/rw.8, ragunan, kota jakarta selatan",ChIJCyDeqQHuaS4RlkDAlsYsXY4,0.0
warteg sukasari ragunan,4.5,14,-6.3032897000000006,106.8209314,"jalan harsono rm samping, gg hj.noin no.8, rt.8/rw.4, ragunan, kota jakarta selatan",ChIJI2B4jP7taS4Rw_MtxpMnvWg,0.0
warteg kowantara jaksel,0.0,0,-6.305208500000001,106.8191955,"08, jl. saco no.13, rt.1/rw.4, ragunan, kota jakarta selatan",ChIJQSS66f3taS4RJH1N0j_kTXc,0.0
warteg gaul (randy),0.0,0,-6.3057143999999985,106.81613859999999,"jl. saco, rt.8/rw.8, ragunan, kota jakarta selatan",ChIJGw0vPgfuaS4RwaYcc3i1POw,0.0
warteg nur hikmah,4.0,1,-6.301049600000002,106.81460929999999,"jl. raya cilandak kko, rt.13/rw.5, ragunan, kota jakarta selatan",ChIJO9XpswHuaS4RjQrzMM0SY5Y,0.0
warteg mangga,0.0,0,-6.3047979000000005,106.8207808,"ragunan, south jakarta city",ChIJpxnV0v3taS4RMhcpCpXLTFo,0.0
warteg sarini,0.0,0,-6.303285,106.820884,"jl. harsono rm no.8, rt.8/rw.4, ragunan, kota jakarta selatan",ChIJ_xE-iv7taS4RQBliWeojPLg,0.0
warteg danti,0.0,0,-6.302419599999999,106.8144034,"jl. raya cilandak kko no.5, rt.1/rw.5, ragunan, kota jakarta selatan",ChIJh_dbBAHuaS4RMyPMT22f9bI,0.0
warteg sarini,4.8,4,-6.3055045,106.8205492,"jl. harsono rm, rt.2/rw.4, ragunan, kota jakarta selatan",ChIJrcdGyv3taS4RS5LOFKDSXuE,0.0
warteg kali restu,4.4,18,-6.300179,106.8212584,"jl. harsono rm no.4, rt.4/rw.7, ragunan, kota jakarta selatan",ChIJGazCc__taS4RMgJi_zm4ZH4,0.0
warteg mamoka bahari 66,4.3,9,-6.302408199999999,106.8143828,"jl. raya cilandak kko no.5, rt.1/rw.8, ragunan, kota jakarta selatan",ChIJu-dylUvvaS4RM_28fusffmo,0.0
warteg emak,0.0,0,-6.2990248,106.8212462,"jl. harsono rm no.5, rt.5/rw.7, ragunan, kota jakarta selatan",ChIJ1US9YxjzaS4R_8hiNv0ytK8,0.0
warteg bahari sedia soto ayam,0.0,0,-6.3335637999999985,106.8280882,"jl. jeruk raya no.67, rt.12/rw.1, jagakarsa, kota jakarta selatan",ChIJ14lZldHtaS4R6NMDRXaVyvE,0.0
warteg putra,0.0,0,-6.324612000000001,106.81145,"gang # 2 jalan muhamad kafi 1 jagakarsa, ceremai blok cermai no.7, rt.1/rw.4, jagakarsa, dki jakarta",ChIJafA0-nPuaS4Rqv1ixxwhKwU,0.012062599999999256
warteg,2.0,2,-6.318125999999999,106.83445449999999,"jl. joe no.28, rt.7/rw.8, kebagusan, kota jakarta selatan",ChIJl4t07OntaS4Ruw0ty4y32js,0.022878100000013116
warteg iffa,4.6,18,-6.3118728,106.81301979999999,"jl. moh. kahfi 1 no.6, rt.2/rw.6, jagakarsa, kota jakarta selatan",ChIJjV7t2wjuaS4R3vakJG9toeE,0.02323199999998771
warteg imam,5.0,2,-6.3105538,106.815925,"jl. raya cilandak kko no.28, rt.14/rw.8, ragunan, kota jakarta selatan",ChIJlVbUbgjuaS4RBAVy3n3vuKI,0.021645800000000825
warteg helmi jaya,4.1,16,-6.3169,106.811675,"# jagakarsa, jl. moh. kahfi 1 no.7, rt.1/rw.6, jagakarsa, kota jakarta selatan",ChIJYyyZeQzuaS4RMuuYfzI4nhE,0.0195495999999995
warteg ojo lali cilandak,4.6,68,-6.310656400000001,106.8134351,"jl. margasatwa, rt.1/rw.6, jagakarsa, kota jakarta selatan",ChIJ73z5lQjuaS4Re-XgIblPmRM,0.024033099999986263
warteg hikmah,0.0,0,-6.320214599999999,106.81072350000001,"jl. moh. kahfi 1, rt.3/rw.4, jagakarsa, kota jakarta selatan",ChIJPZm-S3PuaS4RxXp1GC-8yro,0.017186499999999327
warteg kharisma bahari,4.3,3,-6.310971899999998,106.81347579999999,"jl. margasatwa bar. no.6, rt.6/rw.6, jagakarsa, kota jakarta selatan",ChIJKf6IDyjvaS4R29bnWOziC44,0.023676899999988343
warteg kharisma,5.0,1,-6.3226055,106.8112879,"jl. moh. kahfi 1 no.94, rt.8/rw.4, jagakarsa, kota jakarta selatan",ChIJWci_gnPuaS4RKiG5boiFGPs,0.014231199999997557
warteg pemalang,4.6,14,-6.3112659,106.8088413,"jl. margasatwa no.49, rt.1/rw.7, pd. labu, kota jakarta selatan",ChIJwb2SAMbvaS4RYdRGroSlcd0,0.028017399999995973
warteg berkah jaya,0.0,0,-6.3488039,106.79582350000001,"jl. aselih raya, rt.10/rw.1, cipedak, kota jakarta selatan",ChIJMXIKH43uaS4RcExiMWQXLgU,0.0
warteg subsidi bahari (brigif),4.5,21,-6.34417,106.801725,"jl. brigif no.15, rw.1, cipedak, kota jakarta selatan",ChIJd9qZ6SvvaS4Rb5a45_mOGik,0.0
warteg kharisma bahari,5.0,1,-6.350861099999999,106.80166609999999,"jl. moh. kahfi 1 no.32, rt.6/rw.1, cipedak, kota jakarta selatan",ChIJ7zWYA97vaS4RdTPmuGMTOnw,0.0
warteg bahari soto ayam,0.0,0,-6.3516654,106.80025090000001,"jl. aselih, rt.7/rw.1, cipedak, kota jakarta selatan",ChIJiZ0j-JHuaS4Rb3QUIvC05xg,0.0
warteg etja kallan,0.0,0,-6.3483151,106.80190459999999,"jl. moh. kahfi 1 no.2a, rt.5/rw.1, cipedak, kota jakarta selatan",ChIJp9PS9Y7uaS4RH3Igt1DhpsQ,0.0
warteg bahari,4.2,46,-6.3048807999999985,106.8400362,"jalan raya tanjung barat, rt.10/rw.4, tj. bar., kota jakarta selatan",ChIJ6b27QfPtaS4RC8dUftNkMY0,0.0
warteg berkah,4.6,42,-6.3048426,106.83368329999999,"jl. baung, rt.6/rw.2, kebagusan, kota jakarta selatan",ChIJS4H_O_HtaS4R9pQfTKgRCFI,0.0
warteg berkah,0.0,0,-6.309505799999998,106.83598870000002,"gg. langgar no.4, rt.4/rw.3, kebagusan, kota jakarta selatan",ChIJ4QfPgfDtaS4R4lMm1yCNORs,0.0
warteg mustikasari,5.0,1,-6.306267900000001,106.83059329999999,"jl. kebagusan raya no.9, rt.1/rw.7, ragunan, kota jakarta selatan",ChIJ4c6BvGXtaS4RJ0S5Mxp1mRU,0.0
warteg sumber rezeky,4.6,21,-6.306295099999999,106.83726090000002,"jl. baung no.25, rt.1/rw.1, agung, jagakarsa, kota jakarta selatan",ChIJc4VzS_LtaS4Rr8NjkGQp_yU,0.0
berkah cafe 24h,4.6,43,-6.3066685,106.83854070000001,"jl. baung no.42, rt.3/rw.1, lenteng agung, kota jakarta selatan",ChIJg2iY-8ztaS4RurLjKN5mHQk,0.0
warteg putri,3.0,1,-6.302890199999998,106.8415205,"no. 19 c, jl. tb simatupang, rt.10/rw.4, tj. bar., kota jakarta selatan",ChIJ3xrZUYvtaS4RhQu4uT-vTnQ,0.0
warteg,4.9,13,-6.3120734,106.8387784,"jl. tj. barat selatan gg. 100, rt.1/rw.2, tj. bar., kota jakarta selatan",ChIJqTxD9-ztaS4RSYz9rBTWghI,0.0
warteg barokah,0.0,0,-6.3143061,106.8365696,"jl. raya lenteng agung no.35, rt.5/rw.1, lenteng agung, kota jakarta selatan",ChIJt3HE8H7taS4R1LZMrj2XmE0,0.0
warteg restu ibu new,5.0,4,-6.305111599999999,106.8391281,"jl. lenteng agung raya, rt.6/rw.8, ps. minggu, kota jakarta selatan",ChIJRwPKxXvtaS4RY36uKI5C0bc,0.0
warteg lumintu nikmat berkhasia,0.0,0,-6.305610700000001,106.8396168,"jl. raya tj. barat no.172b, rt.10/rw.4, tj. bar., kota jakarta selatan",ChIJEcjQFfPtaS4RAzCGVezGuY8,0.0
warteg rizky amd,0.0,0,-6.305013900000001,106.838303,"jl. amd viii no.22a, rt.10/rw.1, lenteng agung, kota jakarta selatan",ChIJ0dDBrPDtaS4Rx46rv5WO4ew,0.0
warteg kharisma bahari,0.0,0,-6.3042798,106.8397581,"jl. tj. mas utama, rt.2/rw.1, tj. bar., kota jakarta selatan",ChIJc8_FkcftaS4RntcfGsAV5Bo,0.0
warteg ikhlas,3.0,2,-6.3079158,106.8318543,"kebagusan, south jakarta city",ChIJQzjVOfDtaS4RgkpT57X9td0,0.0
warteg caca,5.0,1,-6.3096470999999985,106.8307612,"jl. siman enor no.14a, rt.2/rw.5, kebagusan, kota jakarta selatan",ChIJwYra5e_taS4RXSXz5jS9xWQ,0.0
warteg sida abadi,4.4,7,-6.3054546999999985,106.83969840000002,"jl. raya tj. barat no.172, rt.10/rw.4, tj. bar., kota jakarta selatan",ChIJ32tvwf7taS4R7u97nqwm42A,0.0
warteg fajar jaya,5.0,2,-6.3066765,106.8386822,"jl. baung no.30a, rt.3/rw.1, lenteng agung, kota jakarta selatan",ChIJ38cl_r3taS4ROGHU2j5cL4k,0.0
warteg nj,3.7,3,-6.3044585999999985,106.844214,"jl. nangka raya no.3, rt.8/rw.5, tj. bar., kota jakarta selatan",ChIJj8IzioztaS4RsOKFJaJJI58,0.0
warteg rizki,0.0,0,-6.3053658000000015,106.84411680000001,"jl. langgar, rt.12/rw.8, tj. bar., kota jakarta selatan",ChIJO7Ht-YztaS4RZcW-nlSyDEk,0.0
eza warteg,0.0,0,-6.302631099999999,106.83217309999999,"jl. assakinah i, rt.9/rw.2, kebagusan, kota jakarta selatan",ChIJ416vGPftaS4RowIXtqwyr1s,0.0
warteg fitri,4.4,18,-6.301984,106.8412179,"jl. tj. bar. lama no.137, rt.10/rw.4, tj. bar., kota jakarta selatan",ChIJ77JlzPTtaS4RXklqFs6il7Q,0.0
warteg kowantara jaksel,3.4,9,-6.303653,106.829348,"jl. kebagusan besar no.1, rt.10/rw.7, kebagusan, kota jakarta selatan",ChIJv_QW_PntaS4ROq71uGXpDTs,0.0
warteg kharisma bahari,0.0,0,-6.3145114,106.8444396,"jl. tj. barat selatan, rt.7/rw.1, tj. bar., kota jakarta selatan",ChIJDeT7J8_taS4RGqupW_H0uKk,0.0
warteg citra brebes,0.0,0,-6.316599999999998,106.8372513,"jl. lenteng agung raya, rt.6/rw.1, lenteng agung, kota jakarta selatan",ChIJJ5A6S-rtaS4RQi7OJaQlvZY,0.0
warteg zahirah,0.0,0,-6.3069561,106.82767109999999,"jl. kebagusan raya no.9, rt.9/rw.7, kebagusan, kota jakarta selatan",ChIJ4wp88OTtaS4RcZA-oqTIObg,0.0
warteg elis,0.0,0,-6.301507599999999,106.84025249999999,"mrxr+94r, rt.3/rw.4, west tanjung, south jakarta city",ChIJCyYV3PTtaS4RbBU7iv2VkiU,0.0
warteg patung macan,4.8,12,-6.302519599999999,106.83727879999999,"lenteng agung barat, rt.9/rw.1, lenteng agung, kota jakarta selatan",ChIJZcnaAf3taS4R7_ISm8N3O-M,0.0
warteg khumesah,0.0,0,-6.3523629999999995,106.8161379,"jl. srengseng sawah no.18, rt.6/rw.7, srengseng sawah, kota jakarta selatan",ChIJj-RgEp3uaS4R2bhDR5Se3mI,0.02154690000000325
warteg citra bahari,4.6,5,-6.347813700000001,106.80240049999999,"jl. moh. kahfi 1, rt.4/rw.4, cipedak, kota jakarta selatan",ChIJtZWn-o7uaS4RWlkefebI9QA,0.016436199999993132
warteg yuli,0.0,0,-6.3268870999999995,106.82175009999999,"jl. raya jagakarsa, rt.2/rw.7, jagakarsa, kota jakarta selatan",ChIJ967mDtntaS4RxrJZrLkqIao,0.0
warteg kharisma bahari,4.0,1,-6.3127621,106.82555649999999,"jl. kebagusan raya, rt.10/rw.7, ragunan, kota jakarta selatan",ChIJLef7Q-TtaS4Rh-pBwSfJTos,0.0
warteg pak yanto,5.0,1,-6.3219828,106.83156699999999,"jl. joe klp. tiga no.12, rt.1/rw.3, jagakarsa, kota jakarta selatan",ChIJPXXIHcPtaS4R_u_v2KlMK1Y,0.0
warteg berkah mulya,0.0,0,-6.324628700000001,106.82995840000001,"jl. joe klp. tiga, rt.5/rw.3, lenteng agung, kota jakarta selatan",ChIJK5kyqsTtaS4RgrPhY_LyJzs,0.0
warteg bahari,1.0,1,-6.3208183,106.8323699,"gg. lahab, rt.1/rw.6, lenteng agung, kota jakarta selatan",ChIJKS8x9MLtaS4Ri-PtIW8I-IA,0.0
warteg kemunink,0.0,0,-6.3133447,106.8256078,"mrpg+m69, rt.10/rw.7, ragunan, south jakarta city",ChIJ7YYik1ztaS4RsRXnN4jaq4Q,0.0
warteg dani,5.0,1,-6.3230673,106.8304697,"jl. joe klp. tiga no.33, rt.1/rw.3, lenteng agung, kota jakarta selatan",ChIJW4duL0XtaS4RG3awtH5cJfo,0.0
warteg slamet,5.0,1,-6.3133537,106.8256074,"jl. kebagusan raya no.2, rt.10/rw.7, kebagusan, kota jakarta selatan",ChIJ6ZxJOeTtaS4R_jgtdyyZ1Ng,0.0
warteg pak harso,4.0,2,-6.3291602,106.82492509999999,"jl. raya jagakarsa no.18, rt.9/rw.7, jagakarsa, kota jakarta selatan",ChIJ5X7tDdrtaS4Rj1iuheuK1NY,0.0
warteg,0.0,0,-6.3229453,106.8212563,"jl. maninjo no.1, rt.1/rw.5, jagakarsa, kota jakarta selatan",ChIJVZrs5N7taS4RQaK0-Nt1plg,0.0
warteg bahari,4.6,12,-6.3174566,106.8190233,"jl. pepaya raya no.1a, rt.7/rw.5, jagakarsa, kota jakarta selatan",ChIJkSYZNODtaS4R_MdLHjzN4Vk,0.0
warteg jaya,4.4,8,-6.321621400000001,106.82549750000001,"jl. h.mursid no.99, rt.4/rw.3, jagakarsa, kota jakarta selatan",ChIJITDdtt3taS4RMlPKgRBYOnU,0.0
warteg indah,0.0,0,-6.3209838,106.82544779999999,"jl. wates, rt.11/rw.5, jagakarsa, kota jakarta selatan",ChIJS5nDvt3taS4RwSqZ6iAIzvk,0.0
warteg latanza,4.3,6,-6.3266287000000005,106.8198726,"jl. raya jagakarsa, rt.5/rw.2, jagakarsa, kota jakarta selatan",ChIJuZ6079jtaS4RQwWxzMNeLJE,0.0
wahyoo warteg redja,4.0,1,-6.318252999999999,106.81891740000002,"jl. pepaya raya no.46, rt.7/rw.5, jagakarsa, kota jakarta selatan",ChIJhycvPODtaS4RBqlNpkK5s8Y,0.0
wahyoo warteg barokah,3.7,7,-6.326772900000001,106.82189709999999,"jl. raya jagakarsa no.54, rt.2/rw.7, jagakarsa, kota jakarta selatan",ChIJ_6MbDtntaS4R9ijNfzhAmAY,0.0
warteg sukasari,4.1,7,-6.3209833999999985,106.825448,"jl. kebagusan raya no.5, rt.4/rw.4, kebagusan, kota jakarta selatan",ChIJeZv7vt3taS4RpP1AVjRu1L0,0.0
warteg caca,4.0,1,-6.3228193,106.8270732,"jl. klp. 3 no.49, rt.3/rw.3, jagakarsa, kota jakarta selatan",ChIJJcWm5dztaS4RcQXs4_AUoFY,0.0
warteg linda,3.3,3,-6.327385,106.82390890000002,"jl. raya jagakarsa, rt.9/rw.7, jagakarsa, kota jakarta selatan",ChIJrQb_KtrtaS4RYSsgr1nXGNw,0.0
warteg bungkoos,0.0,0,-6.319567,106.8208398,"jl. pepaya raya no.110, rt.5/rw.5, jagakarsa, kota jakarta selatan",ChIJs1YxVmvtaS4RTWUh_h54iDE,0.0
warteg enak,0.0,0,-6.315056999999999,106.8153053,"mrm8+x4f, rt.4/rw.6, jagakarsa, south jakarta city",ChIJ74zNzPLvaS4R7R3p4pxrxPk,0.0
dian jaya warteg,0.0,0,-6.3234935,106.8193304,"jl. pepaya raya, rt.3/rw.5, jagakarsa, kota jakarta selatan",ChIJ6ThMFd_taS4RM9ZrlMpzQB4,0.0
wahyoo warteg jagakarsa,0.0,0,-6.326496700000001,106.82037549999998,"jl. raya jagakarsa no.21, rt.2/rw.2, jagakarsa, kota jakarta selatan",ChIJ0fhlR7ftaS4Rkj4g-amz0vQ,0.0
warteg pak de,4.3,4,-6.317421299999999,106.81607959999998,"depan puri paso jl. paso, rt.5/rw.4, jagakarsa, kota jakarta selatan",ChIJOfDfgB_vaS4R-LINdeAQD6U,0.0
warteg rizquna bahari,4.6,83,-6.3275545,106.82937949999999,"jl. joe klp. tiga no.3, rt.6/rw.3, lenteng agung, kota jakarta selatan",ChIJs2OpeobtaS4RsHDnqShY7r4,0.0
warteg kharisma,0.0,0,-6.3234607,106.8151781,"jl. durian, rt.8/rw.4, jagakarsa, kota jakarta selatan",ChIJeThsjQ3vaS4RnDZURKKg1bs,0.0
warteg bae,4.4,25,-6.3158330000000005,106.816268,"4, jl. kav. polri no.82, rt.4/rw.6, jagakarsa, kota jakarta selatan",ChIJkamVPwruaS4RzYcWLWi1RZY,0.0
warteg oho ayu,5.0,3,-6.3296142,106.82348400000001,"jakarta selatan, rt.9/rw.7, jagakarsa, kota jakarta selatan",ChIJX6wUU__taS4REBBvDTnxZF8,0.0
warteg oho,5.0,3,-6.3295542000000005,106.8234021,"jl. kramat, rt09rw.07, rt.1/rw.7, jagakarsa, kota jakarta selatan",ChIJ5T0KEi_taS4RjAzs5WhQ0Fc,0.0
warteg caca,4.2,5,-6.3162829999999985,106.8274452,"jl. kebagusan iv no.20, rt.5/rw.4, kebagusan, kota jakarta selatan",ChIJ8ZvjT-btaS4RGwlr22A8qto,0.0
warteg berkah,4.6,7,-6.3154002,106.82527040000001,"jl. kebagusan raya no.104a, rt.2/rw.4, kebagusan, kota jakarta selatan",ChIJbzgE6ubtaS4R2JXQt6ADxG0,0.0
warteg galih,5.0,3,-6.3161144999999985,106.8286918,"rt.10/rw.4, kebagusan, south jakarta city",ChIJu-PkGfjtaS4Rhc-GBnfLK3M,0.0
warteg anugrah jaya,4.3,10,-6.3268575,106.828703,"jl. klp. hijau no.48a, rt.5/rw.3, jagakarsa, kota jakarta selatan",ChIJAdyQJ9vtaS4RjbTBwYirZ8Q,0.0
warteg danu,0.0,0,-6.345059,106.83215,"jalan srengseng sawah, srengseng sawah, jagakarsa, rt.5/rw.3, srengseng sawah, rt.5/rw.3, srengseng sawah, kota jakarta selatan",ChIJQeW28M7taS4RGrZWXnvO0QQ,0.0
warteg kharisma bahari,4.2,212,-6.3411909999999985,106.8275371,"warteg kharisma bahari, jalan desa putra no 35a rt12/rw05, jl. desa putra no.35 a, rt.12/rw.5, srengseng sawah, kota jakarta selatan",ChIJ8X83PC3saS4RVe2yctRPCYY,0.007275899999998003
warteg iqbal,4.7,3,-6.3449008000000005,106.8288328,"jl. srengseng sawah, rt.5/rw.12, srengseng sawah, kota jakarta selatan",ChIJyzfH4i3saS4R1Zaf-jM62Ts,0.004861799999997807
warteg putra,0.0,0,-6.3377267999999995,106.8291871,"jl. desa putra, rt.7/rw.5, srengseng sawah, kota jakarta selatan",ChIJgVZohNLtaS4RGhf3GbYuMRk,0.01239009999999485
warteg r,5.0,2,-6.355247899999998,106.8348365,"jl. komjen.pol.m.jasin, rt.2/rw.1, srengseng sawah, kota jakarta selatan",ChIJ_3ojBjzsaS4RxguoQwVX3r8,0.015779999999990583
warteg yanti,0.0,0,-6.340872099999999,106.8275979,"jl. desa putra, rt.7/rw.5, srengseng sawah, kota jakarta selatan",ChIJIzWAPC3saS4RQ8BnOPx-gCU,0.0076555999999987625
warteg berkah,4.3,30,-6.3451949,106.82758079999999,"jl. srengseng sawah no.93, rt.14/rw.3, srengseng sawah, kota jakarta selatan",ChIJYXwYjjHsaS4Rhhf3v8dK0Hk,0.0033157000000034738
warteg julay,5.0,1,-6.3460160000000005,106.826898,"mr3g+hqr, rt.2/rw.15, srengseng sawah, south jakarta city",ChIJGcN9YS7saS4RqzX_69zLJ90,0.001811799999996921
warteg kharisma,4.0,7,-6.341099,106.827605,"jalan desa putra, jalan desa putra raya no 35a, rw.06 rt.12, jagakarsa, srengseng sawah, rt.7/rw.5, srengseng sawah, kota jakarta selatan",ChIJ2UczdIruaS4Rb5QyH0Rb19I,0.007435800000002323
warteg sidomulyo,5.0,5,-6.335459999999999,106.828119,"jalan m kahfi ii rt 08 rw 01 jagakarsa, jakarta selatan, rt.8/rw.1, jagakarsa, kota jakarta selatan",ChIJu7hwPdLtaS4RUDDdzO3LO4s,0.013588799999997292
warteg,0.0,0,-6.3297444,106.8260916,"mrcg+4c4, rt.8/rw.3, jagakarsa, south jakarta city",ChIJFyd7njrtaS4RaHqA8QE9bqE,0.018468400000005047
warteg family@2,0.0,0,-6.333558999999998,106.82807609999999,"jl. jeruk raya no.67, rt.12/rw.1, jagakarsa, kota jakarta selatan",ChIJfwBDldHtaS4RmPgWzmFJ0sU,0.015446900000001484
warteg pemalang,5.0,2,-6.3299938,106.82355559999999,"jl. raya jagakarsa no.3, rt.9/rw.7, jagakarsa, kota jakarta selatan",ChIJ0bCnb1_taS4RMpnFnvbIQ9M,0.02075499999999764
warteg novita,4.6,11,-6.3450656,106.8320528,"jl. srengseng sawah, rt.5/rw.3, srengseng sawah, kota jakarta selatan",ChIJoW75hjHsaS4R670CRheJZsU,0.0079169999999964
warteg prima rasa,4.2,19,-6.3364845,106.830584,"jalan desa putra rt 002 rw 017 srengseng sawah jagakarsa, rt.6/rw.5, srengseng sawah, kota jakarta selatan",ChIJpfLakc3taS4RHvhdBEFViuc,0.01502929999999836
warteg hidayah bahari,5.0,18,-6.345560400000001,106.8271068,"jl. srengseng sawah no.36 a, rt.5/rw.6, srengseng sawah, kota jakarta selatan",ChIJiXy9ABvtaS4RDVnxBTkAHZU,0.002476199999992268
warteg kowantara jaksel,2.5,4,-6.3417539000000005,106.83341979999999,"jl. lenteng agung raya, rt.1/rw.3, srengseng sawah, kota jakarta selatan",ChIJWU29DzPsaS4R5nILvYRJp-s,0.012595699999998544
wahyoo warteg auliya,0.0,0,-6.3441394,106.83300320000001,"jl. lenteng agung raya no.3, rt.1/rw.3, srengseng sawah, kota jakarta selatan",ChIJraHqSjPtaS4Ri_ZVFCy1qpA,0.009793599999989409
warteg bahari,0.0,0,-6.3370780999999985,106.83452820000001,"jl. lenteng agung raya, rt.4/rw.3, srengseng sawah, kota jakarta selatan",ChIJzc4VYsztaS4RLs00c7w4Ojg,0.0
warteg bahari,5.0,1,-6.3311775,106.8393482,"jl. agung raya ii, rt.8/rw.7, lenteng agung, kota jakarta selatan",ChIJuW9kRcjtaS4RLkPHh5pM2hY,0.0
warteg mbak cantik,5.0,4,-6.335045,106.8349633,"jl. lenteng agung raya no.24a, rt.4/rw.4, srengseng sawah, kota jakarta selatan",ChIJM8v1bo3taS4RGqe6dbuRH0M,0.0
warteg putri jaya,5.0,2,-6.331553700000001,106.8363487,"jl. agung raya ii, rt.1/rw.7, lenteng agung, kota jakarta selatan",ChIJx2sU2sjtaS4RR3KYHqbykeg,0.0
warteg nisa,3.5,11,-6.3287511,106.83344740000001,"jalan raya lenteng agung jagakarsa, rt.4/rw.5, lenteng agung, kota jakarta selatan",ChIJHzmIkMXtaS4R8eSFiuiUNXs,0.0
warteg berkah bahari,5.0,1,-6.3319271,106.83472450000001,"jl. moch. kahfi ii no.23, rt.1/rw.1, jagakarsa, kota jakarta selatan",ChIJN0xuou7taS4RC9sDwuihC3k,0.0
ojolali warteg abadi,4.4,14,-6.332816299999998,106.8338219,"jalan moh kahfi 2, rt.1/rw.5, srengseng sawah, kota jakarta selatan",ChIJXS-F687taS4R7COhdUc0NIo,0.0
warteg dian jaya,5.0,1,-6.3375559,106.83592379999999,"jl. camat gabun, rt.3/rw.8, lenteng agung, kota jakarta selatan",ChIJmUF_e8vtaS4RoY3KjLfrRwo,0.0
warteg kowantara jaksel,4.5,2,-6.3333420999999985,106.83380279999999,"jl. rm. mo khafi ii no.1, rt.1/rw.5, srengseng sawah, kota jakarta selatan",ChIJbeUZv87taS4R86hNZ70iVdc,0.0
warteg kharisma bahari,0.0,0,-6.330429899999999,106.8352798,"jl. raya lenteng agung no.25, rt.1/rw.4, lenteng agung, kota jakarta selatan",ChIJeQaTS8_taS4R1xWerLNKgE0,0.0
warteg manja,4.3,27,-6.325457599999999,106.83420490000002,"jl. raya lenteng agung, rt.3/rw.3, lenteng agung, kota jakarta selatan",ChIJ1b4CFcTtaS4RPvs-5jDG7Wg,0.0
warteg sami asih,4.2,56,-6.3235961,106.8353888,"jl. lenteng agung, rt.10/rw.2, lenteng agung, kota jakarta selatan",ChIJqX7b4sPtaS4R_Y9DGfEsf8Y,0.0
warteg bude 2,0.0,0,-6.3250085,106.83856899999999,"jl. lontar, rt.10/rw.3, lenteng agung, kota jakarta selatan",ChIJ73Z8J8ftaS4Rgetez1IrSb4,0.0
warteg dinda,0.0,0,-6.3311885000000006,106.834549,"jagakarsa, south jakarta city",ChIJW9emO8_taS4RyVeJoL68oJ4,0.0
mini warteg,4.3,3,-6.323072,106.83721070000001,"jl. langga raya no.9, rt.9/rw.2, lenteng agung, kota jakarta selatan",ChIJlZpNPsHtaS4ROHt2_khtrUQ,0.0
warteg kompos,4.6,47,-6.3392513,106.8356531,"jl. raya lenteng agung jl. kompos no.#62, rt.11/rw.8, lenteng agung, dki jakarta",ChIJfQ3WqcztaS4RtcJBhTIEF10,0.0
warteg bahari asih,5.0,1,-6.338028700000001,106.8348135,"jl. raya lenteng agung no.77, rt.11/rw.8, lenteng agung, kota jakarta selatan",ChIJw-Yh24ftaS4RCxi9bA6YNlA,0.0
dapur warteg masakan khas tegal,0.0,0,-6.3304183,106.8160371,"jl. gandaria raya, rt.10/rw.2, jagakarsa, kota jakarta selatan",ChIJ7xfwI3juaS4Rx1M2H9fvO8M,0.0
warteg rizky,5.0,3,-6.3290326,106.80546470000002,"jl. benda ujung, rt.3/rw.1, ciganjur, kota jakarta selatan",ChIJb4QL3W_uaS4Rts1Cd3o0w_s,0.0
warteg zubair,0.0,0,-6.357462900000002,106.81015420000001,"jl. srengseng sawah no.22, rt.9/rw.9, srengseng sawah, kota jakarta selatan",ChIJ-YymFpnuaS4RNMy0EViqOHM,0.0
warteg ani jaya,0.0,0,-6.3551137,106.8102212,"jl. moch. kahfi ii, rt.5/rw.3, cipedak, kota jakarta selatan",ChIJGf4Ww5vuaS4Ra94xTpCfSQg,0.0
warteg kuning,5.0,2,-6.355784099999998,106.8134912,"jl. srengseng sawah no.3, rt.10/rw.9, srengseng sawah, kota jakarta selatan",ChIJbdD2MGjvaS4Ry8Kry87CrRE,0.0
warteg parin jaya,5.0,1,-6.3520996,106.8110548,"jl. timbul no.28, rt.5/rw.3, cipedak, kota jakarta selatan",ChIJCVZPaJvuaS4RvQc8kA5ZIC4,0.0
warteg kuning (belakang kampus istn),5.0,8,-6.3556871,106.8134197,"jl. srengseng sawah no.3, rt.1/rw.9, srengseng sawah, kota jakarta selatan",ChIJt5gJLHbvaS4R2arFvq3TndA,0.0
warteg mas jenggot,4.5,6,-6.352056399999999,106.81098349999999,"jl. timbul no.28, rt.1/rw.3, cipedak, kota jakarta selatan",ChIJGb9WtpDvaS4RhMUDhgKmes4,0.0
warteg bahari,5.0,2,-6.3546974999999986,106.8072112,"jl. timbul iv, rt.8/rw.6, cipedak, kota jakarta selatan",ChIJi8-wFJruaS4RIvu46uw6rNQ,0.008553900000003445
warteg jaya bahari,4.6,5,-6.3571087,106.8125558,"jl. srengseng sawah, rt.10/rw.6, srengseng sawah, kota jakarta selatan",ChIJHVw5yJ7uaS4R3ooxs9ywYoY,0.013345100000004884
warteg al kafi,4.0,1,-6.352709,106.80120500000001,"m jagakarsa, jl. moh. kahfi 1, rt.7/rw.1, cipedak, dki jakarta",ChIJzTJq3F_uaS4RsBxNsp5y-Do,0.004536200000001322
warteg ayamul,5.0,3,-6.3597214000000015,106.8008061,"jalan mohammad kahfi 1, gg. jambu no.2, rt.3/rw.2, cipedak, dki jakarta",ChIJ10YjbpbuaS4RFnSLViHKdKY,0.004208100000009374
warteg barokah,4.0,1,-6.362977,106.80192199999999,"jalan antariksa cipedak jagakarsa, rt.6/rw.2, cipedak, dki jakarta",ChIJtxdxub3uaS4RxFTOF9uluL0,0.00857960000001068
warteg family,4.5,2,-6.3532505,106.81511280000001,"jl. srengseng sawah, rt.11/rw.9, srengseng sawah, kota jakarta selatan",ChIJDzZQqp3uaS4RJ5qH5WrhAUs,0.017902499999999932
warteg slawi ayu,4.9,10,-6.356305499999999,106.8128188,"jl. srengseng sawah no.39, rt.2/rw.9, srengseng sawah, kota jakarta selatan",ChIJrbwTwzzvaS4RGZZRaxZ7mEc,0.012804900000007002
warteg aru,0.0,0,-6.3523629999999995,106.8161379,"jl. srengseng sawah no.18, rt.6/rw.7, srengseng sawah, kota jakarta selatan",ChIJGZinE53uaS4R-CfEcHFzPMU,0.01981510000000597
warteg siplah,4.5,27,-6.354629099999999,106.8142165,"jl. srengseng sawah no.90, rt.11/rw.9, srengseng sawah, kota jakarta selatan",ChIJk-FxN5zuaS4RMCXJR63ejDA,0.01562760000000729
warteg hidayah,0.0,0,-6.3606349999999985,106.807505,"jl. moch. kahfi ii no.46b, rt.5/rw.9, srengseng sawah, kota jakarta selatan",ChIJEZLIEITvaS4R4hM5mnAbO-4,0.011820600000011616
warteg restu,0.0,0,-6.3513085,106.7978372,"jl. aselih no.14b, rt.9/rw.1, cipedak, kota jakarta selatan",ChIJNQK2eZLuaS4RttPSfhgXmLc,0.007173699999990291
warteg nur. risma,4.0,1,-6.3555057999999995,106.8136301,"jl. srengseng sawah no.3, rt.10/rw.9, srengseng sawah, kota jakarta selatan",ChIJp0kMIZzuaS4RlipfbTCJWlE,0.014164500000002356
warteg mulia,0.0,0,-6.350283900000001,106.80404409999998,"jrx3+vjm, rt.7/rw.4, cipedak, south jakarta city",ChIJSR_TxI_uaS4RdrJuFxWH9Rs,0.009800400000004041
warteg murah,0.0,0,-6.362028,106.80705590000001,"jl. moh. kafi ii no.9, rt.7/rw.3, cipedak, south jakarta city",ChIJwxHgu6LuaS4ROyWfOPl96PM,0.012764500000000291
warteg kharisma,0.0,0,-6.3614182,106.80719850000001,"jl. moch. kahfi ii no.42, rt.7/rw.3, cipedak, kota jakarta selatan",ChIJxxvlo6LuaS4RR-XrqU3xpLI,0.012297300000004618
warteg barki,4.0,9,-6.3633636,106.8061298,"jalan mohammad kafi i no.27, rt.7/rw.3, cipedak, kota jakarta selatan",ChIJm2oVlULtaS4RCjifOaIDvjo,0.013173999999999351
warteg dinda berhias,4.5,20,-6.358226600000001,106.8121072,"jl. srengseng sawah no.50, rt.8/rw.9, srengseng sawah, kota jakarta selatan",ChIJuZMI1Z7uaS4RebW3WjlExhw,0.014014400000006866
warteg ibu laundry,0.0,0,-6.363195699999999,106.80702600000001,"jl. moch. kahfi ii no.24, rt.2/5, rt.7/rw.3, cipedak, kota jakarta selatan",ChIJ2XnpM-3vaS4Raxg5ty7Kki8,0.013902299999998036
warteg ibu roso,0.0,0,-6.3453433000000015,106.8260761,"jl. srengseng sawah, rt.5/rw.6, srengseng sawah, kota jakarta selatan",ChIJp_Vugy7saS4RnuazhSFMx0k,0.0
warteg zahirah,4.8,11,-6.3353233,106.82429479999999,"jl. sirsak, rt.9/rw.1, jagakarsa, kota jakarta selatan",ChIJ9Tpr-tPtaS4R73_9rM2mryE,0.0
warteg bude,5.0,1,-6.3510366,106.8090699,"jl. timbul no.32 c, rt.6/rw.5, cipedak, kota jakarta selatan",ChIJEVcrr77vaS4RC5wEXqjsYCk,0.0
warteg permata bahari,5.0,3,-6.3515496,106.8119013,"jl. moch. kahfi ii, rt.5/rw.5, cipedak, kota jakarta selatan",ChIJGR6hWJvuaS4Rhu2g9bTCKCE,0.0
warteg sederhana,3.0,1,-6.348504399999999,106.8132192,"jl. moch. kahfi ii, rt.3/rw.5, cipedak, kota jakarta selatan",ChIJVXEDQSrvaS4RTlWC4v76vTo,0.0
warteg rizki,0.0,0,-6.3496367,106.81418700000002,"jl. batu, rt.1/rw.8, srengseng sawah, kota jakarta selatan",ChIJ8TaoJIPuaS4RNVKcGPb6xPE,0.0
warteg indah,0.0,0,-6.3482954000000005,106.8202187,"jl. srengseng sawah no.81, rt.2/rw.7, srengseng sawah, kota jakarta selatan",ChIJC4dZUCjsaS4RTu-CK60jj50,0.0
warteg 05 senayan,4.9,8,-6.338871,106.822002,"jl. moch. kahfi ii no.14d, rt.1/rw.4, ciganjur, kota jakarta selatan",ChIJXwaZBMbvaS4RLekgy4EFnIs,0.0
warteg 24jam,0.0,0,-6.3475722,106.80971090000001,"jl. persahabatan no.1, rt.1/rw.4, cipedak, kota jakarta selatan",ChIJy_RnZGbvaS4R9jZKDADUtGA,0.0
warteg asih,0.0,0,-6.3367945,106.8249017,"jl. moh. kahfi 1 no.9, rt.9/rw.1, jagakarsa, kota jakarta selatan",ChIJy-7eltPtaS4RK2Ehj-v20R8,0.0
warteg berkah,5.0,1,-6.348489,106.8092822,"jl. persahabatan jl. al hidayah no.depan, rt.7/rw.4, cipedak, kota jakarta selatan",ChIJrTtBkz_vaS4RM_q9e0hsxFo,0.0
warteg kharisma 99,3.7,15,-6.346443,106.8256229,"rt006/rw006, rt.7/rw.6, srengseng sawah, kota jakarta selatan",ChIJH5b27C7saS4R7d3H9bIUC7I,0.0
warteg barokah mandiri,4.6,18,-6.3514422,106.8139699,"jl. batu, rt.1/rw.8, srengseng sawah, kota jakarta selatan",ChIJoXtYxJzuaS4R0juUMHM40AM,0.0
warteg karisma,4.0,1,-6.351616,106.81975600000001,"jl. srengseng sawah no.27, rt.5/rw.7, srengseng sawah, kota jakarta selatan",ChIJs3nHkCfsaS4Rr9tikbRKDn4,0.0
warteg fitri jagakarsa,0.0,0,-6.3347861,106.8244909,"jl. belimbing no.10, rt.10/rw.1, jagakarsa, kota jakarta selatan",ChIJTZcmWNHtaS4R3JEzgsjE6s4,0.0
warteg mulia soto ayam,0.0,0,-6.346449400000001,106.82575120000001,"jl. srengseng sawah, rt.6/rw.6, srengseng sawah, kota jakarta selatan",ChIJW4Pg7C7saS4RUdKsxMg0Fn4,0.0
warteg mpo nimah,0.0,0,-6.3360597,106.82562920000001,"jl. sirsak no.11-10, rt.9/rw.1, jagakarsa, kota jakarta selatan",ChIJi4oBT6PtaS4RQOEvoZyjeVM,0.0
warteg mulia,4.5,2,-6.3409941,106.81969950000001,"jalan mohammad kafi ii no.3, rt.1/rw.4, ciganjur, kota jakarta selatan",ChIJBUEpxCrsaS4RWbpsS16exdU,0.0
warteg nongkrong m3style,4.0,2,-6.339589599999999,106.8209531,"jl. moch. kahfi ii no.2, rt.5/rw.4, ciganjur, kota jakarta selatan",ChIJG0eg19TtaS4RwPv_ZSc-LsE,0.0
warteg 03 sumber berkah,5.0,2,-6.3396184,106.82092549999999,"jl. moch. kahfi ii no.2, rt.2/rw.4, ciganjur, kota jakarta selatan",ChIJz5o5v4_taS4RFCf0IPH7RqY,0.0
warteg imam s jaya,4.0,2,-6.3344385,106.82124579999999,"jl. sirsak no.2, rt.5/rw.7, jagakarsa, kota jakarta selatan",ChIJTa_qhdbtaS4Rd8XGzbojItI,0.0
warteg mulya bahari,5.0,1,-6.3312532,106.82074159999999,"mr9c+f7x, rt.4/rw.7, jagakarsa, south jakarta city",ChIJ57Xu8iDtaS4RlY5a8H0e0UQ,0.0
warteg lestari,4.0,4,-6.3439587,106.81241729999999,"jl. wr. sila no.18, rt.1/rw.5, ciganjur, kota jakarta selatan",ChIJ0x-3NoHuaS4RQoCQAgYvm5Y,0.0
warteg barokah,5.0,1,-6.3409594,106.80452620000001,"jl. moh. kafi 1, rt.8/rw.6, ciganjur, kota jakarta selatan",ChIJS-_6IYjuaS4RCWnFbM2Q_oo,0.0
warteg kharisma,0.0,0,-6.3449269,106.81434650000001,"jl. wr. sila no.3, rt.2/rw.5, cipedak, kota jakarta selatan",ChIJa32xcYHuaS4R6ptFVCERfUE,0.0
warteg permata,4.6,9,-6.3443800999999995,106.81237409999999,"jl. wr. sila no.45, rt.8/rw.5, cipedak, kota jakarta selatan",ChIJiSWaSYHuaS4RLPo-axRVSsE,0.0
warteg iklas bahari,0.0,0,-6.3429015,106.80426270000001,"jalan mohammad kafi 1, rt.10/rw.6, ciganjur, kota jakarta selatan",ChIJv_gbXIjuaS4RyUD-32Qqfo4,0.0
warteg sumber bawang,4.4,206,-6.3444395999999985,106.8040378,"jl. moh. kahfi 1, rt.1/rw.1, ciganjur, kota jakarta selatan",ChIJhz55wojuaS4R-KaNc47K20M,0.0
warteg berkah jaya,4.4,21,-6.3451319999999996,106.80934450000001,"jl. wr. sila no.18, rt.2/rw.4, ciganjur, kota jakarta selatan",ChIJZ1Lqh4buaS4Rw8fk46VIZuA,0.0
podomoro warteg,0.0,0,-6.3396124999999985,106.8133452,"jl. sadar raya no.46, rt.3/rw.4, ciganjur, kota jakarta selatan",ChIJJSzPF37uaS4RsLVYKFezhpw,0.0
warteg hidayah,0.0,0,-6.3432027,106.8175803,"jl. moch. kahfi ii, rt.5/rw.4, srengseng sawah, kota jakarta selatan",ChIJDZmy0YHuaS4RF24q6ceBQi4,0.0
warteg ibu ii,5.0,1,-6.3387432,106.81003659999999,"jl. anda no.40, rt.7/rw.3, ciganjur, kota jakarta selatan",ChIJ1U0uun3uaS4R6jiVvN2PrkQ,0.0
warteg mbak atun,3.0,2,-6.344809799999998,106.8051393,"jl. wr. sila no.8, rt.3/rw.4, cipedak, kota jakarta selatan",ChIJJTyUu4juaS4Rv8XPZx72rIo,0.0
warteg jejeg,4.5,12,-6.345092500000001,106.803771,"jl. moh. kahfi 1 no.49, rt.1/rw.1, cipedak, kota jakarta selatan",ChIJIyxG0IjuaS4RYHrrI_r0RgE,0.0
padang & warteg 10.000 restu jaya,5.0,1,-6.3359603,106.81333959999999,"jl. gandaria ujung, rt.2/rw.4, ciganjur, kota jakarta selatan",ChIJAaQWuH7uaS4RIjxgZ3jY4pg,0.0
warteg slawi ayu,0.0,0,-6.335947000000001,106.80602990000001,"jl. moh. kahfi 1 no.24, rt.8/rw.1, ciganjur, kota jakarta selatan",ChIJXU8EqXzuaS4REe3G5liZP3k,0.0
warteg el ghani,0.0,0,-6.3409274999999985,106.8046004,"jl. moh. kahfi 1 no.3, rt.8/rw.6, ciganjur, kota jakarta selatan",ChIJEwn1F4juaS4RHTnTwioaHcA,0.0
warteg kharisma bahari khafi1,5.0,1,-6.3332808,106.80726329999999,"jl.moh.khafi1 rt08/01 no 20, rt.7/rw.1, ciganjur, kota jakarta selatan",ChIJf4aqnpXvaS4RwmLxAGVxnuQ,0.0
warteg novi,5.0,1,-6.346052500000001,106.8148818,"mr37+hxc, rt.3/rw.8, srengseng sawah, south jakarta city",ChIJh_OxCZvvaS4RQwccP6zU804,0.0
warteg nampol,5.0,1,-6.3449675,106.815473,"blok h turini, jl. wr. sila blok h turini no.6, rt.2/rw.5, ciganjur, kota jakarta selatan",ChIJMdWohYHuaS4RYEOEDokoX3U,0.0
warteg kharisma bahari,4.3,8,-6.3454730999999995,106.8097982,"jl. wr. sila no.80, rt.11/rw.4, cipedak, kota jakarta selatan",ChIJ90chnYbuaS4Rzqstt0ktS28,0.0
wkb warteg kharisma bahari jagakarsa kahfi 2,5.0,7,-6.3432224,106.81749070000001,"7, jl. moch. kahfi ii no.30a, rt.7/rw.8, srengseng sawah, south jakarta city",ChIJbzJ5iNbvaS4RxFDw-zJCyoc,0.0
