nama_tempat,rating_tempat,user_ratings_total,latitude,longitude,alamat_tempat,place_id,distance
warteg barokah,4.8,4,-6.247303899999999,106.7797712,"jl. bungur, rt.4/rw.1, kby. lama utara, kota jakarta selatan",ChIJwahg_BrxaS4RNRojSe6S7EQ,0.010050599999999577
warteg mulya bahari,4.3,301,-6.2637941,106.7908567,"jl. h. nawi raya no.73, rt.6, gandaria utara, kota jakarta selatan",ChIJVZgWeqHxaS4RaoBtJDqp_zY,0.018080500000005273
warteg mamoka,4.5,191,-6.2719347,106.7965176,"pqhw+6jc, rt.1/rw.4, south gandaria, south jakarta city",ChIJQ-4iYQ3xaS4ROc90Y7wg3QQ,0.03188200000000041
warteg bahari,3.8,26,-6.254552,106.76359,"jl ulujami raya rt009, rt.1/rw.2, rw001, kota jakarta selatan",ChIJPeJhsf_xaS4RIRhBtphrPOM,0.01842830000000717
warteg selera,4,1,-6.2610981,106.7910983,"jl. hidup baru no.30, rt.12/rw.3, gandaria utara, kota jakarta selatan",ChIJ1ZlaW6DxaS4Ro0zW8V-AUa0,0.01562610000000042
warteg kharisma bahari,4.2,156,-6.2443246,106.7805457,"warteg kharisma bahari 18 jl.ciputat raya no.30 rt.03 rw.07, rt.3/rw.4, kby. lama utara, kota jakarta selatan",ChIJA4lMQyzxaS4RpfbgphsypcQ,0.013804400000004158
warteg selaras bahari,4.7,3,-6.264349999999999,106.797745,"jl. nangka, rt.2/rw.5, cipete utara, kota jakarta selatan",ChIJ41bAP_jxaS4Rf50QI4ZoMsA,0.025524700000004508
warteg zahra,4.2,17,-6.2524679,106.7945975,"jl. petogogan i no.20a, rt.1/rw.11, gandaria utara, kota jakarta selatan",ChIJkTt21XLxaS4RJPViggvKqAg,0.019712899999993816
warteg citra bahari,3.6,10,-6.253381,106.77607,"jalan bintaro raya tanah kusir, rt.2/rw.10, kebayoran lama selatan, kebayoran lama, rt.11/rw.10, kby. lama sel., kota jakarta selatan",ChIJo7yAjAPxaS4Rj1TMzLIGzlE,0.00711929999999672
warteg citrajaya bahari,4.1,12,-6.259934500000001,106.7962051,"jl. gotong royong i no.1, rt.4/rw.6, gandaria utara, kota jakarta selatan",ChIJ9fn8wp_xaS4Rnr_xEDKeXI0,0.01956929999999435
warteg selera,4.6,13,-6.260402999999999,106.7970268,"jl. rs. fatmawati raya no.1, rt.2/rw.1, cipete utara, kota jakarta selatan",ChIJzRY0eXXxaS4RDvXmGhnQD4Y,0.020859499999995812
warteg bu mi,4.8,5,-6.2647407,106.7672208,"pqp8+4v5, rt.9/rw.3, bintaro, south jakarta city",ChIJ9xq_e1TwaS4Rs3ntcSMg2t4,0.01993659999999675
warteg permata bahari,3,1,-6.2554082,106.7633761,"gg. al. barkah, rt.10/rw.1, pesanggrahan, kota jakarta selatan",ChIJm9fCXfnwaS4REvUs9gvAU-k,0.01778599999999919
warteg jaya bahari,4.4,23,-6.24587,106.7844251,"jl. taman gandaria, rt.9/rw.6, kby. lama utara, kota jakarta selatan",ChIJqwf67hDxaS4Rlz_dZoKL-fs,0.016138400000006214
wahyoo warteg bahari,4.3,19,-6.2434033,106.7628917,"jalan ulujami raya no.1, rt.12 rw.04, pesanggrahan, rt.13, ulujami, kota jakarta selatan",ChIJQYuA7ObwaS4RTbxGoYXJ2p4,0.030275300000004002
warteg 46,5,2,-6.264237,106.7935285,"jl. h. nawi raya no.46a, rt.6/rw.2, gandaria sel., kota jakarta selatan",ChIJBYMb-KHxaS4RKc7vu-v5SVg,0.021195199999992198
warteg bahari velbak,5,1,-6.2393284,106.7850884,"komplek perkantoran kebayoran baru mall, jl. kebayoran baru no.4, rt.4/rw.7, gunung, kota jakarta selatan",ChIJc_XjEL_xaS4R-Ll2yi00gt4,0.02334330000000584
warteg bahari,3.9,35,-6.268824599999999,106.7729791,"jl. h. naimun no.39, rt.11/rw.11, pd. pinang, kota jakarta selatan",ChIJia7LCK3xaS4RwjBhS0ggBdc,0.018262199999999673
warteg indah jaya 2,4.4,75,-6.264345,106.7749519,"jl. ciputat raya, rt.6/rw.1, pd. pinang, kota jakarta selatan",ChIJ83kTjavxaS4RpJk1GwTlV28,0.01180979999999554
warteg kharisma bahari 16,4.5,16,-6.260229799999999,106.7909705,"cilandak, jl. h. salim 1 no.3, rt.8/rw.10, gandaria utara, dki jakarta",ChIJDdcAxKDxaS4R_DT2xRvkiFk,0.014629999999998589
warteg mulya jaya,0,0,-6.2559947,106.7631338,"jl. ulujami raya, rt.10/rw.2, pesanggrahan, kota jakarta selatan",ChIJRQqGafnwaS4RfBPm6WrQIRw,0.017441799999995844
warteg mamoka bahari,4.4,72,-6.266299699999999,106.7898497,"jl. madrasah no.5, rt.6/rw.1, gandaria sel., kota jakarta selatan",ChIJPxS216vxaS4RWxXpeHm7L1A,0.01957910000000318
warteg bowo,4.8,8,-6.241123,106.791073,"jl. tebah ii no.115, rt.14/rw.3, gunung, kota jakarta selatan",ChIJnft4VK_xaS4RDM-zRemp4Ss,0.02753329999999643
warteg renanda,4.4,25,-6.2489672,106.7635864,"jalan ulujami raya, gang warga, rt. 002 / rw. 007, ulujami, rt.2/rw.7, ulujami, kota jakarta selatan",ChIJFafvvuTwaS4R5ysHp25beTQ,0.024016700000006885
warteg dewi,5,3,-6.262671399999999,106.7855896,"jl. margaguna raya a no.9, rt.4/rw.15, gandaria utara, kota jakarta selatan",ChIJxyiN96bxaS4R-q2adJP7T-8,0.01169069999999195
warteg restu ibu,5,1,-6.270690699999999,106.7972883,"jl. rs. fatmawati raya no.234, rt.1/rw.4, gandaria sel., kota jakarta selatan",ChIJMe6GgpfxaS4RiahGZqvF6BA,0.03140870000000362
warteg rw,4.3,24,-6.2495685,106.7637129,"jl. ulujami raya no.42c, rt.4/rw.1, pesanggrahan, kota jakarta selatan",ChIJzZxps-TwaS4Rg-N2MPS4DGg,0.023288899999999835
warteg rohmadi,0,0,-6.2671835,106.7942559,"jl. komp. depag no.19, rt.7/rw.3, gandaria sel., kota jakarta selatan",ChIJFemleJjxaS4RUI3pXCOhVdM,0.02486909999999476
warteg rezkq,5,2,-6.258972,106.7896343,"jl. h. zainuddin no.27-7, rt.5/rw.14, gandaria utara, kota jakarta selatan",ChIJE_-oVybxaS4R2kNkeOhgJiU,0.012036000000001934
warteg waluyo,4.2,11,-6.2599342,106.7845167,"jl. kopro banjir, rt.7/rw.11, kby. lama sel., kota jakarta selatan",ChIJ1Z8Ij6fxaS4Rw9PgmuWtJbs,0.007880599999996463
warteg mekar jaya (wmj),3,2,-6.270124,106.79727,"jl. rs. fatmawati raya no.8-1, rt.1/rw.4, gandaria sel., kota jakarta selatan",ChIJv83Pi4fxaS4R5cjVT7Qyq0U,0.030823699999996457
warteg idola,4.5,86,-6.2493022,106.7837738,"jl. bungur ii, rt.4/rw.2, kby. lama sel., dki jakarta",ChIJ75L4HhDxaS4RgYOwHHC9nog,0.012054900000005198
warteg,0,0,-6.2524215,106.7645101,"jl. ulujami raya, rt.6/rw.1, pesanggrahan, kota jakarta selatan",ChIJUxllf_vwaS4RbGeCs67VkJE,0.019638700000006004
warteg annisa,3.5,2,-6.2705804,106.7962488,"jalan mangga nomor 8d, rt.4/rw.4, gandaria sel., kota jakarta selatan",ChIJ0TDKwGEfai4RQBj94PZtAUw,0.030258899999999755
warteg 168,4,2,-6.263635499999999,106.7945404,"jl. h. nawi raya, rt.2/rw.7, gandaria utara, kota jakarta selatan",ChIJBW6EWZ_xaS4Roq_1K9LQ7ps,0.021605600000000003
warteg berkah,4.5,21,-6.2451104,106.7937817,"jalan barito, rt.3/rw.1, kramat pela, kota jakarta selatan",ChIJ_fAfNhPxaS4RO0NcipMGV5A,0.02625459999999613
wahyoo warteg sederhana,4.4,16,-6.2579637,106.7897662,"jl. minang kramat no.1b, rt.2/rw.14, gandaria utara, kota jakarta selatan",ChIJzzW9PwrxaS4RdKXd702mxKs,0.011159600000001824
warteg jaya,4.4,8,-6.2552173,106.7675455,"jl. masjid al muflihun no.3, rt.3/rw.10, bintaro, kota jakarta selatan",ChIJ-R4lh_7waS4RjiHPWe-xzQA,0.01380750000000397
wahyoo warteg berkah bahari,5,1,-6.2532236,106.7842465,"jl. praja no.dalam, rt.5/rw.5, south kebayoran lama, south jakarta city",ChIJydRgLtzxaS4RhDc26tp6fU0,0.008606199999993791
warteg kharisma bahari,5,8,-6.2677365,106.7967421,"jl. madrasah no.1a, rt.3/rw.3, gandaria sel., kota jakarta selatan",ChIJQ4JQ1Q_xaS4R_aKPjG7C_sQ,0.027908300000001773
warteg kharisma bahari,4.4,206,-6.2582684,106.7932268,"jl. karya utama no.6, gandaria utara, kota jakarta selatan",ChIJx1eskX_xaS4R07OKpVGmurM,0.014924899999998686
warteg moro seneng,4.6,16,-6.2564479,106.7960841,"jl. kubis ii no.153, rt.1/rw.6, pulo, kota jakarta selatan",ChIJG2Uk4nTxaS4Rt1OzMCP4liU,0.017219500000000387
warteg slawi ayu,4.6,60,-6.2553325,106.7760395,"jl. johari no.1, rt.10/rw.10, kby. lama sel., kota jakarta selatan",ChIJdUouTgHxaS4RkjXb5A6rWb4,0.005198300000005318
warteg agung gandaria,4.5,562,-6.2448571,106.7890842,"jl. gandaria tengah ii no.30, rt.12/rw.1, kramat pela, kota jakarta selatan",ChIJ2ciJ5RPxaS4RKetFCdhKdnY,0.021810400000004115
warteg kharisma,4.3,13,-6.246765099999999,106.7882461,"jl. jatayu no.rt.7, rt.8/rw.3, south kebayoran lama, south jakarta city",ChIJwTFnhBHxaS4RUnkcZqdgsTI,0.019064299999994816
warteg ben jaya,3.5,6,-6.2671015,106.7941082,"jl. madrasah no.4, rt.7/rw.3, gandaria sel., kota jakarta selatan",ChIJ8T2QgaLxaS4Rh4tD2TBG0Us,0.024639399999995426
warteg langgeng jaya,5,1,-6.2669321,106.7924537,"jl. madrasah no.20a, rt.7/rw.1, gandaria sel., kota jakarta selatan",ChIJGWGvWKLxaS4RYSs6UNnMZ9I,0.02281549999999477
warteg citra jaya bahari 24 jam,4.9,7,-6.259878,106.795719,"jl. gotong royong, rt.4/rw.6, gandaria utara, kota jakarta selatan",ChIJj3GRO8DxaS4RJW_37-8rV88,0.01902670000000395
warteg kharisma,4.2,30,-6.270607999999999,106.795715,"samping philips, jl. mangga no.5, rt.5/rw.3, gandaria sel., kota jakarta selatan",ChIJo6qq6pfxaS4Rn4QKuHY7PCU,0.02975269999999952
warteg kharisma bahari - kostrad,4.5,19,-6.2533197,106.7852406,"jl. darma putra raya jl. swadaya no.51, rt.9/rw.5, kby. lama sel., kota jakarta selatan",ChIJ78_ZKA_xaS4RjhU79awBWnI,0.009504199999994078
warteg mak toing,0,0,-6.2496961,106.7940004,"jl. percetakan i, rt.5/rw.4, kramat pela, kota jakarta selatan",ChIJ0c6CrJnxaS4Rp0oJxZJZ1rM,0.02188760000000034
warteg cipta rasa 4,4.4,86,-6.2643054,106.7974929,"jl. rs. fatmawati raya, rt.3/rw.5, cipete sel., kota jakarta selatan",ChIJCT4HK5nxaS4RRmuy4adlg1A,0.025227999999993145
warteg kharisma bahari,0,0,-6.2480297,106.7784328,"rt.4/rw.1, kby. lama utara, kota jakarta selatan",ChIJySWrgOPxaS4RWxlBB1OXCyM,0.010107799999996558
warteg sido untung,4.4,23,-6.255338999999999,106.7663995,"jl. masjid al muflihun no.10, rt.2/rw.10, bintaro, kota jakarta selatan",ChIJh49up_7waS4R8SCzr0XMHT4,0.014831799999996065
warteg tresna,0,0,-6.270738700000001,106.7968358,"jl. mangga, rt.2/rw.5, gandaria sel., kota jakarta selatan",ChIJGT4IopfxaS4RWmtC2NSnj6k,0.031004199999996374
warteg ijo warjo,3.7,10,-6.260221,106.7696814,"jl. ikpn bintaro, rt.2/rw.12, bintaro, kota jakarta selatan",ChIJzyC0VlXwaS4R_4XUcfDP4e4,0.012956300000004362
warteg permata,0,0,-6.240144099999999,106.7805735,"pasar kebayoran lama, jl. ciputat raya, rt.3/rw.1, cipulir, kota jakarta selatan",ChIJpbpQaRjxaS4Rt574k3xGfgw,0.018012700000002546
warteg tono,3.9,32,-6.260771099999999,106.7853106,"jl. tanah kusir no.09, rt.10/rw.11, kby. lama sel., kota jakarta selatan",ChIJCcdCn6fxaS4RYkFXDuUBQXU,0.009511400000000059
warteg sri abadi,4.8,5,-6.241666599999999,106.7829214,"jalan sultan iskandar muda, pondok pinang, rt.4/rw.2, kby. lama utara, kota jakarta selatan",ChIJyeCZeBfxaS4RALNPanHbkrE,0.018838100000006186
warteg bendi jaya,4.2,181,-6.2529184,106.7735524,"jl. bendi raya no.15, rt.3/rw.10, kby. lama utara, kota jakarta selatan",ChIJt7N-TQLxaS4RNZXLjgEk-Ws,0.010099500000000816
