nama_tempat,rating_tempat,user_ratings_total,latitude,longitude,alamat_tempat,place_id,distance
warteg bahari,5,1,-6.265148,106.8239236,"jl. kemang timur no.43, rt.9/rw.3, bangka, kota jakarta selatan",ChIJqyITzS7yaS4RBLkOO45wYq8,0.01989859999999588
warteg jaya,3.9,28,-6.2712922,106.8379339,"jl. siaga raya no.40, rt.16/rw.4, pejaten bar., kota jakarta selatan",ChIJba7_GjnyaS4RwvL_2vfaeuE,0.0013627000000022704
warteg kar1mah bahari,4.7,3,-6.260486299999999,106.8232763,"jl. kemang timur no.21, rt.5/rw.4, bangka, kota jakarta selatan",ChIJ-SQ7eSvyaS4RTa4L3WszsgE,0.02520759999999367
warteg bahari,4.2,6,-6.2852668,106.841635,"jl. raya ragunan, rt.1/rw.2, ps. minggu, kota jakarta selatan",ChIJOfz10mzyaS4RiCu-WVPEYlk,0.017931599999999825
warteg podoworo,3,1,-6.2881446,106.8248379,"jalan taman rt 001 rw 006 ragunan, jl. margasatwa bar., rt.6/rw.1, ragunan, dki jakarta",ChIJfyE8aRvyaS4R6c6Jt_g30VU,0.03131109999999193
warteg bahari,4.2,16,-6.2651463,106.8340135,"jl. wr. jati timur raya no.20, rt.4/rw.9, kalibata, kota jakarta selatan",ChIJrzhpIjHyaS4RSQsSV-ltA_k,0.00981039999999922
warteg bahari,0,0,-6.2755442,106.8303481,"jl. amil no.75, rt.12/rw.5, kalibata, kota jakarta selatan",ChIJe16ZcBPtaS4RW-hMZ2nPRU0,0.013200500000002613
warteg bu haji,0,0,-6.2533106,106.8481756,"jl. kh.mahmud,buntu no.7, rt.5/rw.4, duren tiga, kota jakarta selatan",ChIJs0Hks73zaS4R7qyhiRJX9jk,0.026860600000007118
warteg wareg,4.2,11,-6.2604745,106.8548314,"jl. rawajati timur ii, rt.8/rw.2, rawajati, kota jakarta selatan",ChIJi23uQlLyaS4RE38gTLQ5ePI,0.026352499999997114
warteg barokah,4.2,6,-6.2864494,106.8260434,"kompleks bri, jl. warung jati barat no.20, rt.6/rw.5, jati padang, kota jakarta selatan",ChIJb8u_BxvyaS4RUqurz7FUx6Q,0.02841039999999495
warteg hidayah,5,1,-6.2718263,106.8276766,"5, jl. kamboja no.43, rw.8, pejaten bar.",ChIJeSROtLjzaS4RolubxfAMtik,0.01215409999999384
warteg berkah,4.3,170,-6.267711599999999,106.8222851,"jl. kemang tim. xii no.7, rt.6/rw.3, bangka, kota jakarta selatan",ChIJ88zNkSjyaS4RS0o4mSnunYM,0.01897349999999509
warteg,4.3,47,-6.2765407,106.824222,"warteg, jalan pejatan barat raya, rt.2/rw.8, pejaten bar., kota jakarta selatan",ChIJzR3iLiLyaS4R_HUpPw1-R4w,0.02032309999999171
warteg latifah,4.3,21,-6.266245,106.8422818,"jalan warung jati timur, rt.10, pejaten bar., kota jakarta selatan",ChIJF3u8PEjyaS4RppTLQD3jtGY,0.008032399999997608
warteg 99,4.2,23,-6.274098,106.8220901,"jl. kecapi no.3, rt.14/rw.8, pejaten bar., kota jakarta selatan",ChIJy4TQMiHyaS4RyI3wvKzIVBE,0.020012300000001204
warteg bahari,4.1,17,-6.2580227,106.8280144,"jl. warung buncit raya no.36, rt.1/rw.2, duren tiga, kota jakarta selatan",ChIJS-zbdi3yaS4RocYBNmpdJpw,0.022933099999995932
warteg salsabila ( warung makan )üè£,4.4,8,-6.2722508,106.8464372,"gg. bend. no.39, rt.1/rw.3, pejaten bar., kota jakarta selatan",ChIJ24VZsEbyaS4Rq1YUWGLo7VE,0.009717800000000665
warteg aji,3.9,14,-6.2590796,106.8436271,"jl. kalibata timur i gg. rukun no.2, rt.1/rw.8, kalibata, kota jakarta selatan",ChIJJ6716EryaS4RanjpCv2gLg8,0.016543100000008693
warteg bahari arifin,4,70,-6.279562299999999,106.8367311,"jl. pejaten raya no.42, rt.8/rw.10, jati padang, kota jakarta selatan",ChIJERXUvxXyaS4ROj-h_ArKI1E,0.01083560000000272
wahyoo warteg putri jaya,5,2,-6.263434699999999,106.8294758,"jl. warung jati barat i no.42, rt.6/rw.3, kalibata, kota jakarta selatan",ChIJ-bUkHS7yaS4Rerw3pjsJnso,0.016059700000000454
warteg kharisma bahari,4.3,3,-6.279150599999999,106.8329876,"jl. pejaten raya no.15 c, rt.13/rw.2, jati padang, kota jakarta selatan",ChIJfWkl1PbzaS4Re06oh4i800E,0.014167400000000718
warteg falah,4.7,31,-6.2658992,106.8237261,"jl. kemang raya no.48, rt.6/rw.3, bangka, kota jakarta selatan",ChIJCXwsr6jzaS4RBkWHb4JImQI,0.01934489999999478
warteg rahayu,4.3,23,-6.272866199999999,106.8475613,"jl. rawajati timur, rt.6/rw.6, pejaten tim., kota jakarta selatan",ChIJ7_t8_0PyaS4RetfTi5UxFYI,0.011457299999998227
warteg dewi,3.8,4,-6.2534892,106.840767,"jl. duren tiga raya, rt.1/rw.1, pancoran, kota jakarta selatan",ChIJ624TDsrzaS4RtcJpUsWQ24E,0.019273400000002106
warteg zakaria,0,0,-6.258705600000001,106.8377832,"jl. duren tiga selatan no.67, rt.8/rw.3, duren tiga, kota jakarta selatan",ChIJEdU31onzaS4R3-9pMWJZO68,0.012481399999991538
warteg idola,3.5,4,-6.253014599999999,106.8254423,"prwg+q5w, rt.1/rw.6, duren tiga, south jakarta city",ChIJT_bXYdHzaS4R27unIxkFFeE,0.030513299999991084
warteg berkah 354,4.5,15,-6.2857078,106.8403001,"jl. raya ragunan, rt.9/rw.4, ps. minggu, kota jakarta selatan",ChIJizyxIBPyaS4RqWqsZLgv_Sc,0.017037699999996825
warteg pakde,4.5,4,-6.285798799999999,106.8326681,"jl. sebret no.5, rt.5/rw.7, jati padang, kota jakarta selatan",ChIJwX_mARHyaS4Ra-dlOKYby4k,0.021135099999990636
warteg rizki,4.1,65,-6.2660974,106.8373555,"jl. h. samali no.85a, rt.19/rw.1, pejaten bar., kota jakarta selatan",ChIJfSI6FzfyaS4RV5A5eTBt33M,0.005517299999995728
warteg baru,4.7,6,-6.270289000000001,106.844388,"jalan warung buncit raya no 7 (dekat halte busway jatipadang), rt.6/rw.1, pejaten bar., kota jakarta selatan",ChIJif___0byaS4RQFXVn523rY4,0.006094599999996397
warteg berkah,4.6,15,-6.260322299999999,106.8433643,"jl. raya pasar minggu no.4, rt.5/rw.8, kalibata, kota jakarta selatan",ChIJHzBDQ0ryaS4RnbkZLtNcKPg,0.015037600000008311
warteg rido ilahi,5,1,-6.2545115,106.83366,"jl. duren tiga raya no.54, rt.4/rw.1, duren tiga, kota jakarta selatan",ChIJnwuHRMzzaS4RMUc33pEyWKc,0.020798700000002057
warteg lestari,4,1,-6.273784999999999,106.831858,"jl. amil no.mor 82, rt.12/rw.5, kalibata, kota jakarta selatan",ChIJv-QyhTzyaS4RpaVm0DGelts,0.009931400000000146
warteg bahari,0,0,-6.2876967,106.8234272,"jl. hankam no.rt.5, rt.8/rw.11, ragunan, kota jakarta selatan",ChIJzb7lNIjzaS4RN5d-ACBV1BQ,0.032273899999999855
warteg jaya makmur,0,0,-6.2658181,106.8442605,"jl. raya pasar minggu, rt.13/rw.1, pejaten tim., kota jakarta selatan",ChIJHdODV0jyaS4RZvtForGZfpo,0.01043800000000683
makmur restaurant,4.4,51,-6.287111899999999,106.825406,"jl. taman margasatwa raya no.16, rt.4/rw.11, ragunan, kota jakarta selatan",ChIJ45sNFRvyaS4ROMnssJC0o4w,0.02971029999999608
warteg wahyu,4.3,3,-6.268618999999999,106.8460563,"jl. raya pasar minggu no.8c, rt.12/rw.1, pejaten tim., kota jakarta selatan",ChIJqRViPUbyaS4RWCZ0G5hXc0A,0.009432900000003741
warteg kharisma bahari,3.8,21,-6.253233,106.8373344,"jl. duren tiga raya no.41, rt.5/rw.6, duren tiga, kota jakarta selatan",ChIJYwBuaqbzaS4Rc_bfFtZiX4c,0.01840279999999339
warteg bude murmer,4.4,5,-6.280967899999999,106.8321397,"jl. jatipadang utara no.76, rt.13/rw.2, jati padang, kota jakarta selatan",ChIJx-DcBhfyaS4REQ7pgK-jCIY,0.016832599999998088
warteg ibu wiwi,4.6,81,-6.2724758,106.8409511,"jl. warga i ma no.69, rt.14/rw.3, pejaten bar., kota jakarta selatan",ChIJ3dzsrjjyaS4R8q0L6svz864,0.004456700000001312
warteg dapuk,4.1,113,-6.253419900000001,106.8384314,"jl. duren tiga selatan, rt.3/rw.6, duren tiga, kota jakarta selatan",ChIJpbbHNhfzaS4RXx6_ORxH6x8,0.017118899999990944
warteg bercahaya,4.4,5,-6.258806,106.835951,"jl. duren tiga selatan, rt.15/rw.2, duren tiga, kota jakarta selatan",ChIJr-4DwjnzaS4RqpDIg1cSgx8,0.014213200000002146
warteg sumber rejeki,5,1,-6.283827199999999,106.8441046,"terminal pasar minggu jalan raya pasar minggu no. 30 pasar minggu, rt.4/rw.1, ps. minggu, kota jakarta selatan",ChIJb9qSYCvzaS4RiqBMRxBOCtM,0.018961599999997247
warteg salihara jaya,0,0,-6.2836773,106.8379738,"jl. salihara no.4, rt.1/rw.1, jati padang, kota jakarta selatan",ChIJv-WeJvrzaS4RfXSsnFri7Ow,0.01370789999999733
warteg syarifah,4.5,6,-6.2774047,106.8271283,"jalan pejaten barat raya no. 34, pejaten barat, pasar minggu, rt.8/rw.8, pejaten bar., kota jakarta selatan",ChIJpYy2t5vzaS4RcUV5QF7iD_c,0.01828079999999943
warteg pesona bahari,4.5,6,-6.2532369,106.8426154,"jl. raya pasar minggu no.46, rt.3/rw.7, duren tiga, kota jakarta selatan",ChIJtb4l6bXzaS4RroOmPgeOchY,0.02137410000000184
warteg pancoran,4.2,67,-6.262366099999999,106.8458853,"jl. kalibata timur no.49, rt.9/rw.8, kalibata, kota jakarta selatan",ChIJBf9O3kvyaS4RfEJORj-sS-w,0.01551480000000982
warteg kharisi,4.4,10,-6.283484,106.8442475,"jl. raya pasar minggu no.51, rt.2/rw.1, ps. minggu, kota jakarta selatan",ChIJ1Tygh2zyaS4Ryn9K-LsJmfw,0.01876129999999776
warteg nusantara multisukma,4.9,7,-6.272241999999999,106.8308732,"jl. warung buncit raya no.448, rt.3/rw.5, kalibata, kota jakarta selatan",ChIJr7nBP9vzaS4RYhYly09xFB8,0.009373199999997972
warteg kowantara jaksel,5,1,-6.272705999999999,106.8375609,"jl. amil no.7, rt.4/rw.3, pejaten bar., kota jakarta selatan",ChIJ0-t3MTnyaS4RC2XU2vafM4E,0.0031494999999965856
warteg putri,5,3,-6.269626499999999,106.8306391,"jl. warung buncit raya no.36, rt.9/rw.5, kalibata, kota jakarta selatan",ChIJT1AnxzryaS4R7DHv3FSdifk,0.008704599999997953
warteg rina jaya,4.4,194,-6.2796813,106.8345414,"jl. pejaten raya no.3, rt.13/rw.2, pejaten bar., kota jakarta selatan",ChIJwczEahbyaS4RGCdN8Ov_b8k,0.01314429999999156
warteg khalimah baru,4,2,-6.2852673,106.8261658,"jl. warung jati barat no.7, rt.3/rw.11, ragunan, kota jakarta selatan",ChIJu4i9zRvyaS4R-1xT8Fi6L9Q,0.027105899999999572
warteg family xii,5,1,-6.258811,106.835822,"jl. duren tiga selatan, rt.9/rw.2, duren tiga, dki jakarta",ChIJH8VAoTTyaS4RAyniWwYEJqs,0.014337200000003492
wahyoo warteg anugrah,5,1,-6.2672571,106.8374,"jl. siaga raya no.9, rt.14/rw.4, pejaten bar., kota jakarta selatan",ChIJzUyWbjfyaS4R0FBhXmuLbwo,0.004313099999993852
warteg ridho ibu,4.7,23,-6.2788415,106.8452431,"pertigaan lampu merah, jl. raya pasar minggu jl. pejaten raya, rt.6/rw.1, ps. minggu, kota jakarta selatan",ChIJ_xwCb2ryaS4ROv5tGwzA-2I,0.015114400000008743
warteg rinjani,4.9,55,-6.2681949,106.8400081,"gang f no.19 rt 12, rt.1/rw.1, pejaten bar., kota jakarta selatan",ChIJCTcN-EfyaS4R-7UcC_gPMMk,0.003808800000007828
wahyoo warteg bahari,5,1,-6.2632667,106.8310505,"jalan warung jati timur raya nomor 9b buncit kalibata, jakarta selatan rt.1.010 9, rt.1/rw.9, kalibata, kota jakarta selatan",ChIJP8Vv2uDzaS4RcSz03_MY984,0.014652999999992922
warteg ariel,5,2,-6.281502199999999,106.8350205,"jl. jambu no.5, rt.5/rw.10, jati padang, kota jakarta selatan",ChIJGYcvmxbyaS4RCVXS1rnzbbQ,0.014486099999998281
