nama_tempat,rating_tempat,user_ratings_total,latitude,longitude,alamat_tempat,place_id,distance
warteg,4.4,175,-6.2730144,106.8148675,"jl. kemang sel., rt.5/rw.6, cipete sel., kota jakarta selatan",ChIJwTeEN4bxaS4RuMOTs5rkpNI,0.006582299999990937
warteg bahari,5,1,-6.265148,106.8239236,"jl. kemang timur no.43, rt.9/rw.3, bangka, kota jakarta selatan",ChIJqyITzS7yaS4RBLkOO45wYq8,0.02264660000000429
warteg bu turah,4.4,31,-6.2613799,106.802347,"jakarta selatan, rt.6/rw.2, cipete utara, kota jakarta selatan",ChIJIwFTrZ3xaS4R8yZkk2Jr6pU,0.0307372999999993
warteg kharisma bahari,4.4,134,-6.2641376,106.8090111,"jl. khm. naim iii no.11, rt.5/rw.9, cipete utara, kota jakarta selatan",ChIJ32eNfYTxaS4RPMzLYLN43zk,0.021315499999990273
warteg mandiri,4.1,10,-6.266043,106.808127,"jl. duren tiga raya no.48, rt.4/rw.1, duren tiga, kota jakarta selatan",ChIJyyDNSszzaS4RNwTh3ojM5zc,0.02029419999999771
warteg kharisma bahari / tasripin,4.4,118,-6.2780903,106.8049547,"jl. cipete raya no.1a, rt.8/rw.4, cipete sel., kota jakarta selatan",ChIJ92bavZLxaS4RuyRU7t5bjv4,0.011419200000000629
warteg podoworo,3,1,-6.2881446,106.8248379,"jalan taman rt 001 rw 006 ragunan, jl. margasatwa bar., rt.6/rw.1, ragunan, dki jakarta",ChIJfyE8aRvyaS4R6c6Jt_g30VU,0.01851830000000909
warteg selaras bahari,4.7,3,-6.264349999999999,106.797745,"jl. nangka, rt.2/rw.5, cipete utara, kota jakarta selatan",ChIJ41bAP_jxaS4Rf50QI4ZoMsA,0.03236919999999088
warteg citr sari,4.4,36,-6.2948572,106.8108821,"jl. jaha no.12, rt.4/rw.1, cilandak tim., kota jakarta selatan",ChIJa26PDvzxaS4RPcEvbwGIn2o,0.02010409999999574
warteg bahari,0,0,-6.2755442,106.8303481,"jl. amil no.75, rt.12/rw.5, kalibata, kota jakarta selatan",ChIJe16ZcBPtaS4RW-hMZ2nPRU0,0.01867489999999883
warteg minah,4.2,20,-6.284747299999999,106.8190653,"jl. ampera raya no.4a, rt.1/rw.6, ragunan, kota jakarta selatan",ChIJkYmc6x3yaS4RqZV67z9_CEM,0.009348400000008361
warteg barokah,4.2,6,-6.2864494,106.8260434,"kompleks bri, jl. warung jati barat no.20, rt.6/rw.5, jati padang, kota jakarta selatan",ChIJb8u_BxvyaS4RUqurz7FUx6Q,0.018028600000007167
warteg pusri,4.3,74,-6.2685656,106.8185455,"jl. kemang dalam x, rt.5/rw.2, bangka, kota jakarta selatan",ChIJB2v5ByjyaS4ROSpxhg8l-Gg,0.013850900000003108
warteg hidayah,5,1,-6.2718263,106.8276766,"5, jl. kamboja no.43, rw.8, pejaten bar.",ChIJeSROtLjzaS4RolubxfAMtik,0.019721300000007602
warteg berkah,4.3,170,-6.267711599999999,106.8222851,"jl. kemang tim. xii no.7, rt.6/rw.3, bangka, kota jakarta selatan",ChIJ88zNkSjyaS4RS0o4mSnunYM,0.018444500000006414
warteg,4.3,47,-6.2765407,106.824222,"warteg, jalan pejatan barat raya, rt.2/rw.8, pejaten bar., kota jakarta selatan",ChIJzR3iLiLyaS4R_HUpPw1-R4w,0.01155230000000973
warteg jaya bahari,4.5,49,-6.2666981,106.8037732,"jl. abdul majid raya, rt.11/rw.7, cipete utara, kota jakarta selatan",ChIJPc4q_ZrxaS4Rnb65HJWKVAM,0.023992900000001427
warteg 99,4.2,23,-6.274098,106.8220901,"jl. kecapi no.3, rt.14/rw.8, pejaten bar., kota jakarta selatan",ChIJy4TQMiHyaS4RyI3wvKzIVBE,0.011863100000000237
warteg sarapada 4 ibu,4.2,69,-6.278181399999999,106.8079133,"jl. cipete raya no.61, rt.9/rw.4, cipete sel., kota jakarta selatan",ChIJiZAGPI3xaS4RhKCoGnkNB9E,0.008369500000001473
warteg kharisma bahari,4.3,3,-6.279150599999999,106.8329876,"jl. pejaten raya no.15 c, rt.13/rw.2, jati padang, kota jakarta selatan",ChIJfWkl1PbzaS4Re06oh4i800E,0.017708000000000723
warteg blimbing,4.4,5,-6.2890766,106.8290214,"pr6h+9j6, rt.7/rw.3, jati padang, south jakarta city",ChIJu92WUQXyaS4RLrjfDCodW6E,0.023633800000005145
warteg falah,4.7,31,-6.2658992,106.8237261,"jl. kemang raya no.48, rt.6/rw.3, bangka, kota jakarta selatan",ChIJCXwsr6jzaS4RBkWHb4JImQI,0.02169790000000571
warteg citra bahari,3.3,3,-6.267001899999999,106.8115929,"jalan haji abdul majid, rt.6/rw.7, cipete sel., kota jakarta selatan",ChIJ6yqP2YXxaS4R8AJUoEswT1U,0.01586940000000414
warteg ellya,4.5,112,-6.279879999999999,106.818121,"jl. madrasah no.7, rt.5/rw.6, cilandak tim., kota jakarta selatan",ChIJEd0jgMvvaS4R_0_i9wEeWik,0.003536800000007112
warteg yayu,4.4,8,-6.272869399999999,106.809681,"jl. puri sakti i no.26a, rt.2/rw.7, cipete sel., kota jakarta selatan",ChIJCbKCjY7xaS4Rq_MXqOSXik8,0.01191379999999942
warteg pakde,4.5,4,-6.285798799999999,106.8326681,"jl. sebret no.5, rt.5/rw.7, jati padang, kota jakarta selatan",ChIJwX_mARHyaS4Ra-dlOKYby4k,0.02400270000000937
warteg hidayah,4.4,19,-6.288495999999999,106.8070396,"jl. pangeran antasari gg. swadaya iii, rt.1/rw.1, cilandak bar., kota jakarta selatan",ChIJo4IhF_DxaS4R6ClUf1MaOcY,0.01758539999999975
warteg restu ibu,5,1,-6.270690699999999,106.7972883,"jl. rs. fatmawati raya no.234, rt.1/rw.4, gandaria sel., kota jakarta selatan",ChIJMe6GgpfxaS4RiahGZqvF6BA,0.02648519999999177
warteg mitra,4.8,5,-6.291395,106.802194,"jalan cilandak tengah iv no. 14c rt.003/001, rt.3/rw.1, cilandak bar., kota jakarta selatan",ChIJvx31k13xaS4Rm_CEsaEukh8,0.025329999999995856
warteg mekar jaya (wmj),3,2,-6.270124,106.79727,"jl. rs. fatmawati raya no.8-1, rt.1/rw.4, gandaria sel., kota jakarta selatan",ChIJv83Pi4fxaS4R5cjVT7Qyq0U,0.027070199999998934
warteg,5,1,-6.2920247,106.8288391,"jl. raya jatipadang, rt.6/rw.9, jati padang, kota jakarta selatan",ChIJt-IwkAXyaS4RwooxjP6ylBg,0.026399599999999523
warteg lestari,4,1,-6.273784999999999,106.831858,"jl. amil no.mor 82, rt.12/rw.5, kalibata, kota jakarta selatan",ChIJv-QyhTzyaS4RpaVm0DGelts,0.021944000000001296
warteg bahari,0,0,-6.2876967,106.8234272,"jl. hankam no.rt.5, rt.8/rw.11, ragunan, kota jakarta selatan",ChIJzb7lNIjzaS4RN5d-ACBV1BQ,0.016659700000000832
warteg b 464 s,5,1,-6.285446899999999,106.8186179,"jalan ampera raya no.10, rt.8/rw.2, cilandak timur, pasar minggu, rt.8/rw.2, cilandak tim., kota jakarta selatan",ChIJ73ANkh3yaS4RbT5kf2OMn1M,0.009600600000009507
warteg bdn,4.5,4,-6.280281,106.7995857,"pq9x+vrp, rt.10/rw.11, west cilandak, south jakarta city",ChIJWUq0u0_xaS4RiyQ-DFBvI7Y,0.016824300000001458
makmur restaurant,4.4,51,-6.287111899999999,106.825406,"jl. taman margasatwa raya no.16, rt.4/rw.11, ragunan, kota jakarta selatan",ChIJ45sNFRvyaS4ROMnssJC0o4w,0.018053700000003836
warteg bude murmer,4.4,5,-6.280967899999999,106.8321397,"jl. jatipadang utara no.76, rt.13/rw.2, jati padang, kota jakarta selatan",ChIJx-DcBhfyaS4REQ7pgK-jCIY,0.018643400000001975
warteg aulia,0,0,-6.2620442,106.833406,"jl. kalibata tengah no.3, rt.3/rw.3, kalibata, kota jakarta selatan",ChIJVyjnxTPyaS4Rx0Z0jpu1Dys,0.035232800000000175
warteg mpr,4.4,54,-6.284384999999999,106.8066329,"jl. m.p.r iii no.dalam, rt.12/rw.13, cilandak bar., kota jakarta selatan",ChIJcbdCnQ_xaS4RmrM1BqjXTjs,0.01388109999999898
warteg syarifah,4.5,6,-6.2774047,106.8271283,"jalan pejaten barat raya no. 34, pejaten barat, pasar minggu, rt.8/rw.8, pejaten bar., kota jakarta selatan",ChIJpYy2t5vzaS4RcUV5QF7iD_c,0.01359460000000201
warteg ibu saroh,4.5,36,-6.2929705,106.8335444,"pr4m+rc7, rt.11/rw.6, jati padang, south jakarta city",ChIJU_yaxQ7yaS4RCS3YHajblLY,0.032050699999997434
warteg nusantara multisukma,4.9,7,-6.272241999999999,106.8308732,"jl. warung buncit raya no.448, rt.3/rw.5, kalibata, kota jakarta selatan",ChIJr7nBP9vzaS4RYhYly09xFB8,0.02250220000000347
warteg mitra,5,1,-6.289324,106.80192,"jl. cilandak tengah raya, rt.2/rw.1, cilandak bar., kota jakarta selatan",ChIJpeh2ueXxaS4RcRkr1GzS7ZI,0.02353300000000047
warteg berkah,4.5,352,-6.2709113,106.8237082,"jl. kemang timur, rt.14, pejaten bar., kota jakarta selatan",ChIJDfIMgCbyaS4RiEmI4B0u6BA,0.01666790000000251
warteg khalimah baru,4,2,-6.2852673,106.8261658,"jl. warung jati barat no.7, rt.3/rw.11, ragunan, kota jakarta selatan",ChIJu4i9zRvyaS4R-1xT8Fi6L9Q,0.016968900000001952
warteg wagetun,4.3,14,-6.2716344,106.815337,"jl. kemang raya no.95 e, rt.1/rw.2, bangka, kota jakarta selatan",ChIJh867ronxaS4Rc0hjpvuWHW8,0.007573600000003289
warteg murah meriah,4,5,-6.2668583,106.8019914,"jl. abdul majid raya no.30, rt.11/rw.2, cipete sel., kota jakarta selatan",ChIJYxvXSJrxaS4R-Sgik59q2Nk,0.02561449999999077
warteg kharisma bahari,0,0,-6.264571,106.799726,"jl. abdul majid raya, rt.13/rw.2, cipete utara, kota jakarta selatan",ChIJNyMYqAPxaS4R7gNXNMCSNY4,0.030167199999989514
warteg sederhana,4.4,48,-6.264538000000001,106.8089784,"jl. khm. naim iii b no.11, rt.7/rw.9, cipete utara, kota jakarta selatan",ChIJMWiYWoTxaS4R7M_b64dog7Y,0.020947799999994743
wahyoo warteg sebelah gg haji miad,4.8,10,-6.2667242,106.8040901,"jl. abdul majid raya no.3, rt.11/rw.7, cipete sel., kota jakarta selatan",ChIJuU9W4prxaS4Ry-10NNDr1Hk,0.023649900000000557
warteg rofiq,4.9,9,-6.2779121,106.8157755,"jl. benda dalam no.16c, rt.6/rw.4, cilandak tim., kota jakarta selatan",ChIJbwekxIrxaS4RxnyZ7wN_crA,0.0017344000000045767
warteg citra sari,4.3,153,-6.2973101,106.8034148,"jl. cilandak permai raya, rt.6/rw.2, cilandak bar., kota jakarta selatan",ChIJm_Bx_uLxaS4RHQkTq7aFOVA,0.03002429999999734
warteg kholifah,5,1,-6.270166,106.808964,"jl. manunggal juang no.1, rt.2/rw.3, cipete sel., kota jakarta selatan",ChIJTW4uAObxaS4RztgSpLTVsBs,0.015334199999993636
warteg timbul jaya,4.3,7,-6.296675899999999,106.8154811,"jl. raya cilandak kko, rt.1/rw.5, ragunan, kota jakarta selatan",ChIJuWquB__xaS4RYDo6gb4GQAk,0.017692800000002507
warteg brambang salam,4.5,4,-6.2892606,106.8030518,"jl. cilandak tengah ii no.10, rt.3/rw.1, cilandak bar., kota jakarta selatan",ChIJKwtXf-_xaS4RMB6kW-c9w-s,0.02233779999999097
warteg jaya bahari - 24 jam,5,1,-6.2739129,106.8315947,"jl. amil jl. warung buncit raya no.74, rt.12/rw.5, kalibata, kota jakarta selatan",ChIJ2dPk42_zaS4R0S43y6lJrTo,0.02155280000000026
warteg kharisma elegant cab warung jati,4.5,328,-6.289969200000001,106.8240129,"jl. marga satwa raya no no.16, rt.5/rw.1, ragunan, kota jakarta selatan",ChIJd9d3xQnvaS4RatGPrzFuWSo,0.019517900000003863
warteg kar1mah bahari,4.7,3,-6.260486299999999,106.8232763,"jl. kemang timur no.21, rt.5/rw.4, bangka, kota jakarta selatan",ChIJ-SQ7eSvyaS4RTa4L3WszsgE,0.026661000000007817
warteg kharisma bahari,5,3,-6.2759284,106.8295911,"jl. warung buncit raya no.22, rt.2/rw.7, pejaten bar., kota jakarta selatan",ChIJr34CQ3TzaS4RNFQjP7nfZlQ,0.01753370000000576
warteg nur hikmah,4.3,13,-6.2781747,106.8314941,"jl. condet pejaten no.13, rt.1/rw.7, pejaten bar., dki jakarta",ChIJC7jNFD3yaS4R4IIarTFrDig,0.017190400000004047
