nama_tempat,rating_tempat,user_ratings_total,latitude,longitude,alamat_tempat,place_id,distance
warteg berkah,5,1,-6.348489,106.8092822,"jl. persahabatan jl. al hidayah no.depan, rt.7/rw.4, cipedak, kota jakarta selatan",ChIJrTtBkz_vaS4RM_q9e0hsxFo,0
warteg barokah,5,1,-6.3409594,106.8045262,"jl. moh. kafi 1, rt.8/rw.6, ciganjur, kota jakarta selatan",ChIJS-_6IYjuaS4RCWnFbM2Q_oo,0
warteg iklas bahari,0,0,-6.3429015,106.8042627,"jalan mohammad kafi 1, rt.10/rw.6, ciganjur, kota jakarta selatan",ChIJv_gbXIjuaS4RyUD-32Qqfo4,0
warteg berkah jaya,4.4,21,-6.345132,106.8093445,"jl. wr. sila no.18, rt.2/rw.4, ciganjur, kota jakarta selatan",ChIJZ1Lqh4buaS4Rw8fk46VIZuA,0
warteg sumber bawang,4.4,206,-6.344439599999999,106.8040378,"jl. moh. kahfi 1, rt.1/rw.1, ciganjur, kota jakarta selatan",ChIJhz55wojuaS4R-KaNc47K20M,0
warteg restu,0,0,-6.3513085,106.7978372,"jl. aselih no.14b, rt.9/rw.1, cipedak, kota jakarta selatan",ChIJNQK2eZLuaS4RttPSfhgXmLc,0
warteg kharisma bahari,4.3,8,-6.3454731,106.8097982,"jl. wr. sila no.80, rt.11/rw.4, cipedak, kota jakarta selatan",ChIJ90chnYbuaS4Rzqstt0ktS28,0
warteg mulia,0,0,-6.3502839,106.8040441,"jrx3+vjm, rt.7/rw.4, cipedak, south jakarta city",ChIJSR_TxI_uaS4RdrJuFxWH9Rs,0
warteg jejeg,4.5,12,-6.3450925,106.803771,"jl. moh. kahfi 1 no.49, rt.1/rw.1, cipedak, kota jakarta selatan",ChIJIyxG0IjuaS4RYHrrI_r0RgE,0
warteg mbak atun,3,2,-6.344809799999999,106.8051393,"jl. wr. sila no.8, rt.3/rw.4, cipedak, kota jakarta selatan",ChIJJTyUu4juaS4Rv8XPZx72rIo,0
warteg ibu ii,5,1,-6.3387432,106.8100366,"jl. anda no.40, rt.7/rw.3, ciganjur, kota jakarta selatan",ChIJ1U0uun3uaS4R6jiVvN2PrkQ,0
warteg bude,5,1,-6.3510366,106.8090699,"jl. timbul no.32 c, rt.6/rw.5, cipedak, kota jakarta selatan",ChIJEVcrr77vaS4RC5wEXqjsYCk,0
warteg citra bahari,4.6,5,-6.3478137,106.8024005,"jl. moh. kahfi 1, rt.4/rw.4, cipedak, kota jakarta selatan",ChIJtZWn-o7uaS4RWlkefebI9QA,0
warteg el ghani,0,0,-6.340927499999999,106.8046004,"jl. moh. kahfi 1 no.3, rt.8/rw.6, ciganjur, kota jakarta selatan",ChIJEwn1F4juaS4RHTnTwioaHcA,0
warteg subsidi bahari (brigif),4.5,21,-6.34417,106.801725,"jl. brigif no.15, rw.1, cipedak, kota jakarta selatan",ChIJd9qZ6SvvaS4Rb5a45_mOGik,0
warteg kharisma bahari,5,1,-6.350861099999999,106.8016661,"jl. moh. kahfi 1 no.32, rt.6/rw.1, cipedak, kota jakarta selatan",ChIJ7zWYA97vaS4RdTPmuGMTOnw,0
warteg al kafi,4,1,-6.352709,106.801205,"m jagakarsa, jl. moh. kahfi 1, rt.7/rw.1, cipedak, dki jakarta",ChIJzTJq3F_uaS4RsBxNsp5y-Do,0
warteg bahari soto ayam,0,0,-6.3516654,106.8002509,"jl. aselih, rt.7/rw.1, cipedak, kota jakarta selatan",ChIJiZ0j-JHuaS4Rb3QUIvC05xg,0
warteg berkah,5,1,-6.348489,106.8092822,"jl. persahabatan jl. al hidayah no.depan, rt.7/rw.4, cipedak, kota jakarta selatan",ChIJrTtBkz_vaS4RM_q9e0hsxFo,0
warteg barokah,5,1,-6.3409594,106.8045262,"jl. moh. kafi 1, rt.8/rw.6, ciganjur, kota jakarta selatan",ChIJS-_6IYjuaS4RCWnFbM2Q_oo,0
warteg iklas bahari,0,0,-6.3429015,106.8042627,"jalan mohammad kafi 1, rt.10/rw.6, ciganjur, kota jakarta selatan",ChIJv_gbXIjuaS4RyUD-32Qqfo4,0
warteg berkah jaya,4.4,21,-6.345132,106.8093445,"jl. wr. sila no.18, rt.2/rw.4, ciganjur, kota jakarta selatan",ChIJZ1Lqh4buaS4Rw8fk46VIZuA,0
warteg sumber bawang,4.4,206,-6.344439599999999,106.8040378,"jl. moh. kahfi 1, rt.1/rw.1, ciganjur, kota jakarta selatan",ChIJhz55wojuaS4R-KaNc47K20M,0
warteg kharisma bahari,4.3,8,-6.3454731,106.8097982,"jl. wr. sila no.80, rt.11/rw.4, cipedak, kota jakarta selatan",ChIJ90chnYbuaS4Rzqstt0ktS28,0
warteg mulia,0,0,-6.3502839,106.8040441,"jrx3+vjm, rt.7/rw.4, cipedak, south jakarta city",ChIJSR_TxI_uaS4RdrJuFxWH9Rs,0
warteg jejeg,4.5,12,-6.3450925,106.803771,"jl. moh. kahfi 1 no.49, rt.1/rw.1, cipedak, kota jakarta selatan",ChIJIyxG0IjuaS4RYHrrI_r0RgE,0
warteg mbak atun,3,2,-6.344809799999999,106.8051393,"jl. wr. sila no.8, rt.3/rw.4, cipedak, kota jakarta selatan",ChIJJTyUu4juaS4Rv8XPZx72rIo,0
warteg ibu ii,5,1,-6.3387432,106.8100366,"jl. anda no.40, rt.7/rw.3, ciganjur, kota jakarta selatan",ChIJ1U0uun3uaS4R6jiVvN2PrkQ,0
warteg citra bahari,4.6,5,-6.3478137,106.8024005,"jl. moh. kahfi 1, rt.4/rw.4, cipedak, kota jakarta selatan",ChIJtZWn-o7uaS4RWlkefebI9QA,0
warteg el ghani,0,0,-6.340927499999999,106.8046004,"jl. moh. kahfi 1 no.3, rt.8/rw.6, ciganjur, kota jakarta selatan",ChIJEwn1F4juaS4RHTnTwioaHcA,0
warteg subsidi bahari (brigif),4.5,21,-6.34417,106.801725,"jl. brigif no.15, rw.1, cipedak, kota jakarta selatan",ChIJd9qZ6SvvaS4Rb5a45_mOGik,0
warteg kharisma bahari,5,1,-6.350861099999999,106.8016661,"jl. moh. kahfi 1 no.32, rt.6/rw.1, cipedak, kota jakarta selatan",ChIJ7zWYA97vaS4RdTPmuGMTOnw,0
warteg bude,5,1,-6.3510366,106.8090699,"jl. timbul no.32 c, rt.6/rw.5, cipedak, kota jakarta selatan",ChIJEVcrr77vaS4RC5wEXqjsYCk,0
warteg restu,0,0,-6.3513085,106.7978372,"jl. aselih no.14b, rt.9/rw.1, cipedak, kota jakarta selatan",ChIJNQK2eZLuaS4RttPSfhgXmLc,0
warteg lestari,4,4,-6.3439587,106.8124173,"jl. wr. sila no.18, rt.1/rw.5, ciganjur, kota jakarta selatan",ChIJ0x-3NoHuaS4RQoCQAgYvm5Y,0
warteg al kafi,4,1,-6.352709,106.801205,"m jagakarsa, jl. moh. kahfi 1, rt.7/rw.1, cipedak, dki jakarta",ChIJzTJq3F_uaS4RsBxNsp5y-Do,0
warteg permata,4.6,9,-6.3443801,106.8123741,"jl. wr. sila no.45, rt.8/rw.5, cipedak, kota jakarta selatan",ChIJiSWaSYHuaS4RLPo-axRVSsE,0
warteg bahari soto ayam,0,0,-6.3516654,106.8002509,"jl. aselih, rt.7/rw.1, cipedak, kota jakarta selatan",ChIJiZ0j-JHuaS4Rb3QUIvC05xg,0
warteg permata bahari,5,3,-6.3515496,106.8119013,"jl. moch. kahfi ii, rt.5/rw.5, cipedak, kota jakarta selatan",ChIJGR6hWJvuaS4Rhu2g9bTCKCE,0
warteg slawi ayu,0,0,-6.335947000000001,106.8060299,"jl. moh. kahfi 1 no.24, rt.8/rw.1, ciganjur, kota jakarta selatan",ChIJXU8EqXzuaS4REe3G5liZP3k,0
warteg berkah jaya,0,0,-6.3488039,106.7958235,"jl. aselih raya, rt.10/rw.1, cipedak, kota jakarta selatan",ChIJMXIKH43uaS4RcExiMWQXLgU,0
warteg etja kallan,0,0,-6.3483151,106.8019046,"jl. moh. kahfi 1 no.2a, rt.5/rw.1, cipedak, kota jakarta selatan",ChIJp9PS9Y7uaS4RH3Igt1DhpsQ,0
warteg parin jaya,5,1,-6.3520996,106.8110548,"jl. timbul no.28, rt.5/rw.3, cipedak, kota jakarta selatan",ChIJCVZPaJvuaS4RvQc8kA5ZIC4,0
warteg berkah,5,1,-6.348489,106.8092822,"jl. persahabatan jl. al hidayah no.depan, rt.7/rw.4, cipedak, kota jakarta selatan",ChIJrTtBkz_vaS4RM_q9e0hsxFo,0
warteg barokah,5,1,-6.3409594,106.8045262,"jl. moh. kafi 1, rt.8/rw.6, ciganjur, kota jakarta selatan",ChIJS-_6IYjuaS4RCWnFbM2Q_oo,0
warteg iklas bahari,0,0,-6.3429015,106.8042627,"jalan mohammad kafi 1, rt.10/rw.6, ciganjur, kota jakarta selatan",ChIJv_gbXIjuaS4RyUD-32Qqfo4,0
warteg berkah jaya,4.4,21,-6.345132,106.8093445,"jl. wr. sila no.18, rt.2/rw.4, ciganjur, kota jakarta selatan",ChIJZ1Lqh4buaS4Rw8fk46VIZuA,0
warteg sumber bawang,4.4,206,-6.344439599999999,106.8040378,"jl. moh. kahfi 1, rt.1/rw.1, ciganjur, kota jakarta selatan",ChIJhz55wojuaS4R-KaNc47K20M,0
warteg kharisma bahari,4.3,8,-6.3454731,106.8097982,"jl. wr. sila no.80, rt.11/rw.4, cipedak, kota jakarta selatan",ChIJ90chnYbuaS4Rzqstt0ktS28,0
warteg mulia,0,0,-6.3502839,106.8040441,"jrx3+vjm, rt.7/rw.4, cipedak, south jakarta city",ChIJSR_TxI_uaS4RdrJuFxWH9Rs,0
warteg jejeg,4.5,12,-6.3450925,106.803771,"jl. moh. kahfi 1 no.49, rt.1/rw.1, cipedak, kota jakarta selatan",ChIJIyxG0IjuaS4RYHrrI_r0RgE,0
warteg ibu ii,5,1,-6.3387432,106.8100366,"jl. anda no.40, rt.7/rw.3, ciganjur, kota jakarta selatan",ChIJ1U0uun3uaS4R6jiVvN2PrkQ,0
warteg mbak atun,3,2,-6.344809799999999,106.8051393,"jl. wr. sila no.8, rt.3/rw.4, cipedak, kota jakarta selatan",ChIJJTyUu4juaS4Rv8XPZx72rIo,0
warteg bude,5,1,-6.3510366,106.8090699,"jl. timbul no.32 c, rt.6/rw.5, cipedak, kota jakarta selatan",ChIJEVcrr77vaS4RC5wEXqjsYCk,0
warteg citra bahari,4.6,5,-6.3478137,106.8024005,"jl. moh. kahfi 1, rt.4/rw.4, cipedak, kota jakarta selatan",ChIJtZWn-o7uaS4RWlkefebI9QA,0
warteg el ghani,0,0,-6.340927499999999,106.8046004,"jl. moh. kahfi 1 no.3, rt.8/rw.6, ciganjur, kota jakarta selatan",ChIJEwn1F4juaS4RHTnTwioaHcA,0
warteg lestari,4,4,-6.3439587,106.8124173,"jl. wr. sila no.18, rt.1/rw.5, ciganjur, kota jakarta selatan",ChIJ0x-3NoHuaS4RQoCQAgYvm5Y,0
warteg subsidi bahari (brigif),4.5,21,-6.34417,106.801725,"jl. brigif no.15, rw.1, cipedak, kota jakarta selatan",ChIJd9qZ6SvvaS4Rb5a45_mOGik,0
warteg kharisma bahari,5,1,-6.350861099999999,106.8016661,"jl. moh. kahfi 1 no.32, rt.6/rw.1, cipedak, kota jakarta selatan",ChIJ7zWYA97vaS4RdTPmuGMTOnw,0
warteg al kafi,4,1,-6.352709,106.801205,"m jagakarsa, jl. moh. kahfi 1, rt.7/rw.1, cipedak, dki jakarta",ChIJzTJq3F_uaS4RsBxNsp5y-Do,0
warteg permata,4.6,9,-6.3443801,106.8123741,"jl. wr. sila no.45, rt.8/rw.5, cipedak, kota jakarta selatan",ChIJiSWaSYHuaS4RLPo-axRVSsE,0
warteg sederhana,3,1,-6.348504399999999,106.8132192,"jl. moch. kahfi ii, rt.3/rw.5, cipedak, kota jakarta selatan",ChIJVXEDQSrvaS4RTlWC4v76vTo,0
warteg restu,0,0,-6.3513085,106.7978372,"jl. aselih no.14b, rt.9/rw.1, cipedak, kota jakarta selatan",ChIJNQK2eZLuaS4RttPSfhgXmLc,0
warteg bahari soto ayam,0,0,-6.3516654,106.8002509,"jl. aselih, rt.7/rw.1, cipedak, kota jakarta selatan",ChIJiZ0j-JHuaS4Rb3QUIvC05xg,0
podomoro warteg,0,0,-6.339612499999999,106.8133452,"jl. sadar raya no.46, rt.3/rw.4, ciganjur, kota jakarta selatan",ChIJJSzPF37uaS4RsLVYKFezhpw,0
warteg permata bahari,5,3,-6.3515496,106.8119013,"jl. moch. kahfi ii, rt.5/rw.5, cipedak, kota jakarta selatan",ChIJGR6hWJvuaS4Rhu2g9bTCKCE,0
warteg parin jaya,5,1,-6.3520996,106.8110548,"jl. timbul no.28, rt.5/rw.3, cipedak, kota jakarta selatan",ChIJCVZPaJvuaS4RvQc8kA5ZIC4,0
warteg etja kallan,0,0,-6.3483151,106.8019046,"jl. moh. kahfi 1 no.2a, rt.5/rw.1, cipedak, kota jakarta selatan",ChIJp9PS9Y7uaS4RH3Igt1DhpsQ,0
warteg bahari,4.2,46,-6.304880799999999,106.8400362,"jalan raya tanjung barat, rt.10/rw.4, tj. bar., kota jakarta selatan",ChIJ6b27QfPtaS4RC8dUftNkMY0,0
warteg berkah,4.6,42,-6.3048426,106.8336833,"jl. baung, rt.6/rw.2, kebagusan, kota jakarta selatan",ChIJS4H_O_HtaS4R9pQfTKgRCFI,0
warteg berkah,0,0,-6.309505799999999,106.8359887,"gg. langgar no.4, rt.4/rw.3, kebagusan, kota jakarta selatan",ChIJ4QfPgfDtaS4R4lMm1yCNORs,0
warteg mustikasari,5,1,-6.3062679,106.8305933,"jl. kebagusan raya no.9, rt.1/rw.7, ragunan, kota jakarta selatan",ChIJ4c6BvGXtaS4RJ0S5Mxp1mRU,0
warteg sumber rezeky,4.6,21,-6.3062951,106.8372609,"jl. baung no.25, rt.1/rw.1, agung, jagakarsa, kota jakarta selatan",ChIJc4VzS_LtaS4Rr8NjkGQp_yU,0
berkah cafe 24h,4.6,43,-6.3066685,106.8385407,"jl. baung no.42, rt.3/rw.1, lenteng agung, kota jakarta selatan",ChIJg2iY-8ztaS4RurLjKN5mHQk,0
warteg putri,3,1,-6.302890199999999,106.8415205,"no. 19 c, jl. tb simatupang, rt.10/rw.4, tj. bar., kota jakarta selatan",ChIJ3xrZUYvtaS4RhQu4uT-vTnQ,0
warteg,4.9,13,-6.3120734,106.8387784,"jl. tj. barat selatan gg. 100, rt.1/rw.2, tj. bar., kota jakarta selatan",ChIJqTxD9-ztaS4RSYz9rBTWghI,0
warteg barokah,0,0,-6.3143061,106.8365696,"jl. raya lenteng agung no.35, rt.5/rw.1, lenteng agung, kota jakarta selatan",ChIJt3HE8H7taS4R1LZMrj2XmE0,0
warteg restu ibu new,5,4,-6.3051116,106.8391281,"jl. lenteng agung raya, rt.6/rw.8, ps. minggu, kota jakarta selatan",ChIJRwPKxXvtaS4RY36uKI5C0bc,0
warteg lumintu nikmat berkhasia,0,0,-6.3056107,106.8396168,"jl. raya tj. barat no.172b, rt.10/rw.4, tj. bar., kota jakarta selatan",ChIJEcjQFfPtaS4RAzCGVezGuY8,0
warteg rizky amd,0,0,-6.305013900000001,106.838303,"jl. amd viii no.22a, rt.10/rw.1, lenteng agung, kota jakarta selatan",ChIJ0dDBrPDtaS4Rx46rv5WO4ew,0
warteg kharisma bahari,0,0,-6.3042798,106.8397581,"jl. tj. mas utama, rt.2/rw.1, tj. bar., kota jakarta selatan",ChIJc8_FkcftaS4RntcfGsAV5Bo,0
warteg ikhlas,3,2,-6.3079158,106.8318543,"kebagusan, south jakarta city",ChIJQzjVOfDtaS4RgkpT57X9td0,0
warteg caca,5,1,-6.309647099999999,106.8307612,"jl. siman enor no.14a, rt.2/rw.5, kebagusan, kota jakarta selatan",ChIJwYra5e_taS4RXSXz5jS9xWQ,0
warteg sida abadi,4.4,7,-6.305454699999999,106.8396984,"jl. raya tj. barat no.172, rt.10/rw.4, tj. bar., kota jakarta selatan",ChIJ32tvwf7taS4R7u97nqwm42A,0
warteg fajar jaya,5,2,-6.3066765,106.8386822,"jl. baung no.30a, rt.3/rw.1, lenteng agung, kota jakarta selatan",ChIJ38cl_r3taS4ROGHU2j5cL4k,0
warteg nj,3.7,3,-6.304458599999999,106.844214,"jl. nangka raya no.3, rt.8/rw.5, tj. bar., kota jakarta selatan",ChIJj8IzioztaS4RsOKFJaJJI58,0
warteg rizki,0,0,-6.305365800000001,106.8441168,"jl. langgar, rt.12/rw.8, tj. bar., kota jakarta selatan",ChIJO7Ht-YztaS4RZcW-nlSyDEk,0
eza warteg,0,0,-6.3026311,106.8321731,"jl. assakinah i, rt.9/rw.2, kebagusan, kota jakarta selatan",ChIJ416vGPftaS4RowIXtqwyr1s,0
warteg fitri,4.4,18,-6.301984,106.8412179,"jl. tj. bar. lama no.137, rt.10/rw.4, tj. bar., kota jakarta selatan",ChIJ77JlzPTtaS4RXklqFs6il7Q,0
warteg kowantara jaksel,3.4,9,-6.303653,106.829348,"jl. kebagusan besar no.1, rt.10/rw.7, kebagusan, kota jakarta selatan",ChIJv_QW_PntaS4ROq71uGXpDTs,0
warteg kharisma bahari,0,0,-6.3145114,106.8444396,"jl. tj. barat selatan, rt.7/rw.1, tj. bar., kota jakarta selatan",ChIJDeT7J8_taS4RGqupW_H0uKk,0
warteg citra brebes,0,0,-6.316599999999999,106.8372513,"jl. lenteng agung raya, rt.6/rw.1, lenteng agung, kota jakarta selatan",ChIJJ5A6S-rtaS4RQi7OJaQlvZY,0
warteg galih,5,3,-6.316114499999999,106.8286918,"rt.10/rw.4, kebagusan, south jakarta city",ChIJu-PkGfjtaS4Rhc-GBnfLK3M,0
warteg zahirah,0,0,-6.3069561,106.8276711,"jl. kebagusan raya no.9, rt.9/rw.7, kebagusan, kota jakarta selatan",ChIJ4wp88OTtaS4RcZA-oqTIObg,0
warteg elis,0,0,-6.3015076,106.8402525,"mrxr+94r, rt.3/rw.4, west tanjung, south jakarta city",ChIJCyYV3PTtaS4RbBU7iv2VkiU,0
warteg caca,4.2,5,-6.316282999999999,106.8274452,"jl. kebagusan iv no.20, rt.5/rw.4, kebagusan, kota jakarta selatan",ChIJ8ZvjT-btaS4RGwlr22A8qto,0
warteg patung macan,4.8,12,-6.3025196,106.8372788,"lenteng agung barat, rt.9/rw.1, lenteng agung, kota jakarta selatan",ChIJZcnaAf3taS4R7_ISm8N3O-M,0
