nama_tempat,rating_tempat,user_ratings_total,latitude,longitude,alamat_tempat,place_id,distance
warteg bahari,0,0,-6.337078099999999,106.8345282,"jl. lenteng agung raya, rt.4/rw.3, srengseng sawah, kota jakarta selatan",ChIJzc4VYsztaS4RLs00c7w4Ojg,0
warteg bahari,5,1,-6.3311775,106.8393482,"jl. agung raya ii, rt.8/rw.7, lenteng agung, kota jakarta selatan",ChIJuW9kRcjtaS4RLkPHh5pM2hY,0
warteg mbak cantik,5,4,-6.335045,106.8349633,"jl. lenteng agung raya no.24a, rt.4/rw.4, srengseng sawah, kota jakarta selatan",ChIJM8v1bo3taS4RGqe6dbuRH0M,0
warteg putri jaya,5,2,-6.3315537,106.8363487,"jl. agung raya ii, rt.1/rw.7, lenteng agung, kota jakarta selatan",ChIJx2sU2sjtaS4RR3KYHqbykeg,0
warteg nisa,3.5,11,-6.3287511,106.8334474,"jalan raya lenteng agung jagakarsa, rt.4/rw.5, lenteng agung, kota jakarta selatan",ChIJHzmIkMXtaS4R8eSFiuiUNXs,0
warteg berkah bahari,5,1,-6.3319271,106.8347245,"jl. moch. kahfi ii no.23, rt.1/rw.1, jagakarsa, kota jakarta selatan",ChIJN0xuou7taS4RC9sDwuihC3k,0
ojolali warteg abadi,4.4,14,-6.332816299999999,106.8338219,"jalan moh kahfi 2, rt.1/rw.5, srengseng sawah, kota jakarta selatan",ChIJXS-F687taS4R7COhdUc0NIo,0
warteg dian jaya,5,1,-6.3375559,106.8359238,"jl. camat gabun, rt.3/rw.8, lenteng agung, kota jakarta selatan",ChIJmUF_e8vtaS4RoY3KjLfrRwo,0
warteg kowantara jaksel,4.5,2,-6.333342099999999,106.8338028,"jl. rm. mo khafi ii no.1, rt.1/rw.5, srengseng sawah, kota jakarta selatan",ChIJbeUZv87taS4R86hNZ70iVdc,0
warteg kharisma bahari,0,0,-6.330429899999999,106.8352798,"jl. raya lenteng agung no.25, rt.1/rw.4, lenteng agung, kota jakarta selatan",ChIJeQaTS8_taS4R1xWerLNKgE0,0
warteg manja,4.3,27,-6.3254576,106.8342049,"jl. raya lenteng agung, rt.3/rw.3, lenteng agung, kota jakarta selatan",ChIJ1b4CFcTtaS4RPvs-5jDG7Wg,0
warteg sami asih,4.2,56,-6.3235961,106.8353888,"jl. lenteng agung, rt.10/rw.2, lenteng agung, kota jakarta selatan",ChIJqX7b4sPtaS4R_Y9DGfEsf8Y,0
warteg bude 2,0,0,-6.3250085,106.838569,"jl. lontar, rt.10/rw.3, lenteng agung, kota jakarta selatan",ChIJ73Z8J8ftaS4Rgetez1IrSb4,0
warteg dinda,0,0,-6.3311885,106.834549,"jagakarsa, south jakarta city",ChIJW9emO8_taS4RyVeJoL68oJ4,0
mini warteg,4.3,3,-6.323072,106.8372107,"jl. langga raya no.9, rt.9/rw.2, lenteng agung, kota jakarta selatan",ChIJlZpNPsHtaS4ROHt2_khtrUQ,0
warteg kompos,4.6,47,-6.3392513,106.8356531,"jl. raya lenteng agung jl. kompos no.#62, rt.11/rw.8, lenteng agung, dki jakarta",ChIJfQ3WqcztaS4RtcJBhTIEF10,0
warteg bahari asih,5,1,-6.3380287,106.8348135,"jl. raya lenteng agung no.77, rt.11/rw.8, lenteng agung, kota jakarta selatan",ChIJw-Yh24ftaS4RCxi9bA6YNlA,0
warteg lestari,4,4,-6.3439587,106.8124173,"jl. wr. sila no.18, rt.1/rw.5, ciganjur, kota jakarta selatan",ChIJ0x-3NoHuaS4RQoCQAgYvm5Y,0
warteg barokah,5,1,-6.3409594,106.8045262,"jl. moh. kafi 1, rt.8/rw.6, ciganjur, kota jakarta selatan",ChIJS-_6IYjuaS4RCWnFbM2Q_oo,0
warteg kharisma,0,0,-6.3449269,106.8143465,"jl. wr. sila no.3, rt.2/rw.5, cipedak, kota jakarta selatan",ChIJa32xcYHuaS4R6ptFVCERfUE,0
warteg permata,4.6,9,-6.3443801,106.8123741,"jl. wr. sila no.45, rt.8/rw.5, cipedak, kota jakarta selatan",ChIJiSWaSYHuaS4RLPo-axRVSsE,0
warteg iklas bahari,0,0,-6.3429015,106.8042627,"jalan mohammad kafi 1, rt.10/rw.6, ciganjur, kota jakarta selatan",ChIJv_gbXIjuaS4RyUD-32Qqfo4,0
warteg sumber bawang,4.4,206,-6.344439599999999,106.8040378,"jl. moh. kahfi 1, rt.1/rw.1, ciganjur, kota jakarta selatan",ChIJhz55wojuaS4R-KaNc47K20M,0
warteg berkah jaya,4.4,21,-6.345132,106.8093445,"jl. wr. sila no.18, rt.2/rw.4, ciganjur, kota jakarta selatan",ChIJZ1Lqh4buaS4Rw8fk46VIZuA,0
podomoro warteg,0,0,-6.339612499999999,106.8133452,"jl. sadar raya no.46, rt.3/rw.4, ciganjur, kota jakarta selatan",ChIJJSzPF37uaS4RsLVYKFezhpw,0
warteg hidayah,0,0,-6.3432027,106.8175803,"jl. moch. kahfi ii, rt.5/rw.4, srengseng sawah, kota jakarta selatan",ChIJDZmy0YHuaS4RF24q6ceBQi4,0
warteg ibu ii,5,1,-6.3387432,106.8100366,"jl. anda no.40, rt.7/rw.3, ciganjur, kota jakarta selatan",ChIJ1U0uun3uaS4R6jiVvN2PrkQ,0
warteg mbak atun,3,2,-6.344809799999999,106.8051393,"jl. wr. sila no.8, rt.3/rw.4, cipedak, kota jakarta selatan",ChIJJTyUu4juaS4Rv8XPZx72rIo,0
warteg jejeg,4.5,12,-6.3450925,106.803771,"jl. moh. kahfi 1 no.49, rt.1/rw.1, cipedak, kota jakarta selatan",ChIJIyxG0IjuaS4RYHrrI_r0RgE,0
padang & warteg 10.000 restu jaya,5,1,-6.3359603,106.8133396,"jl. gandaria ujung, rt.2/rw.4, ciganjur, kota jakarta selatan",ChIJAaQWuH7uaS4RIjxgZ3jY4pg,0
warteg slawi ayu,0,0,-6.335947000000001,106.8060299,"jl. moh. kahfi 1 no.24, rt.8/rw.1, ciganjur, kota jakarta selatan",ChIJXU8EqXzuaS4REe3G5liZP3k,0
warteg el ghani,0,0,-6.340927499999999,106.8046004,"jl. moh. kahfi 1 no.3, rt.8/rw.6, ciganjur, kota jakarta selatan",ChIJEwn1F4juaS4RHTnTwioaHcA,0
warteg kharisma bahari khafi1,5,1,-6.3332808,106.8072633,"jl.moh.khafi1 rt08/01 no 20, rt.7/rw.1, ciganjur, kota jakarta selatan",ChIJf4aqnpXvaS4RwmLxAGVxnuQ,0
warteg novi,5,1,-6.346052500000001,106.8148818,"mr37+hxc, rt.3/rw.8, srengseng sawah, south jakarta city",ChIJh_OxCZvvaS4RQwccP6zU804,0
warteg nampol,5,1,-6.3449675,106.815473,"blok h turini, jl. wr. sila blok h turini no.6, rt.2/rw.5, ciganjur, kota jakarta selatan",ChIJMdWohYHuaS4RYEOEDokoX3U,0
warteg kharisma bahari,4.3,8,-6.3454731,106.8097982,"jl. wr. sila no.80, rt.11/rw.4, cipedak, kota jakarta selatan",ChIJ90chnYbuaS4Rzqstt0ktS28,0
wkb warteg kharisma bahari jagakarsa kahfi 2,5,7,-6.3432224,106.8174907,"7, jl. moch. kahfi ii no.30a, rt.7/rw.8, srengseng sawah, south jakarta city",ChIJbzJ5iNbvaS4RxFDw-zJCyoc,0
warteg mulia,4.5,2,-6.3409941,106.8196995,"jalan mohammad kafi ii no.3, rt.1/rw.4, ciganjur, kota jakarta selatan",ChIJBUEpxCrsaS4RWbpsS16exdU,0
warteg nongkrong m3style,4,2,-6.3395896,106.8209531,"jl. moch. kahfi ii no.2, rt.5/rw.4, ciganjur, kota jakarta selatan",ChIJG0eg19TtaS4RwPv_ZSc-LsE,0
warteg 03 sumber berkah,5,2,-6.3396184,106.8209255,"jl. moch. kahfi ii no.2, rt.2/rw.4, ciganjur, kota jakarta selatan",ChIJz5o5v4_taS4RFCf0IPH7RqY,0
warteg hidayah,0,0,-6.3432027,106.8175803,"jl. moch. kahfi ii, rt.5/rw.4, srengseng sawah, kota jakarta selatan",ChIJDZmy0YHuaS4RF24q6ceBQi4,0
podomoro warteg,0,0,-6.339612499999999,106.8133452,"jl. sadar raya no.46, rt.3/rw.4, ciganjur, kota jakarta selatan",ChIJJSzPF37uaS4RsLVYKFezhpw,0
warteg ibu ii,5,1,-6.3387432,106.8100366,"jl. anda no.40, rt.7/rw.3, ciganjur, kota jakarta selatan",ChIJ1U0uun3uaS4R6jiVvN2PrkQ,0
padang & warteg 10.000 restu jaya,5,1,-6.3359603,106.8133396,"jl. gandaria ujung, rt.2/rw.4, ciganjur, kota jakarta selatan",ChIJAaQWuH7uaS4RIjxgZ3jY4pg,0
wkb warteg kharisma bahari jagakarsa kahfi 2,5,7,-6.3432224,106.8174907,"7, jl. moch. kahfi ii no.30a, rt.7/rw.8, srengseng sawah, south jakarta city",ChIJbzJ5iNbvaS4RxFDw-zJCyoc,0
warteg mulya bahari,5,1,-6.3312532,106.8207416,"mr9c+f7x, rt.4/rw.7, jagakarsa, south jakarta city",ChIJ57Xu8iDtaS4RlY5a8H0e0UQ,0
warteg kharisma bahari khafi1,5,1,-6.3332808,106.8072633,"jl.moh.khafi1 rt08/01 no 20, rt.7/rw.1, ciganjur, kota jakarta selatan",ChIJf4aqnpXvaS4RwmLxAGVxnuQ,0
warteg lestari,4,4,-6.3439587,106.8124173,"jl. wr. sila no.18, rt.1/rw.5, ciganjur, kota jakarta selatan",ChIJ0x-3NoHuaS4RQoCQAgYvm5Y,0
warteg imam s jaya,4,2,-6.3344385,106.8212458,"jl. sirsak no.2, rt.5/rw.7, jagakarsa, kota jakarta selatan",ChIJTa_qhdbtaS4Rd8XGzbojItI,0
warteg permata,4.6,9,-6.3443801,106.8123741,"jl. wr. sila no.45, rt.8/rw.5, cipedak, kota jakarta selatan",ChIJiSWaSYHuaS4RLPo-axRVSsE,0
dapur warteg masakan khas tegal,0,0,-6.3304183,106.8160371,"jl. gandaria raya, rt.10/rw.2, jagakarsa, kota jakarta selatan",ChIJ7xfwI3juaS4Rx1M2H9fvO8M,0
warteg slawi ayu,0,0,-6.335947000000001,106.8060299,"jl. moh. kahfi 1 no.24, rt.8/rw.1, ciganjur, kota jakarta selatan",ChIJXU8EqXzuaS4REe3G5liZP3k,0
warteg rizky,5,3,-6.3290326,106.8054647,"jl. benda ujung, rt.3/rw.1, ciganjur, kota jakarta selatan",ChIJb4QL3W_uaS4Rts1Cd3o0w_s,0
warteg bahari,5,2,-6.354697499999999,106.8072112,"jl. timbul iv, rt.8/rw.6, cipedak, kota jakarta selatan",ChIJi8-wFJruaS4RIvu46uw6rNQ,0
warteg jaya bahari,4.6,5,-6.3571087,106.8125558,"jl. srengseng sawah, rt.10/rw.6, srengseng sawah, kota jakarta selatan",ChIJHVw5yJ7uaS4R3ooxs9ywYoY,0
warteg family,4.5,2,-6.3532505,106.8151128,"jl. srengseng sawah, rt.11/rw.9, srengseng sawah, kota jakarta selatan",ChIJDzZQqp3uaS4RJ5qH5WrhAUs,0
warteg slawi ayu,4.9,10,-6.356305499999999,106.8128188,"jl. srengseng sawah no.39, rt.2/rw.9, srengseng sawah, kota jakarta selatan",ChIJrbwTwzzvaS4RGZZRaxZ7mEc,0
warteg aru,0,0,-6.352363,106.8161379,"jl. srengseng sawah no.18, rt.6/rw.7, srengseng sawah, kota jakarta selatan",ChIJGZinE53uaS4R-CfEcHFzPMU,0
warteg siplah,4.5,27,-6.354629099999999,106.8142165,"jl. srengseng sawah no.90, rt.11/rw.9, srengseng sawah, kota jakarta selatan",ChIJk-FxN5zuaS4RMCXJR63ejDA,0
warteg hidayah,0,0,-6.360634999999999,106.807505,"jl. moch. kahfi ii no.46b, rt.5/rw.9, srengseng sawah, kota jakarta selatan",ChIJEZLIEITvaS4R4hM5mnAbO-4,0
warteg nur. risma,4,1,-6.3555058,106.8136301,"jl. srengseng sawah no.3, rt.10/rw.9, srengseng sawah, kota jakarta selatan",ChIJp0kMIZzuaS4RlipfbTCJWlE,0
warteg barokah mandiri,4.6,18,-6.3514422,106.8139699,"jl. batu, rt.1/rw.8, srengseng sawah, kota jakarta selatan",ChIJoXtYxJzuaS4R0juUMHM40AM,0
warteg murah,0,0,-6.362028,106.8070559,"jl. moh. kafi ii no.9, rt.7/rw.3, cipedak, south jakarta city",ChIJwxHgu6LuaS4ROyWfOPl96PM,0
warteg kharisma,0,0,-6.3614182,106.8071985,"jl. moch. kahfi ii no.42, rt.7/rw.3, cipedak, kota jakarta selatan",ChIJxxvlo6LuaS4RR-XrqU3xpLI,0
warteg barki,4,9,-6.3633636,106.8061298,"jalan mohammad kafi i no.27, rt.7/rw.3, cipedak, kota jakarta selatan",ChIJm2oVlULtaS4RCjifOaIDvjo,0
warteg dinda berhias,4.5,20,-6.358226600000001,106.8121072,"jl. srengseng sawah no.50, rt.8/rw.9, srengseng sawah, kota jakarta selatan",ChIJuZMI1Z7uaS4RebW3WjlExhw,0
warteg bude,5,1,-6.3510366,106.8090699,"jl. timbul no.32 c, rt.6/rw.5, cipedak, kota jakarta selatan",ChIJEVcrr77vaS4RC5wEXqjsYCk,0
warteg zubair,0,0,-6.357462900000001,106.8101542,"jl. srengseng sawah no.22, rt.9/rw.9, srengseng sawah, kota jakarta selatan",ChIJ-YymFpnuaS4RNMy0EViqOHM,0
warteg permata bahari,5,3,-6.3515496,106.8119013,"jl. moch. kahfi ii, rt.5/rw.5, cipedak, kota jakarta selatan",ChIJGR6hWJvuaS4Rhu2g9bTCKCE,0
warteg ani jaya,0,0,-6.3551137,106.8102212,"jl. moch. kahfi ii, rt.5/rw.3, cipedak, kota jakarta selatan",ChIJGf4Ww5vuaS4Ra94xTpCfSQg,0
warteg ibu laundry,0,0,-6.363195699999999,106.807026,"jl. moch. kahfi ii no.24, rt.2/5, rt.7/rw.3, cipedak, kota jakarta selatan",ChIJ2XnpM-3vaS4Raxg5ty7Kki8,0
warteg kuning,5,2,-6.355784099999999,106.8134912,"jl. srengseng sawah no.3, rt.10/rw.9, srengseng sawah, kota jakarta selatan",ChIJbdD2MGjvaS4Ry8Kry87CrRE,0
warteg rizki,0,0,-6.3496367,106.814187,"jl. batu, rt.1/rw.8, srengseng sawah, kota jakarta selatan",ChIJ8TaoJIPuaS4RNVKcGPb6xPE,0
warteg parin jaya,5,1,-6.3520996,106.8110548,"jl. timbul no.28, rt.5/rw.3, cipedak, kota jakarta selatan",ChIJCVZPaJvuaS4RvQc8kA5ZIC4,0
warteg kuning (belakang kampus istn),5,8,-6.3556871,106.8134197,"jl. srengseng sawah no.3, rt.1/rw.9, srengseng sawah, kota jakarta selatan",ChIJt5gJLHbvaS4R2arFvq3TndA,0
warteg karisma,4,1,-6.351616,106.819756,"jl. srengseng sawah no.27, rt.5/rw.7, srengseng sawah, kota jakarta selatan",ChIJs3nHkCfsaS4Rr9tikbRKDn4,0
warteg mulia,0,0,-6.3502839,106.8040441,"jrx3+vjm, rt.7/rw.4, cipedak, south jakarta city",ChIJSR_TxI_uaS4RdrJuFxWH9Rs,0
warteg mas jenggot,4.5,6,-6.352056399999999,106.8109835,"jl. timbul no.28, rt.1/rw.3, cipedak, kota jakarta selatan",ChIJGb9WtpDvaS4RhMUDhgKmes4,0
