nama_tempat,rating_tempat,user_ratings_total,latitude,longitude,alamat_tempat,place_id,distance
warteg iffa,4.6,18,-6.3118728,106.8130198,"jl. moh. kahfi 1 no.6, rt.2/rw.6, jagakarsa, kota jakarta selatan",ChIJjV7t2wjuaS4R3vakJG9toeE,0
warteg imam,5,2,-6.3105538,106.815925,"jl. raya cilandak kko no.28, rt.14/rw.8, ragunan, kota jakarta selatan",ChIJlVbUbgjuaS4RBAVy3n3vuKI,0
warteg jaya,0,0,-6.306342,106.8208922,"jl. saco 1 no.12, rt.6/rw.7, ragunan, kota jakarta selatan",ChIJ44joUvztaS4RTnG_i6RBO3c,0
warteg ojo lali cilandak,4.6,68,-6.310656400000001,106.8134351,"jl. margasatwa, rt.1/rw.6, jagakarsa, kota jakarta selatan",ChIJ73z5lQjuaS4Re-XgIblPmRM,0
warteg asli,4.4,5,-6.3012311,106.8213962,"jl. harsono rm no.4, rt.4/rw.7, ragunan, kota jakarta selatan",ChIJNQYRBf_taS4RXOd3dpbTlgk,0
warteg memori,0,0,-6.3072284,106.8167173,"jl. saco ragunan, rt.10/rw.8, ragunan, kota jakarta selatan",ChIJBfKengfuaS4R3YwTd76RQgU,0
warteg kharisma bahari,4.3,3,-6.310971899999999,106.8134758,"jl. margasatwa bar. no.6, rt.6/rw.6, jagakarsa, kota jakarta selatan",ChIJKf6IDyjvaS4R29bnWOziC44,0
warteg baru,4.2,52,-6.306978,106.816714,"jl. saco ragunan no.96, rt.10/rw.8, ragunan, kota jakarta selatan",ChIJE5KA-4bvaS4RX085812pVWg,0
warteg sakinah,5,1,-6.306642,106.8140197,"jl. raya cilandak kko, rt.14/rw.5, ragunan, kota jakarta selatan",ChIJXeOV8AbuaS4RiEBZOI5Epgc,0
warteg bahtiar,5,1,-6.3029464,106.8209253,"jl. harsono rm, rt.8/rw.4, ragunan, kota jakarta selatan",ChIJd14Kzf3taS4R-QUTJX4Ohe4,0
warteg resa,4.2,5,-6.307239,106.8139324,"jl. raya cilandak kko, rt.2/rw.7, ragunan, kota jakarta selatan",ChIJjWD8WAbuaS4RtyfwcnikgPM,0
warteg enak,0,0,-6.315056999999999,106.8153053,"mrm8+x4f, rt.4/rw.6, jagakarsa, south jakarta city",ChIJ74zNzPLvaS4R7R3p4pxrxPk,0
warteg kutilang,4,15,-6.3017788,106.8141985,"jl. raya cilandak kko no.42, rt.1/rw.8, ragunan, kota jakarta selatan",ChIJCyDeqQHuaS4RlkDAlsYsXY4,0
warteg sukasari ragunan,4.5,14,-6.3032897,106.8209314,"jalan harsono rm samping, gg hj.noin no.8, rt.8/rw.4, ragunan, kota jakarta selatan",ChIJI2B4jP7taS4Rw_MtxpMnvWg,0
warteg kowantara jaksel,0,0,-6.305208500000001,106.8191955,"08, jl. saco no.13, rt.1/rw.4, ragunan, kota jakarta selatan",ChIJQSS66f3taS4RJH1N0j_kTXc,0
warteg gaul (randy),0,0,-6.305714399999999,106.8161386,"jl. saco, rt.8/rw.8, ragunan, kota jakarta selatan",ChIJGw0vPgfuaS4RwaYcc3i1POw,0
warteg nur hikmah,4,1,-6.301049600000001,106.8146093,"jl. raya cilandak kko, rt.13/rw.5, ragunan, kota jakarta selatan",ChIJO9XpswHuaS4RjQrzMM0SY5Y,0
warteg mangga,0,0,-6.3047979,106.8207808,"ragunan, south jakarta city",ChIJpxnV0v3taS4RMhcpCpXLTFo,0
warteg sarini,0,0,-6.303285,106.820884,"jl. harsono rm no.8, rt.8/rw.4, ragunan, kota jakarta selatan",ChIJ_xE-iv7taS4RQBliWeojPLg,0
warteg danti,0,0,-6.302419599999999,106.8144034,"jl. raya cilandak kko no.5, rt.1/rw.5, ragunan, kota jakarta selatan",ChIJh_dbBAHuaS4RMyPMT22f9bI,0
warteg sarini,4.8,4,-6.3055045,106.8205492,"jl. harsono rm, rt.2/rw.4, ragunan, kota jakarta selatan",ChIJrcdGyv3taS4RS5LOFKDSXuE,0
warteg pemalang,4.6,14,-6.3112659,106.8088413,"jl. margasatwa no.49, rt.1/rw.7, pd. labu, kota jakarta selatan",ChIJwb2SAMbvaS4RYdRGroSlcd0,0
warteg kali restu,4.4,18,-6.300179,106.8212584,"jl. harsono rm no.4, rt.4/rw.7, ragunan, kota jakarta selatan",ChIJGazCc__taS4RMgJi_zm4ZH4,0
warteg mamoka bahari 66,4.3,9,-6.302408199999999,106.8143828,"jl. raya cilandak kko no.5, rt.1/rw.8, ragunan, kota jakarta selatan",ChIJu-dylUvvaS4RM_28fusffmo,0
warteg berkah,4.6,7,-6.3154002,106.8252704,"jl. kebagusan raya no.104a, rt.2/rw.4, kebagusan, kota jakarta selatan",ChIJbzgE6ubtaS4R2JXQt6ADxG0,0
warteg emak,0,0,-6.2990248,106.8212462,"jl. harsono rm no.5, rt.5/rw.7, ragunan, kota jakarta selatan",ChIJ1US9YxjzaS4R_8hiNv0ytK8,0
warteg hidayah,0,0,-6.3432027,106.8175803,"jl. moch. kahfi ii, rt.5/rw.4, srengseng sawah, kota jakarta selatan",ChIJDZmy0YHuaS4RF24q6ceBQi4,0
warteg nongkrong m3style,4,2,-6.3395896,106.8209531,"jl. moch. kahfi ii no.2, rt.5/rw.4, ciganjur, kota jakarta selatan",ChIJG0eg19TtaS4RwPv_ZSc-LsE,0
warteg sederhana,3,1,-6.348504399999999,106.8132192,"jl. moch. kahfi ii, rt.3/rw.5, cipedak, kota jakarta selatan",ChIJVXEDQSrvaS4RTlWC4v76vTo,0
warteg lestari,4,4,-6.3439587,106.8124173,"jl. wr. sila no.18, rt.1/rw.5, ciganjur, kota jakarta selatan",ChIJ0x-3NoHuaS4RQoCQAgYvm5Y,0
warteg rizki,0,0,-6.3496367,106.814187,"jl. batu, rt.1/rw.8, srengseng sawah, kota jakarta selatan",ChIJ8TaoJIPuaS4RNVKcGPb6xPE,0
warteg novi,5,1,-6.346052500000001,106.8148818,"mr37+hxc, rt.3/rw.8, srengseng sawah, south jakarta city",ChIJh_OxCZvvaS4RQwccP6zU804,0
warteg indah,0,0,-6.3482954,106.8202187,"jl. srengseng sawah no.81, rt.2/rw.7, srengseng sawah, kota jakarta selatan",ChIJC4dZUCjsaS4RTu-CK60jj50,0
warteg 03 sumber berkah,5,2,-6.3396184,106.8209255,"jl. moch. kahfi ii no.2, rt.2/rw.4, ciganjur, kota jakarta selatan",ChIJz5o5v4_taS4RFCf0IPH7RqY,0
warteg permata,4.6,9,-6.3443801,106.8123741,"jl. wr. sila no.45, rt.8/rw.5, cipedak, kota jakarta selatan",ChIJiSWaSYHuaS4RLPo-axRVSsE,0
warteg kharisma,0,0,-6.3449269,106.8143465,"jl. wr. sila no.3, rt.2/rw.5, cipedak, kota jakarta selatan",ChIJa32xcYHuaS4R6ptFVCERfUE,0
warteg mulia,4.5,2,-6.3409941,106.8196995,"jalan mohammad kafi ii no.3, rt.1/rw.4, ciganjur, kota jakarta selatan",ChIJBUEpxCrsaS4RWbpsS16exdU,0
wkb warteg kharisma bahari jagakarsa kahfi 2,5,7,-6.3432224,106.8174907,"7, jl. moch. kahfi ii no.30a, rt.7/rw.8, srengseng sawah, south jakarta city",ChIJbzJ5iNbvaS4RxFDw-zJCyoc,0
podomoro warteg,0,0,-6.339612499999999,106.8133452,"jl. sadar raya no.46, rt.3/rw.4, ciganjur, kota jakarta selatan",ChIJJSzPF37uaS4RsLVYKFezhpw,0
warteg 05 senayan,4.9,8,-6.338871,106.822002,"jl. moch. kahfi ii no.14d, rt.1/rw.4, ciganjur, kota jakarta selatan",ChIJXwaZBMbvaS4RLekgy4EFnIs,0
warteg 24jam,0,0,-6.3475722,106.8097109,"jl. persahabatan no.1, rt.1/rw.4, cipedak, kota jakarta selatan",ChIJy_RnZGbvaS4R9jZKDADUtGA,0
warteg asih,0,0,-6.3367945,106.8249017,"jl. moh. kahfi 1 no.9, rt.9/rw.1, jagakarsa, kota jakarta selatan",ChIJy-7eltPtaS4RK2Ehj-v20R8,0
warteg berkah,5,1,-6.348489,106.8092822,"jl. persahabatan jl. al hidayah no.depan, rt.7/rw.4, cipedak, kota jakarta selatan",ChIJrTtBkz_vaS4RM_q9e0hsxFo,0
warteg nampol,5,1,-6.3449675,106.815473,"blok h turini, jl. wr. sila blok h turini no.6, rt.2/rw.5, ciganjur, kota jakarta selatan",ChIJMdWohYHuaS4RYEOEDokoX3U,0
warteg kharisma bahari,4.3,8,-6.3454731,106.8097982,"jl. wr. sila no.80, rt.11/rw.4, cipedak, kota jakarta selatan",ChIJ90chnYbuaS4Rzqstt0ktS28,0
warteg berkah jaya,4.4,21,-6.345132,106.8093445,"jl. wr. sila no.18, rt.2/rw.4, ciganjur, kota jakarta selatan",ChIJZ1Lqh4buaS4Rw8fk46VIZuA,0
warteg ibu ii,5,1,-6.3387432,106.8100366,"jl. anda no.40, rt.7/rw.3, ciganjur, kota jakarta selatan",ChIJ1U0uun3uaS4R6jiVvN2PrkQ,0
warteg kharisma 99,3.7,15,-6.346443,106.8256229,"rt006/rw006, rt.7/rw.6, srengseng sawah, kota jakarta selatan",ChIJH5b27C7saS4R7d3H9bIUC7I,0
warteg barokah mandiri,4.6,18,-6.3514422,106.8139699,"jl. batu, rt.1/rw.8, srengseng sawah, kota jakarta selatan",ChIJoXtYxJzuaS4R0juUMHM40AM,0
padang & warteg 10.000 restu jaya,5,1,-6.3359603,106.8133396,"jl. gandaria ujung, rt.2/rw.4, ciganjur, kota jakarta selatan",ChIJAaQWuH7uaS4RIjxgZ3jY4pg,0
warteg karisma,4,1,-6.351616,106.819756,"jl. srengseng sawah no.27, rt.5/rw.7, srengseng sawah, kota jakarta selatan",ChIJs3nHkCfsaS4Rr9tikbRKDn4,0
warteg fitri jagakarsa,0,0,-6.3347861,106.8244909,"jl. belimbing no.10, rt.10/rw.1, jagakarsa, kota jakarta selatan",ChIJTZcmWNHtaS4R3JEzgsjE6s4,0
warteg mulia soto ayam,0,0,-6.3464494,106.8257512,"jl. srengseng sawah, rt.6/rw.6, srengseng sawah, kota jakarta selatan",ChIJW4Pg7C7saS4RUdKsxMg0Fn4,0
warteg mpo nimah,0,0,-6.3360597,106.8256292,"jl. sirsak no.11-10, rt.9/rw.1, jagakarsa, kota jakarta selatan",ChIJi4oBT6PtaS4RQOEvoZyjeVM,0
warteg nongkrong m3style,4,2,-6.3395896,106.8209531,"jl. moch. kahfi ii no.2, rt.5/rw.4, ciganjur, kota jakarta selatan",ChIJG0eg19TtaS4RwPv_ZSc-LsE,0
warteg mulia,4.5,2,-6.3409941,106.8196995,"jalan mohammad kafi ii no.3, rt.1/rw.4, ciganjur, kota jakarta selatan",ChIJBUEpxCrsaS4RWbpsS16exdU,0
warteg 03 sumber berkah,5,2,-6.3396184,106.8209255,"jl. moch. kahfi ii no.2, rt.2/rw.4, ciganjur, kota jakarta selatan",ChIJz5o5v4_taS4RFCf0IPH7RqY,0
warteg hidayah,0,0,-6.3432027,106.8175803,"jl. moch. kahfi ii, rt.5/rw.4, srengseng sawah, kota jakarta selatan",ChIJDZmy0YHuaS4RF24q6ceBQi4,0
warteg 05 senayan,4.9,8,-6.338871,106.822002,"jl. moch. kahfi ii no.14d, rt.1/rw.4, ciganjur, kota jakarta selatan",ChIJXwaZBMbvaS4RLekgy4EFnIs,0
wkb warteg kharisma bahari jagakarsa kahfi 2,5,7,-6.3432224,106.8174907,"7, jl. moch. kahfi ii no.30a, rt.7/rw.8, srengseng sawah, south jakarta city",ChIJbzJ5iNbvaS4RxFDw-zJCyoc,0
warteg asih,0,0,-6.3367945,106.8249017,"jl. moh. kahfi 1 no.9, rt.9/rw.1, jagakarsa, kota jakarta selatan",ChIJy-7eltPtaS4RK2Ehj-v20R8,0
warteg lestari,4,4,-6.3439587,106.8124173,"jl. wr. sila no.18, rt.1/rw.5, ciganjur, kota jakarta selatan",ChIJ0x-3NoHuaS4RQoCQAgYvm5Y,0
warteg indah,0,0,-6.3482954,106.8202187,"jl. srengseng sawah no.81, rt.2/rw.7, srengseng sawah, kota jakarta selatan",ChIJC4dZUCjsaS4RTu-CK60jj50,0
warteg novi,5,1,-6.346052500000001,106.8148818,"mr37+hxc, rt.3/rw.8, srengseng sawah, south jakarta city",ChIJh_OxCZvvaS4RQwccP6zU804,0
warteg kharisma,0,0,-6.3449269,106.8143465,"jl. wr. sila no.3, rt.2/rw.5, cipedak, kota jakarta selatan",ChIJa32xcYHuaS4R6ptFVCERfUE,0
warteg sederhana,3,1,-6.348504399999999,106.8132192,"jl. moch. kahfi ii, rt.3/rw.5, cipedak, kota jakarta selatan",ChIJVXEDQSrvaS4RTlWC4v76vTo,0
warteg rizki,0,0,-6.3496367,106.814187,"jl. batu, rt.1/rw.8, srengseng sawah, kota jakarta selatan",ChIJ8TaoJIPuaS4RNVKcGPb6xPE,0
warteg permata,4.6,9,-6.3443801,106.8123741,"jl. wr. sila no.45, rt.8/rw.5, cipedak, kota jakarta selatan",ChIJiSWaSYHuaS4RLPo-axRVSsE,0
podomoro warteg,0,0,-6.339612499999999,106.8133452,"jl. sadar raya no.46, rt.3/rw.4, ciganjur, kota jakarta selatan",ChIJJSzPF37uaS4RsLVYKFezhpw,0
warteg berkah,5,1,-6.348489,106.8092822,"jl. persahabatan jl. al hidayah no.depan, rt.7/rw.4, cipedak, kota jakarta selatan",ChIJrTtBkz_vaS4RM_q9e0hsxFo,0
warteg nampol,5,1,-6.3449675,106.815473,"blok h turini, jl. wr. sila blok h turini no.6, rt.2/rw.5, ciganjur, kota jakarta selatan",ChIJMdWohYHuaS4RYEOEDokoX3U,0
warteg kharisma bahari,4.3,8,-6.3454731,106.8097982,"jl. wr. sila no.80, rt.11/rw.4, cipedak, kota jakarta selatan",ChIJ90chnYbuaS4Rzqstt0ktS28,0
warteg berkah jaya,4.4,21,-6.345132,106.8093445,"jl. wr. sila no.18, rt.2/rw.4, ciganjur, kota jakarta selatan",ChIJZ1Lqh4buaS4Rw8fk46VIZuA,0
warteg kharisma 99,3.7,15,-6.346443,106.8256229,"rt006/rw006, rt.7/rw.6, srengseng sawah, kota jakarta selatan",ChIJH5b27C7saS4R7d3H9bIUC7I,0
warteg 24jam,0,0,-6.3475722,106.8097109,"jl. persahabatan no.1, rt.1/rw.4, cipedak, kota jakarta selatan",ChIJy_RnZGbvaS4R9jZKDADUtGA,0
warteg ibu roso,0,0,-6.345343300000001,106.8260761,"jl. srengseng sawah, rt.5/rw.6, srengseng sawah, kota jakarta selatan",ChIJp_Vugy7saS4RnuazhSFMx0k,0
warteg barokah mandiri,4.6,18,-6.3514422,106.8139699,"jl. batu, rt.1/rw.8, srengseng sawah, kota jakarta selatan",ChIJoXtYxJzuaS4R0juUMHM40AM,0
warteg karisma,4,1,-6.351616,106.819756,"jl. srengseng sawah no.27, rt.5/rw.7, srengseng sawah, kota jakarta selatan",ChIJs3nHkCfsaS4Rr9tikbRKDn4,0
warteg zahirah,4.8,11,-6.3353233,106.8242948,"jl. sirsak, rt.9/rw.1, jagakarsa, kota jakarta selatan",ChIJ9Tpr-tPtaS4R73_9rM2mryE,0
padang & warteg 10.000 restu jaya,5,1,-6.3359603,106.8133396,"jl. gandaria ujung, rt.2/rw.4, ciganjur, kota jakarta selatan",ChIJAaQWuH7uaS4RIjxgZ3jY4pg,0
warteg bude,5,1,-6.3510366,106.8090699,"jl. timbul no.32 c, rt.6/rw.5, cipedak, kota jakarta selatan",ChIJEVcrr77vaS4RC5wEXqjsYCk,0
warteg permata bahari,5,3,-6.3515496,106.8119013,"jl. moch. kahfi ii, rt.5/rw.5, cipedak, kota jakarta selatan",ChIJGR6hWJvuaS4Rhu2g9bTCKCE,0
warteg nongkrong m3style,4,2,-6.3395896,106.8209531,"jl. moch. kahfi ii no.2, rt.5/rw.4, ciganjur, kota jakarta selatan",ChIJG0eg19TtaS4RwPv_ZSc-LsE,0
warteg mulia,4.5,2,-6.3409941,106.8196995,"jalan mohammad kafi ii no.3, rt.1/rw.4, ciganjur, kota jakarta selatan",ChIJBUEpxCrsaS4RWbpsS16exdU,0
warteg 03 sumber berkah,5,2,-6.3396184,106.8209255,"jl. moch. kahfi ii no.2, rt.2/rw.4, ciganjur, kota jakarta selatan",ChIJz5o5v4_taS4RFCf0IPH7RqY,0
warteg hidayah,0,0,-6.3432027,106.8175803,"jl. moch. kahfi ii, rt.5/rw.4, srengseng sawah, kota jakarta selatan",ChIJDZmy0YHuaS4RF24q6ceBQi4,0
warteg asih,0,0,-6.3367945,106.8249017,"jl. moh. kahfi 1 no.9, rt.9/rw.1, jagakarsa, kota jakarta selatan",ChIJy-7eltPtaS4RK2Ehj-v20R8,0
warteg kharisma bahari,4.2,212,-6.341190999999999,106.8275371,"warteg kharisma bahari, jalan desa putra no 35a rt12/rw05, jl. desa putra no.35 a, rt.12/rw.5, srengseng sawah, kota jakarta selatan",ChIJ8X83PC3saS4RVe2yctRPCYY,0
warteg 05 senayan,4.9,8,-6.338871,106.822002,"jl. moch. kahfi ii no.14d, rt.1/rw.4, ciganjur, kota jakarta selatan",ChIJXwaZBMbvaS4RLekgy4EFnIs,0
wkb warteg kharisma bahari jagakarsa kahfi 2,5,7,-6.3432224,106.8174907,"7, jl. moch. kahfi ii no.30a, rt.7/rw.8, srengseng sawah, south jakarta city",ChIJbzJ5iNbvaS4RxFDw-zJCyoc,0
warteg novi,5,1,-6.346052500000001,106.8148818,"mr37+hxc, rt.3/rw.8, srengseng sawah, south jakarta city",ChIJh_OxCZvvaS4RQwccP6zU804,0
warteg kharisma,0,0,-6.3449269,106.8143465,"jl. wr. sila no.3, rt.2/rw.5, cipedak, kota jakarta selatan",ChIJa32xcYHuaS4R6ptFVCERfUE,0
warteg imam s jaya,4,2,-6.3344385,106.8212458,"jl. sirsak no.2, rt.5/rw.7, jagakarsa, kota jakarta selatan",ChIJTa_qhdbtaS4Rd8XGzbojItI,0
podomoro warteg,0,0,-6.339612499999999,106.8133452,"jl. sadar raya no.46, rt.3/rw.4, ciganjur, kota jakarta selatan",ChIJJSzPF37uaS4RsLVYKFezhpw,0
warteg julay,5,1,-6.346016,106.826898,"mr3g+hqr, rt.2/rw.15, srengseng sawah, south jakarta city",ChIJGcN9YS7saS4RqzX_69zLJ90,0
warteg yanti,0,0,-6.340872099999999,106.8275979,"jl. desa putra, rt.7/rw.5, srengseng sawah, kota jakarta selatan",ChIJIzWAPC3saS4RQ8BnOPx-gCU,0
warteg kharisma 99,3.7,15,-6.346443,106.8256229,"rt006/rw006, rt.7/rw.6, srengseng sawah, kota jakarta selatan",ChIJH5b27C7saS4R7d3H9bIUC7I,0
warteg lestari,4,4,-6.3439587,106.8124173,"jl. wr. sila no.18, rt.1/rw.5, ciganjur, kota jakarta selatan",ChIJ0x-3NoHuaS4RQoCQAgYvm5Y,0
warteg indah,0,0,-6.3482954,106.8202187,"jl. srengseng sawah no.81, rt.2/rw.7, srengseng sawah, kota jakarta selatan",ChIJC4dZUCjsaS4RTu-CK60jj50,0
warteg berkah,4.3,30,-6.3451949,106.8275808,"jl. srengseng sawah no.93, rt.14/rw.3, srengseng sawah, kota jakarta selatan",ChIJYXwYjjHsaS4Rhhf3v8dK0Hk,0
warteg fitri jagakarsa,0,0,-6.3347861,106.8244909,"jl. belimbing no.10, rt.10/rw.1, jagakarsa, kota jakarta selatan",ChIJTZcmWNHtaS4R3JEzgsjE6s4,0
warteg kharisma,4,7,-6.341099,106.827605,"jalan desa putra, jalan desa putra raya no 35a, rw.06 rt.12, jagakarsa, srengseng sawah, rt.7/rw.5, srengseng sawah, kota jakarta selatan",ChIJ2UczdIruaS4Rb5QyH0Rb19I,0
warteg ibu roso,0,0,-6.345343300000001,106.8260761,"jl. srengseng sawah, rt.5/rw.6, srengseng sawah, kota jakarta selatan",ChIJp_Vugy7saS4RnuazhSFMx0k,0
warteg zahirah,4.8,11,-6.3353233,106.8242948,"jl. sirsak, rt.9/rw.1, jagakarsa, kota jakarta selatan",ChIJ9Tpr-tPtaS4R73_9rM2mryE,0
padang & warteg 10.000 restu jaya,5,1,-6.3359603,106.8133396,"jl. gandaria ujung, rt.2/rw.4, ciganjur, kota jakarta selatan",ChIJAaQWuH7uaS4RIjxgZ3jY4pg,0
warteg sederhana,3,1,-6.348504399999999,106.8132192,"jl. moch. kahfi ii, rt.3/rw.5, cipedak, kota jakarta selatan",ChIJVXEDQSrvaS4RTlWC4v76vTo,0
warteg mulia soto ayam,0,0,-6.3464494,106.8257512,"jl. srengseng sawah, rt.6/rw.6, srengseng sawah, kota jakarta selatan",ChIJW4Pg7C7saS4RUdKsxMg0Fn4,0
warteg permata,4.6,9,-6.3443801,106.8123741,"jl. wr. sila no.45, rt.8/rw.5, cipedak, kota jakarta selatan",ChIJiSWaSYHuaS4RLPo-axRVSsE,0
warteg nampol,5,1,-6.3449675,106.815473,"blok h turini, jl. wr. sila blok h turini no.6, rt.2/rw.5, ciganjur, kota jakarta selatan",ChIJMdWohYHuaS4RYEOEDokoX3U,0
warteg mpo nimah,0,0,-6.3360597,106.8256292,"jl. sirsak no.11-10, rt.9/rw.1, jagakarsa, kota jakarta selatan",ChIJi4oBT6PtaS4RQOEvoZyjeVM,0
warteg sidomulyo,5,5,-6.33546,106.828119,"jalan m kahfi ii rt 08 rw 01 jagakarsa, jakarta selatan, rt.8/rw.1, jagakarsa, kota jakarta selatan",ChIJu7hwPdLtaS4RUDDdzO3LO4s,0
warteg family@2,0,0,-6.333558999999999,106.8280761,"jl. jeruk raya no.67, rt.12/rw.1, jagakarsa, kota jakarta selatan",ChIJfwBDldHtaS4RmPgWzmFJ0sU,0
warteg hidayah bahari,5,18,-6.3455604,106.8271068,"jl. srengseng sawah no.36 a, rt.5/rw.6, srengseng sawah, kota jakarta selatan",ChIJiXy9ABvtaS4RDVnxBTkAHZU,0
warteg bahari sedia soto ayam,0,0,-6.333563799999999,106.8280882,"jl. jeruk raya no.67, rt.12/rw.1, jagakarsa, kota jakarta selatan",ChIJ14lZldHtaS4R6NMDRXaVyvE,0
